[{"name": "Huntsville city, Alabama", "lat": 34.78227, "lng": -86.5326, "population": 215006}, {"name": "Birmingham city, Alabama", "lat": 33.52717, "lng": -86.79704, "population": 200733}, {"name": "Montgomery city, Alabama", "lat": 32.3485, "lng": -86.26731, "population": 200603}, {"name": "Mobile city, Alabama", "lat": 30.66843, "lng": -88.10023, "population": 187041}, {"name": "Tuscaloosa city, Alabama", "lat": 33.2344, "lng": -87.5283, "population": 99600}, {"name": "Hoover city, Alabama", "lat": 33.37695, "lng": -86.80558, "population": 92606}, {"name": "Auburn city, Alabama", "lat": 32.60772, "lng": -85.48955, "population": 76143}, {"name": "Dothan city, Alabama", "lat": 31.2337, "lng": -85.40682, "population": 71072}, {"name": "Decatur city, Alabama", "lat": 34.57299, "lng": -86.9899, "population": 57938}, {"name": "Madison city, Alabama", "lat": 34.71053, "lng": -86.76228, "population": 56933}, {"name": "Florence city, Alabama", "lat": 34.83032, "lng": -87.66614, "population": 40184}, {"name": "Vestavia Hills city, Alabama", "lat": 33.4625, "lng": -86.73951, "population": 39102}, {"name": "Phenix City city, Alabama", "lat": 32.46167, "lng": -85.02502, "population": 38816}, {"name": "Prattville city, Alabama", "lat": 32.44904, "lng": -86.4494, "population": 37781}, {"name": "Gadsden city, Alabama", "lat": 34.0066, "lng": -86.01608, "population": 33945}, {"name": "Alabaster city, Alabama", "lat": 33.2444, "lng": -86.84737, "population": 33284}, {"name": "Northport city, Alabama", "lat": 33.25756, "lng": -87.5964, "population": 31125}, {"name": "Opelika city, Alabama", "lat": 32.66139, "lng": -85.37632, "population": 30995}, {"name": "Enterprise city, Alabama", "lat": 31.3269, "lng": -85.84402, "population": 28711}, {"name": "Daphne city, Alabama", "lat": 30.6277, "lng": -87.88399, "population": 27462}, {"name": "Homewood city, Alabama", "lat": 33.45855, "lng": -86.80965, "population": 26414}, {"name": "Trussville city, Alabama", "lat": 33.65523, "lng": -86.56324, "population": 26123}, {"name": "Bessemer city, Alabama", "lat": 33.37086, "lng": -86.97152, "population": 26019}, {"name": "Athens city, Alabama", "lat": 34.77902, "lng": -86.9508, "population": 25406}, {"name": "Pelham city, Alabama", "lat": 33.32183, "lng": -86.7422, "population": 24318}, {"name": "Fairhope city, Alabama", "lat": 30.52092, "lng": -87.87912, "population": 22477}, {"name": "Mountain Brook city, Alabama", "lat": 33.49149, "lng": -86.73447, "population": 22461}, {"name": "Albertville city, Alabama", "lat": 34.26313, "lng": -86.21066, "population": 22386}, {"name": "Oxford city, Alabama", "lat": 33.59737, "lng": -85.86813, "population": 22069}, {"name": "Anniston city, Alabama", "lat": 33.67347, "lng": -85.81089, "population": 21564}, {"name": "Helena city, Alabama", "lat": 33.28342, "lng": -86.87918, "population": 20914}, {"name": "Foley city, Alabama", "lat": 30.39701, "lng": -87.66421, "population": 20335}, {"name": "Prichard city, Alabama", "lat": 30.77334, "lng": -88.13142, "population": 19322}, {"name": "Cullman city, Alabama", "lat": 34.17687, "lng": -86.84066, "population": 18213}, {"name": "Selma city, Alabama", "lat": 32.41698, "lng": -87.0357, "population": 17971}, {"name": "Tillmans Corner CDP, Alabama", "lat": 30.58153, "lng": -88.21278, "population": 17731}, {"name": "Troy city, Alabama", "lat": 31.80196, "lng": -85.96713, "population": 17727}, {"name": "Hueytown city, Alabama", "lat": 33.4086, "lng": -87.01656, "population": 16776}, {"name": "Millbrook city, Alabama", "lat": 32.50147, "lng": -86.37391, "population": 16564}, {"name": "Calera city, Alabama", "lat": 33.12232, "lng": -86.74564, "population": 16494}, {"name": "Center Point city, Alabama", "lat": 33.6439, "lng": -86.68457, "population": 16406}, {"name": "Muscle Shoals city, Alabama", "lat": 34.74317, "lng": -87.63376, "population": 16275}, {"name": "Saraland city, Alabama", "lat": 30.85401, "lng": -88.0972, "population": 16171}, {"name": "Gardendale city, Alabama", "lat": 33.67659, "lng": -86.80984, "population": 16044}, {"name": "Talladega city, Alabama", "lat": 33.43176, "lng": -86.09945, "population": 15861}, {"name": "Scottsboro city, Alabama", "lat": 34.64462, "lng": -86.04815, "population": 15578}, {"name": "Hartselle city, Alabama", "lat": 34.44043, "lng": -86.94036, "population": 15455}, {"name": "Gulf Shores city, Alabama", "lat": 30.27584, "lng": -87.70126, "population": 15014}, {"name": "Chelsea city, Alabama", "lat": 33.32689, "lng": -86.62952, "population": 14982}, {"name": "Fort Payne city, Alabama", "lat": 34.45733, "lng": -85.68945, "population": 14877}, {"name": "Alexander City city, Alabama", "lat": 32.92724, "lng": -85.93712, "population": 14843}, {"name": "Jasper city, Alabama", "lat": 33.85603, "lng": -87.27027, "population": 14572}, {"name": "Jacksonville city, Alabama", "lat": 33.81007, "lng": -85.75522, "population": 14385}, {"name": "Ozark city, Alabama", "lat": 31.45162, "lng": -85.64503, "population": 14368}, {"name": "Irondale city, Alabama", "lat": 33.53991, "lng": -86.65908, "population": 13497}, {"name": "Moody city, Alabama", "lat": 33.60343, "lng": -86.49379, "population": 13170}, {"name": "McCalla CDP, Alabama", "lat": 33.30311, "lng": -87.02666, "population": 12965}, {"name": "Pell City city, Alabama", "lat": 33.56031, "lng": -86.26363, "population": 12939}, {"name": "Eufaula city, Alabama", "lat": 31.90994, "lng": -85.15271, "population": 12882}, {"name": "Sylacauga city, Alabama", "lat": 33.18867, "lng": -86.2748, "population": 12578}, {"name": "Leeds city, Alabama", "lat": 33.54685, "lng": -86.57145, "population": 12324}, {"name": "Russellville city, Alabama", "lat": 34.50572, "lng": -87.72812, "population": 10855}, {"name": "Valley city, Alabama", "lat": 32.80143, "lng": -85.20444, "population": 10529}, {"name": "Forestdale CDP, Alabama", "lat": 33.5737, "lng": -86.90005, "population": 10409}, {"name": "Clay city, Alabama", "lat": 33.69658, "lng": -86.60818, "population": 10291}, {"name": "Rainbow City city, Alabama", "lat": 33.92878, "lng": -86.08423, "population": 10191}, {"name": "Boaz city, Alabama", "lat": 34.19902, "lng": -86.15515, "population": 10107}, {"name": "Spanish Fort city, Alabama", "lat": 30.72297, "lng": -87.86592, "population": 10049}, {"name": "Fairfield city, Alabama", "lat": 33.47478, "lng": -86.91941, "population": 10000}, {"name": "Saks CDP, Alabama", "lat": 33.7114, "lng": -85.8537, "population": 9956}, {"name": "Fultondale city, Alabama", "lat": 33.61736, "lng": -86.80144, "population": 9876}, {"name": "Meadowbrook CDP, Alabama", "lat": 33.39523, "lng": -86.70437, "population": 9688}, {"name": "Pleasant Grove city, Alabama", "lat": 33.49397, "lng": -86.97814, "population": 9544}, {"name": "Pike Road town, Alabama", "lat": 32.27361, "lng": -86.11893, "population": 9439}, {"name": "Southside city, Alabama", "lat": 33.89084, "lng": -86.01802, "population": 9426}, {"name": "Sheffield city, Alabama", "lat": 34.75703, "lng": -87.69818, "population": 9403}, {"name": "Tuskegee city, Alabama", "lat": 32.41872, "lng": -85.68251, "population": 9395}, {"name": "Tuscumbia city, Alabama", "lat": 34.7185, "lng": -87.70259, "population": 9054}, {"name": "Andalusia city, Alabama", "lat": 31.30944, "lng": -86.47803, "population": 8805}, {"name": "Clanton city, Alabama", "lat": 32.84557, "lng": -86.61949, "population": 8768}, {"name": "Guntersville city, Alabama", "lat": 34.36795, "lng": -86.25232, "population": 8553}, {"name": "Arab city, Alabama", "lat": 34.33239, "lng": -86.50117, "population": 8461}, {"name": "Atmore city, Alabama", "lat": 31.12407, "lng": -87.4578, "population": 8391}, {"name": "Meridianville CDP, Alabama", "lat": 34.87491, "lng": -86.58056, "population": 8209}, {"name": "Bay Minette city, Alabama", "lat": 30.89444, "lng": -87.79131, "population": 8107}, {"name": "Orange Beach city, Alabama", "lat": 30.29399, "lng": -87.59537, "population": 8095}, {"name": "Brook Highland CDP, Alabama", "lat": 33.44038, "lng": -86.68488, "population": 7406}, {"name": "Greenville city, Alabama", "lat": 31.84307, "lng": -86.63695, "population": 7374}, {"name": "Montevallo city, Alabama", "lat": 33.12605, "lng": -86.8477, "population": 7229}, {"name": "Wetumpka city, Alabama", "lat": 32.54038, "lng": -86.207, "population": 7220}, {"name": "Pinson city, Alabama", "lat": 33.70329, "lng": -86.66974, "population": 7215}, {"name": "Demopolis city, Alabama", "lat": 32.49974, "lng": -87.82668, "population": 7162}, {"name": "Hamilton city, Alabama", "lat": 34.13871, "lng": -87.97083, "population": 7042}, {"name": "Lanett city, Alabama", "lat": 32.85777, "lng": -85.20776, "population": 6970}, {"name": "Oneonta city, Alabama", "lat": 33.94704, "lng": -86.48979, "population": 6938}, {"name": "Lincoln city, Alabama", "lat": 33.58017, "lng": -86.12788, "population": 6845}, {"name": "Opp city, Alabama", "lat": 31.28438, "lng": -86.25744, "population": 6771}, {"name": "Satsuma city, Alabama", "lat": 30.85787, "lng": -88.06338, "population": 6749}, {"name": "Moores Mill CDP, Alabama", "lat": 34.85214, "lng": -86.52038, "population": 6729}, {"name": "Robertsdale city, Alabama", "lat": 30.55714, "lng": -87.70472, "population": 6708}, {"name": "Chickasaw city, Alabama", "lat": 30.77145, "lng": -88.0797, "population": 6457}, {"name": "Theodore CDP, Alabama", "lat": 30.53869, "lng": -88.18757, "population": 6270}, {"name": "Tarrant city, Alabama", "lat": 33.5929, "lng": -86.76625, "population": 6124}, {"name": "Grayson Valley CDP, Alabama", "lat": 33.64662, "lng": -86.64166, "population": 5982}, {"name": "Monroeville city, Alabama", "lat": 31.51622, "lng": -87.32771, "population": 5951}, {"name": "Harvest CDP, Alabama", "lat": 34.85507, "lng": -86.75864, "population": 5893}, {"name": "Attalla city, Alabama", "lat": 33.98619, "lng": -86.12104, "population": 5827}, {"name": "Rainsville city, Alabama", "lat": 34.49436, "lng": -85.83651, "population": 5505}, {"name": "Smiths Station city, Alabama", "lat": 32.50716, "lng": -85.08107, "population": 5384}, {"name": "Glencoe city, Alabama", "lat": 33.94834, "lng": -85.93361, "population": 5372}, {"name": "Roanoke city, Alabama", "lat": 33.14531, "lng": -85.36953, "population": 5311}, {"name": "Brewton city, Alabama", "lat": 31.10918, "lng": -87.07658, "population": 5276}, {"name": "Highland Lakes CDP, Alabama", "lat": 33.39761, "lng": -86.64792, "population": 5239}, {"name": "Midfield city, Alabama", "lat": 33.45527, "lng": -86.92241, "population": 5211}, {"name": "Margaret town, Alabama", "lat": 33.67284, "lng": -86.46394, "population": 5106}, {"name": "Redland CDP, Alabama", "lat": 32.48143, "lng": -86.14376, "population": 5106}, {"name": "Headland city, Alabama", "lat": 31.35497, "lng": -85.35703, "population": 4973}, {"name": "Odenville city, Alabama", "lat": 33.70088, "lng": -86.42337, "population": 4969}, {"name": "Semmes city, Alabama", "lat": 30.82236, "lng": -88.22014, "population": 4941}, {"name": "Holtville CDP, Alabama", "lat": 32.6303, "lng": -86.328, "population": 4940}, {"name": "Pine Level CDP, Alabama", "lat": 32.57954, "lng": -86.45432, "population": 4885}, {"name": "Daleville city, Alabama", "lat": 31.29153, "lng": -85.71171, "population": 4866}, {"name": "Winfield city, Alabama", "lat": 33.93472, "lng": -87.79131, "population": 4845}, {"name": "Piedmont city, Alabama", "lat": 33.92756, "lng": -85.61527, "population": 4787}, {"name": "Springville city, Alabama", "lat": 33.74052, "lng": -86.48409, "population": 4786}, {"name": "Tallassee city, Alabama", "lat": 32.53002, "lng": -85.89008, "population": 4763}, {"name": "Childersburg city, Alabama", "lat": 33.29255, "lng": -86.34084, "population": 4754}, {"name": "Jackson city, Alabama", "lat": 31.53232, "lng": -87.89118, "population": 4748}, {"name": "Fort Rucker CDP, Alabama", "lat": 31.34258, "lng": -85.71607, "population": 4464}, {"name": "Columbiana city, Alabama", "lat": 33.19145, "lng": -86.61562, "population": 4462}, {"name": "Hokes Bluff city, Alabama", "lat": 33.98968, "lng": -85.86287, "population": 4446}, {"name": "Mount Olive CDP (Jefferson County), Alabama", "lat": 33.66929, "lng": -86.87549, "population": 4427}, {"name": "Argo town, Alabama", "lat": 33.69102, "lng": -86.50528, "population": 4368}, {"name": "Adamsville city, Alabama", "lat": 33.60231, "lng": -86.97153, "population": 4366}, {"name": "Haleyville city, Alabama", "lat": 34.23383, "lng": -87.61757, "population": 4361}, {"name": "Fayette city, Alabama", "lat": 33.69421, "lng": -87.83117, "population": 4285}, {"name": "Geneva city, Alabama", "lat": 31.04489, "lng": -85.87682, "population": 4245}, {"name": "Valley Grande city, Alabama", "lat": 32.48687, "lng": -87.03277, "population": 4190}, {"name": "Hazel Green CDP, Alabama", "lat": 34.92366, "lng": -86.56739, "population": 4105}, {"name": "Alexandria CDP, Alabama", "lat": 33.76082, "lng": -85.87201, "population": 4032}, {"name": "Citronelle city, Alabama", "lat": 31.09727, "lng": -88.24984, "population": 3946}, {"name": "Kimberly city, Alabama", "lat": 33.78031, "lng": -86.80059, "population": 3841}, {"name": "Loxley town, Alabama", "lat": 30.68459, "lng": -87.73921, "population": 3710}, {"name": "Thomasville city, Alabama", "lat": 31.91045, "lng": -87.74302, "population": 3649}, {"name": "Centre city, Alabama", "lat": 34.15306, "lng": -85.67168, "population": 3587}, {"name": "Lake View town, Alabama", "lat": 33.28827, "lng": -87.13265, "population": 3560}, {"name": "Evergreen city, Alabama", "lat": 31.43322, "lng": -86.97608, "population": 3520}, {"name": "Priceville town, Alabama", "lat": 34.52958, "lng": -86.88218, "population": 3512}, {"name": "Elba city, Alabama", "lat": 31.41722, "lng": -86.07712, "population": 3508}, {"name": "Grand Bay CDP, Alabama", "lat": 30.47208, "lng": -88.3444, "population": 3460}, {"name": "Livingston city, Alabama", "lat": 32.59555, "lng": -88.18693, "population": 3436}, {"name": "Heflin city, Alabama", "lat": 33.6474, "lng": -85.56934, "population": 3431}, {"name": "Holt CDP, Alabama", "lat": 33.22975, "lng": -87.48289, "population": 3413}, {"name": "Moulton city, Alabama", "lat": 34.4883, "lng": -87.28271, "population": 3398}, {"name": "Union Springs city, Alabama", "lat": 32.13951, "lng": -85.71462, "population": 3358}, {"name": "Weaver city, Alabama", "lat": 33.75907, "lng": -85.80936, "population": 3339}, {"name": "Emerald Mountain CDP, Alabama", "lat": 32.44769, "lng": -86.09438, "population": 3310}, {"name": "Red Bay city, Alabama", "lat": 34.4361, "lng": -88.13652, "population": 3232}, {"name": "Warrior city, Alabama", "lat": 33.81486, "lng": -86.81565, "population": 3224}, {"name": "Hanceville city, Alabama", "lat": 34.06401, "lng": -86.76444, "population": 3217}, {"name": "Marion city, Alabama", "lat": 32.63197, "lng": -87.31733, "population": 3176}, {"name": "Cottondale CDP, Alabama", "lat": 33.19305, "lng": -87.45486, "population": 3130}, {"name": "West End-Cobb Town CDP, Alabama", "lat": 33.65148, "lng": -85.87655, "population": 3128}, {"name": "Dadeville city, Alabama", "lat": 32.82611, "lng": -85.7762, "population": 3084}, {"name": "Ladonia CDP, Alabama", "lat": 32.45971, "lng": -85.09042, "population": 3074}, {"name": "Underwood-Petersville CDP, Alabama", "lat": 34.87611, "lng": -87.69816, "population": 3051}, {"name": "Moundville town, Alabama", "lat": 32.99654, "lng": -87.62754, "population": 3024}, {"name": "Brent city, Alabama", "lat": 32.94489, "lng": -87.17209, "population": 2972}, {"name": "Eutaw town, Alabama", "lat": 32.84625, "lng": -87.90033, "population": 2937}, {"name": "Eagle Point CDP, Alabama", "lat": 33.40091, "lng": -86.67675, "population": 2903}, {"name": "Triana town, Alabama", "lat": 34.58778, "lng": -86.74849, "population": 2890}, {"name": "New Hope city, Alabama", "lat": 34.53797, "lng": -86.41237, "population": 2889}, {"name": "Choccolocco CDP, Alabama", "lat": 33.66773, "lng": -85.70719, "population": 2838}, {"name": "Centreville city, Alabama", "lat": 32.95897, "lng": -87.13204, "population": 2800}, {"name": "Luverne city, Alabama", "lat": 31.71894, "lng": -86.26908, "population": 2765}, {"name": "La Fayette city, Alabama", "lat": 32.89943, "lng": -85.4008, "population": 2684}, {"name": "Hartford city, Alabama", "lat": 31.10535, "lng": -85.69123, "population": 2651}, {"name": "Jemison city, Alabama", "lat": 32.97071, "lng": -86.73307, "population": 2642}, {"name": "Remlap CDP, Alabama", "lat": 33.80697, "lng": -86.59394, "population": 2624}, {"name": "Owens Cross Roads town, Alabama", "lat": 34.58546, "lng": -86.45503, "population": 2594}, {"name": "Trinity town, Alabama", "lat": 34.59745, "lng": -87.08135, "population": 2526}, {"name": "Brookwood town, Alabama", "lat": 33.23984, "lng": -87.33149, "population": 2504}, {"name": "Lineville city, Alabama", "lat": 33.31283, "lng": -85.75228, "population": 2489}, {"name": "Good Hope city, Alabama", "lat": 34.11033, "lng": -86.86618, "population": 2483}, {"name": "Indian Springs Village city, Alabama", "lat": 33.36121, "lng": -86.74686, "population": 2481}, {"name": "Huguley CDP, Alabama", "lat": 32.84306, "lng": -85.23964, "population": 2470}, {"name": "Sumiton city, Alabama", "lat": 33.74927, "lng": -87.0469, "population": 2444}, {"name": "York city, Alabama", "lat": 32.50059, "lng": -88.29139, "population": 2414}, {"name": "Abbeville city, Alabama", "lat": 31.56472, "lng": -85.25912, "population": 2358}, {"name": "Ashville city, Alabama", "lat": 33.8352, "lng": -86.27002, "population": 2346}, {"name": "Brighton city, Alabama", "lat": 33.43955, "lng": -86.9454, "population": 2337}, {"name": "Dora city, Alabama", "lat": 33.72812, "lng": -87.08129, "population": 2297}, {"name": "East Brewton city, Alabama", "lat": 31.09144, "lng": -87.05535, "population": 2293}, {"name": "Henagar city, Alabama", "lat": 34.63064, "lng": -85.73092, "population": 2292}, {"name": "Clayton town, Alabama", "lat": 31.88228, "lng": -85.46045, "population": 2265}, {"name": "Bridgeport city, Alabama", "lat": 34.94931, "lng": -85.72377, "population": 2264}, {"name": "Taylor town, Alabama", "lat": 31.16881, "lng": -85.47579, "population": 2262}, {"name": "Morris town, Alabama", "lat": 33.74622, "lng": -86.80075, "population": 2259}, {"name": "Ashford town, Alabama", "lat": 31.18528, "lng": -85.23624, "population": 2246}, {"name": "Midland City town, Alabama", "lat": 31.31569, "lng": -85.49369, "population": 2239}, {"name": "Riverside city, Alabama", "lat": 33.61639, "lng": -86.20436, "population": 2227}, {"name": "Greensboro city, Alabama", "lat": 32.70097, "lng": -87.5937, "population": 2218}, {"name": "Stapleton CDP, Alabama", "lat": 30.73556, "lng": -87.79773, "population": 2213}, {"name": "Bayou La Batre city, Alabama", "lat": 30.40759, "lng": -88.26327, "population": 2204}, {"name": "Kinsey town, Alabama", "lat": 31.29627, "lng": -85.33499, "population": 2203}, {"name": "Guin city, Alabama", "lat": 33.98322, "lng": -87.90236, "population": 2195}, {"name": "Aliceville city, Alabama", "lat": 33.12371, "lng": -88.15934, "population": 2177}, {"name": "Carlisle-Rockledge CDP, Alabama", "lat": 34.11445, "lng": -86.12407, "population": 2167}, {"name": "Selmont-West Selmont CDP, Alabama", "lat": 32.37825, "lng": -87.0069, "population": 2158}, {"name": "Whitesboro CDP, Alabama", "lat": 34.169, "lng": -86.0585, "population": 2113}, {"name": "Uniontown town, Alabama", "lat": 32.44662, "lng": -87.48727, "population": 2107}, {"name": "Vance town, Alabama", "lat": 33.17399, "lng": -87.22663, "population": 2092}, {"name": "Lipscomb city, Alabama", "lat": 33.42601, "lng": -86.9261, "population": 2086}, {"name": "Slocomb city, Alabama", "lat": 31.11213, "lng": -85.59866, "population": 2082}, {"name": "Point Clear CDP, Alabama", "lat": 30.48611, "lng": -87.91113, "population": 2076}, {"name": "Brundidge city, Alabama", "lat": 31.71764, "lng": -85.81755, "population": 2073}, {"name": "Thorsby town, Alabama", "lat": 32.91691, "lng": -86.72034, "population": 2064}, {"name": "Collinsville town, Alabama", "lat": 34.26722, "lng": -85.86861, "population": 2059}, {"name": "Coaling town, Alabama", "lat": 33.1699, "lng": -87.34989, "population": 2035}, {"name": "Ashland town, Alabama", "lat": 33.26989, "lng": -85.83371, "population": 1984}, {"name": "Vincent town, Alabama", "lat": 33.38314, "lng": -86.40254, "population": 1982}, {"name": "Elberta town, Alabama", "lat": 30.37375, "lng": -87.59573, "population": 1974}, {"name": "Stevenson city, Alabama", "lat": 34.8768, "lng": -85.81435, "population": 1955}, {"name": "Graysville city, Alabama", "lat": 33.63376, "lng": -86.9414, "population": 1950}, {"name": "Creola city, Alabama", "lat": 30.87425, "lng": -88.00954, "population": 1936}, {"name": "Cowarts town, Alabama", "lat": 31.20625, "lng": -85.30977, "population": 1930}, {"name": "Linden city, Alabama", "lat": 32.30136, "lng": -87.79258, "population": 1930}, {"name": "Camden city, Alabama", "lat": 31.99849, "lng": -87.28895, "population": 1927}, {"name": "Florala town, Alabama", "lat": 31.02239, "lng": -86.31815, "population": 1923}, {"name": "Vernon city, Alabama", "lat": 33.75882, "lng": -88.11429, "population": 1921}, {"name": "Sulligent city, Alabama", "lat": 33.89119, "lng": -88.12663, "population": 1879}, {"name": "Samson city, Alabama", "lat": 31.11242, "lng": -86.04673, "population": 1874}, {"name": "Butler town, Alabama", "lat": 32.09648, "lng": -88.21078, "population": 1871}, {"name": "Wilsonville town, Alabama", "lat": 33.24075, "lng": -86.49111, "population": 1857}, {"name": "Cedar Bluff town, Alabama", "lat": 34.22142, "lng": -85.58857, "population": 1845}, {"name": "Crossville town, Alabama", "lat": 34.2827, "lng": -85.99974, "population": 1830}, {"name": "Blountsville town, Alabama", "lat": 34.07584, "lng": -86.58392, "population": 1826}, {"name": "Level Plains town, Alabama", "lat": 31.30712, "lng": -85.76872, "population": 1825}, {"name": "Grove Hill town, Alabama", "lat": 31.69867, "lng": -87.77287, "population": 1818}, {"name": "Sardis City town, Alabama", "lat": 34.17241, "lng": -86.1191, "population": 1814}, {"name": "Rehobeth town, Alabama", "lat": 31.12451, "lng": -85.43961, "population": 1791}, {"name": "Sylvania town, Alabama", "lat": 34.56204, "lng": -85.80472, "population": 1790}, {"name": "Dauphin Island town, Alabama", "lat": 30.25091, "lng": -88.17127, "population": 1778}, {"name": "Carbon Hill city, Alabama", "lat": 33.89499, "lng": -87.52208, "population": 1769}, {"name": "Westover town, Alabama", "lat": 33.36734, "lng": -86.53399, "population": 1766}, {"name": "Bon Secour CDP, Alabama", "lat": 30.31825, "lng": -87.72439, "population": 1754}, {"name": "Cordova city, Alabama", "lat": 33.76179, "lng": -87.19942, "population": 1728}, {"name": "Ragland town, Alabama", "lat": 33.74833, "lng": -86.13593, "population": 1693}, {"name": "Concord CDP, Alabama", "lat": 33.46199, "lng": -87.04043, "population": 1690}, {"name": "Deatsville town, Alabama", "lat": 32.58904, "lng": -86.38906, "population": 1679}, {"name": "Shoal Creek CDP, Alabama", "lat": 33.43076, "lng": -86.61092, "population": 1668}, {"name": "Stewartville CDP, Alabama", "lat": 33.07553, "lng": -86.26069, "population": 1662}, {"name": "Smoke Rise CDP, Alabama", "lat": 33.87994, "lng": -86.82468, "population": 1661}, {"name": "Sylvan Springs town, Alabama", "lat": 33.53023, "lng": -87.0312, "population": 1653}, {"name": "Gordo town, Alabama", "lat": 33.32229, "lng": -87.90368, "population": 1628}, {"name": "Harpersville town, Alabama", "lat": 33.31773, "lng": -86.42843, "population": 1614}, {"name": "Newton town, Alabama", "lat": 31.34123, "lng": -85.58831, "population": 1607}, {"name": "New Market CDP, Alabama", "lat": 34.89234, "lng": -86.42582, "population": 1543}, {"name": "Malvern town, Alabama", "lat": 31.1437, "lng": -85.52297, "population": 1536}, {"name": "Reform town, Alabama", "lat": 33.37821, "lng": -88.0173, "population": 1520}, {"name": "Blue Ridge CDP, Alabama", "lat": 32.4989, "lng": -86.18244, "population": 1485}, {"name": "Lookout Mountain CDP, Alabama", "lat": 34.11592, "lng": -85.96546, "population": 1484}, {"name": "Woodstock town, Alabama", "lat": 33.2175, "lng": -87.14843, "population": 1472}, {"name": "Rock Creek CDP, Alabama", "lat": 33.47723, "lng": -87.08125, "population": 1471}, {"name": "Summerdale town, Alabama", "lat": 30.47674, "lng": -87.68756, "population": 1468}, {"name": "Flomaton town, Alabama", "lat": 31.01482, "lng": -87.25602, "population": 1466}, {"name": "Ballplay CDP, Alabama", "lat": 34.02305, "lng": -85.80148, "population": 1437}, {"name": "New Brockton town, Alabama", "lat": 31.37671, "lng": -85.91903, "population": 1428}, {"name": "Marbury CDP, Alabama", "lat": 32.67298, "lng": -86.46373, "population": 1427}, {"name": "Hackleburg town, Alabama", "lat": 34.26935, "lng": -87.8304, "population": 1425}, {"name": "Fayetteville CDP, Alabama", "lat": 33.1681, "lng": -86.44277, "population": 1422}, {"name": "Mount Vernon town, Alabama", "lat": 31.08773, "lng": -88.01317, "population": 1354}, {"name": "Munford town, Alabama", "lat": 33.52621, "lng": -85.95623, "population": 1351}, {"name": "Hayden town, Alabama", "lat": 33.89451, "lng": -86.74422, "population": 1342}, {"name": "Lillian CDP, Alabama", "lat": 30.4189, "lng": -87.42075, "population": 1330}, {"name": "Georgiana town, Alabama", "lat": 31.63913, "lng": -86.74676, "population": 1324}, {"name": "Ardmore town, Alabama", "lat": 34.98784, "lng": -86.82902, "population": 1321}, {"name": "Coats Bend CDP, Alabama", "lat": 34.07327, "lng": -85.8746, "population": 1318}, {"name": "Goodwater town, Alabama", "lat": 33.06071, "lng": -86.05249, "population": 1291}, {"name": "Rogersville town, Alabama", "lat": 34.82771, "lng": -87.28409, "population": 1286}, {"name": "Elmore town, Alabama", "lat": 32.55661, "lng": -86.34103, "population": 1280}, {"name": "Webb town, Alabama", "lat": 31.25724, "lng": -85.28962, "population": 1270}, {"name": "Brookside town, Alabama", "lat": 33.63462, "lng": -86.90631, "population": 1253}, {"name": "Cleveland town, Alabama", "lat": 34.00218, "lng": -86.56135, "population": 1245}, {"name": "Fort Deposit town, Alabama", "lat": 31.98626, "lng": -86.56636, "population": 1225}, {"name": "Clio city, Alabama", "lat": 31.70852, "lng": -85.61104, "population": 1220}, {"name": "West Blocton town, Alabama", "lat": 33.11818, "lng": -87.12523, "population": 1217}, {"name": "Coosada town, Alabama", "lat": 32.49539, "lng": -86.32654, "population": 1217}, {"name": "Berry town, Alabama", "lat": 33.6667, "lng": -87.60931, "population": 1216}, {"name": "Falkville town, Alabama", "lat": 34.37702, "lng": -86.90955, "population": 1197}, {"name": "Eclectic town, Alabama", "lat": 32.64022, "lng": -86.04106, "population": 1193}, {"name": "Locust Fork town, Alabama", "lat": 33.87679, "lng": -86.64709, "population": 1192}, {"name": "Mignon CDP, Alabama", "lat": 33.18658, "lng": -86.25689, "population": 1186}, {"name": "Frisco City town, Alabama", "lat": 31.43949, "lng": -87.40418, "population": 1170}, {"name": "Ohatchee town, Alabama", "lat": 33.78976, "lng": -86.02906, "population": 1157}, {"name": "Tidmore Bend CDP, Alabama", "lat": 34.03318, "lng": -85.92639, "population": 1119}, {"name": "Double Springs town, Alabama", "lat": 34.14965, "lng": -87.38945, "population": 1119}, {"name": "Chatom town, Alabama", "lat": 31.46915, "lng": -88.24602, "population": 1104}, {"name": "Minor CDP, Alabama", "lat": 33.53901, "lng": -86.94007, "population": 1088}, {"name": "Vandiver CDP, Alabama", "lat": 33.45886, "lng": -86.52922, "population": 1084}, {"name": "Town Creek town, Alabama", "lat": 34.6713, "lng": -87.40776, "population": 1052}, {"name": "Cottonwood town, Alabama", "lat": 31.05403, "lng": -85.29956, "population": 1048}, {"name": "Bear Creek town, Alabama", "lat": 34.25548, "lng": -87.7134, "population": 1047}, {"name": "Grant town, Alabama", "lat": 34.51817, "lng": -86.26043, "population": 1039}, {"name": "Littleville town, Alabama", "lat": 34.59513, "lng": -87.67074, "population": 1038}, {"name": "Killen town, Alabama", "lat": 34.86095, "lng": -87.52935, "population": 1034}, {"name": "Snead town, Alabama", "lat": 34.11576, "lng": -86.39012, "population": 1032}, {"name": "Carrollton town, Alabama", "lat": 33.2619, "lng": -88.09507, "population": 1023}, {"name": "New Union CDP, Alabama", "lat": 34.13368, "lng": -86.228, "population": 1019}, {"name": "Millport town, Alabama", "lat": 33.55593, "lng": -88.08238, "population": 1010}, {"name": "Camp Hill town, Alabama", "lat": 32.79733, "lng": -85.65583, "population": 1006}, {"name": "Phil Campbell town, Alabama", "lat": 34.35155, "lng": -87.70736, "population": 992}, {"name": "Steele town, Alabama", "lat": 33.94138, "lng": -86.19211, "population": 992}, {"name": "Parrish town, Alabama", "lat": 33.73232, "lng": -87.28013, "population": 982}, {"name": "Cherokee town, Alabama", "lat": 34.7577, "lng": -87.96559, "population": 970}, {"name": "Fyffe town, Alabama", "lat": 34.44896, "lng": -85.90517, "population": 967}, {"name": "Altoona town, Alabama", "lat": 34.04001, "lng": -86.30518, "population": 948}, {"name": "Ivalee CDP, Alabama", "lat": 34.0372, "lng": -86.14718, "population": 946}, {"name": "Shelby CDP, Alabama", "lat": 33.10688, "lng": -86.5854, "population": 940}, {"name": "Dunnavant CDP, Alabama", "lat": 33.49501, "lng": -86.54048, "population": 936}, {"name": "Brantleyville CDP, Alabama", "lat": 33.2193, "lng": -86.88252, "population": 931}, {"name": "Notasulga town, Alabama", "lat": 32.55541, "lng": -85.66858, "population": 914}, {"name": "Hollywood town, Alabama", "lat": 34.71728, "lng": -85.96558, "population": 914}, {"name": "Leesburg town, Alabama", "lat": 34.17863, "lng": -85.7779, "population": 911}, {"name": "Geraldine town, Alabama", "lat": 34.35909, "lng": -86.00258, "population": 910}, {"name": "Coker town, Alabama", "lat": 33.24375, "lng": -87.68133, "population": 904}, {"name": "Powell town, Alabama", "lat": 34.53259, "lng": -85.89755, "population": 901}, {"name": "White Plains CDP, Alabama", "lat": 33.75931, "lng": -85.68847, "population": 877}, {"name": "Gallant CDP, Alabama", "lat": 34.00132, "lng": -86.23017, "population": 869}, {"name": "Holly Pond town, Alabama", "lat": 34.16769, "lng": -86.61207, "population": 851}, {"name": "Brilliant town, Alabama", "lat": 34.02567, "lng": -87.76905, "population": 845}, {"name": "Egypt CDP, Alabama", "lat": 34.07594, "lng": -86.16505, "population": 845}, {"name": "Pea Ridge CDP, Alabama", "lat": 33.13381, "lng": -86.93795, "population": 841}, {"name": "Redstone Arsenal CDP, Alabama", "lat": 34.68776, "lng": -86.66117, "population": 837}, {"name": "Mosses town, Alabama", "lat": 32.18876, "lng": -86.67943, "population": 834}, {"name": "Skyline town, Alabama", "lat": 34.79852, "lng": -86.12243, "population": 834}, {"name": "Hayneville town, Alabama", "lat": 32.18259, "lng": -86.57859, "population": 830}, {"name": "Brantley town, Alabama", "lat": 31.58199, "lng": -86.25678, "population": 825}, {"name": "Gurley town, Alabama", "lat": 34.70247, "lng": -86.37433, "population": 816}, {"name": "Magnolia Springs town, Alabama", "lat": 30.40341, "lng": -87.7759, "population": 811}, {"name": "White Hall town, Alabama", "lat": 32.29741, "lng": -86.71578, "population": 806}, {"name": "Somerville town, Alabama", "lat": 34.46705, "lng": -86.7912, "population": 796}, {"name": "Autaugaville town, Alabama", "lat": 32.43256, "lng": -86.65875, "population": 795}, {"name": "Reeltown CDP, Alabama", "lat": 32.57421, "lng": -85.81956, "population": 794}, {"name": "Susan Moore town, Alabama", "lat": 34.092, "lng": -86.43416, "population": 787}, {"name": "Mulga town, Alabama", "lat": 33.5549, "lng": -86.97131, "population": 784}, {"name": "New Site town, Alabama", "lat": 33.02604, "lng": -85.78454, "population": 773}, {"name": "Walnut Grove town, Alabama", "lat": 34.06459, "lng": -86.28717, "population": 773}, {"name": "Oakman town, Alabama", "lat": 33.71432, "lng": -87.3887, "population": 771}, {"name": "Silverhill town, Alabama", "lat": 30.54536, "lng": -87.75056, "population": 768}, {"name": "Leroy CDP, Alabama", "lat": 31.49497, "lng": -87.97277, "population": 766}, {"name": "Douglas town, Alabama", "lat": 34.16826, "lng": -86.32339, "population": 761}, {"name": "Hobson City town, Alabama", "lat": 33.6188, "lng": -85.84615, "population": 759}, {"name": "Pine Hill town, Alabama", "lat": 31.98588, "lng": -87.58752, "population": 758}, {"name": "Section town, Alabama", "lat": 34.58164, "lng": -85.98494, "population": 756}, {"name": "Jacksons' Gap town, Alabama", "lat": 32.88402, "lng": -85.81505, "population": 747}, {"name": "Woodville town, Alabama", "lat": 34.62958, "lng": -86.28346, "population": 746}, {"name": "Edgewater CDP, Alabama", "lat": 33.5301, "lng": -86.95279, "population": 746}, {"name": "McDonald Chapel CDP, Alabama", "lat": 33.51858, "lng": -86.93846, "population": 739}, {"name": "Gilbertown town, Alabama", "lat": 31.86625, "lng": -88.30755, "population": 739}, {"name": "Wedowee town, Alabama", "lat": 33.308, "lng": -85.4865, "population": 737}, {"name": "Ider town, Alabama", "lat": 34.7026, "lng": -85.66896, "population": 735}, {"name": "Perdido CDP, Alabama", "lat": 31.00569, "lng": -87.63011, "population": 730}, {"name": "Lexington town, Alabama", "lat": 34.95935, "lng": -87.37283, "population": 727}, {"name": "Sterrett CDP, Alabama", "lat": 33.4422, "lng": -86.46104, "population": 706}, {"name": "Columbia town, Alabama", "lat": 31.29535, "lng": -85.1102, "population": 690}, {"name": "Pisgah town, Alabama", "lat": 34.68437, "lng": -85.84601, "population": 681}, {"name": "Hollis Crossroads CDP, Alabama", "lat": 33.53133, "lng": -85.65286, "population": 665}, {"name": "Leighton town, Alabama", "lat": 34.69368, "lng": -87.52428, "population": 665}, {"name": "Ariton town, Alabama", "lat": 31.59777, "lng": -85.71306, "population": 662}, {"name": "Wadley town, Alabama", "lat": 33.1234, "lng": -85.56859, "population": 659}, {"name": "Addison town, Alabama", "lat": 34.20268, "lng": -87.178, "population": 659}, {"name": "Baileyton town, Alabama", "lat": 34.26086, "lng": -86.60879, "population": 649}, {"name": "Maplesville town, Alabama", "lat": 32.78828, "lng": -86.87665, "population": 637}, {"name": "Babbie town, Alabama", "lat": 31.30208, "lng": -86.31944, "population": 625}, {"name": "Bristow Cove CDP, Alabama", "lat": 34.10922, "lng": -86.24099, "population": 624}, {"name": "Reece City town, Alabama", "lat": 34.07724, "lng": -86.0345, "population": 615}, {"name": "Trafford town, Alabama", "lat": 33.81871, "lng": -86.7465, "population": 613}, {"name": "Belle Fontaine CDP, Alabama", "lat": 30.48949, "lng": -88.10594, "population": 613}, {"name": "Lynn town, Alabama", "lat": 34.05759, "lng": -87.54864, "population": 610}, {"name": "Our Town CDP, Alabama", "lat": 32.84221, "lng": -85.96703, "population": 605}, {"name": "Rock Mills CDP, Alabama", "lat": 33.15994, "lng": -85.28107, "population": 603}, {"name": "Sand Rock town, Alabama", "lat": 34.23123, "lng": -85.77042, "population": 591}, {"name": "Franklin town, Alabama", "lat": 32.45269, "lng": -85.78541, "population": 590}, {"name": "Eva town, Alabama", "lat": 34.3265, "lng": -86.76532, "population": 589}, {"name": "Wilton town, Alabama", "lat": 33.08156, "lng": -86.87965, "population": 587}, {"name": "St. Florian town, Alabama", "lat": 34.8741, "lng": -87.62374, "population": 584}, {"name": "West Point town, Alabama", "lat": 34.23876, "lng": -86.96393, "population": 584}, {"name": "Courtland town, Alabama", "lat": 34.66995, "lng": -87.32789, "population": 583}, {"name": "Pinckard town, Alabama", "lat": 31.31899, "lng": -85.53784, "population": 582}, {"name": "Kinston town, Alabama", "lat": 31.2196, "lng": -86.17007, "population": 580}, {"name": "Valley Head town, Alabama", "lat": 34.5562, "lng": -85.62304, "population": 577}, {"name": "Grimes town, Alabama", "lat": 31.29988, "lng": -85.45029, "population": 573}, {"name": "Oak Grove town, Alabama", "lat": 33.19036, "lng": -86.30373, "population": 564}, {"name": "Axis CDP, Alabama", "lat": 30.92217, "lng": -88.02262, "population": 561}, {"name": "South Vinemont town, Alabama", "lat": 34.23557, "lng": -86.86396, "population": 558}, {"name": "Pickensville town, Alabama", "lat": 33.23578, "lng": -88.28944, "population": 557}, {"name": "Stockton CDP, Alabama", "lat": 31.00125, "lng": -87.87393, "population": 557}, {"name": "Excel town, Alabama", "lat": 31.42639, "lng": -87.34366, "population": 557}, {"name": "Joppa CDP, Alabama", "lat": 34.29955, "lng": -86.54995, "population": 556}, {"name": "Perdido Beach town, Alabama", "lat": 30.35388, "lng": -87.5048, "population": 555}, {"name": "Allgood town, Alabama", "lat": 33.90762, "lng": -86.51611, "population": 548}, {"name": "Dodge City town, Alabama", "lat": 34.04328, "lng": -86.88552, "population": 548}, {"name": "Newville town, Alabama", "lat": 31.4206, "lng": -85.33669, "population": 544}, {"name": "Fairview town, Alabama", "lat": 34.25019, "lng": -86.67772, "population": 543}, {"name": "Garden City town, Alabama", "lat": 34.01469, "lng": -86.74905, "population": 528}, {"name": "Hollins CDP, Alabama", "lat": 33.12176, "lng": -86.12697, "population": 517}, {"name": "McKenzie town, Alabama", "lat": 31.54647, "lng": -86.72595, "population": 507}, {"name": "Castleberry town, Alabama", "lat": 31.29968, "lng": -87.02913, "population": 486}, {"name": "North Courtland town, Alabama", "lat": 34.68002, "lng": -87.30572, "population": 483}, {"name": "River Falls town, Alabama", "lat": 31.3524, "lng": -86.54461, "population": 479}, {"name": "Berlin town, Alabama", "lat": 34.1954, "lng": -86.74362, "population": 476}, {"name": "Clayhatchee town, Alabama", "lat": 31.23692, "lng": -85.72148, "population": 466}, {"name": "Avon town, Alabama", "lat": 31.17973, "lng": -85.27921, "population": 465}, {"name": "Millry town, Alabama", "lat": 31.6212, "lng": -88.32796, "population": 450}, {"name": "Forkland town, Alabama", "lat": 32.64744, "lng": -87.86744, "population": 445}, {"name": "Lockhart town, Alabama", "lat": 31.01301, "lng": -86.35027, "population": 445}, {"name": "Hytop town, Alabama", "lat": 34.89664, "lng": -86.08918, "population": 441}, {"name": "Kennedy town, Alabama", "lat": 33.58096, "lng": -87.98603, "population": 435}, {"name": "Glen Allen town, Alabama", "lat": 33.89211, "lng": -87.73268, "population": 433}, {"name": "Red Level town, Alabama", "lat": 31.40671, "lng": -86.60622, "population": 432}, {"name": "Lisman town, Alabama", "lat": 32.17173, "lng": -88.28409, "population": 427}, {"name": "Pleasant Groves town, Alabama", "lat": 34.73762, "lng": -86.19764, "population": 426}, {"name": "Hammondville town, Alabama", "lat": 34.56623, "lng": -85.64035, "population": 425}, {"name": "Ranburne town, Alabama", "lat": 33.52585, "lng": -85.33901, "population": 422}, {"name": "Midway town, Alabama", "lat": 32.07637, "lng": -85.52442, "population": 421}, {"name": "West Jefferson town, Alabama", "lat": 33.66651, "lng": -87.04703, "population": 417}, {"name": "St. Stephens CDP, Alabama", "lat": 31.57111, "lng": -88.05283, "population": 415}, {"name": "Highland Lake town, Alabama", "lat": 33.89459, "lng": -86.42255, "population": 412}, {"name": "Elkmont town, Alabama", "lat": 34.9326, "lng": -86.97697, "population": 411}, {"name": "Napier Field town, Alabama", "lat": 31.31492, "lng": -85.45496, "population": 409}, {"name": "Hillsboro town, Alabama", "lat": 34.64259, "lng": -87.17849, "population": 407}, {"name": "Nances Creek CDP, Alabama", "lat": 33.8555, "lng": -85.6691, "population": 399}, {"name": "Louisville town, Alabama", "lat": 31.78105, "lng": -85.55834, "population": 395}, {"name": "Shorter town, Alabama", "lat": 32.41151, "lng": -85.97276, "population": 385}, {"name": "Nectar town, Alabama", "lat": 33.97978, "lng": -86.62061, "population": 379}, {"name": "Silas town, Alabama", "lat": 31.7678, "lng": -88.32592, "population": 377}, {"name": "Rosa town, Alabama", "lat": 33.99276, "lng": -86.50033, "population": 376}, {"name": "Sipsey town, Alabama", "lat": 33.82212, "lng": -87.08292, "population": 363}, {"name": "Bellamy CDP, Alabama", "lat": 32.46366, "lng": -88.13148, "population": 363}, {"name": "Twin town, Alabama", "lat": 33.99231, "lng": -87.85229, "population": 359}, {"name": "Rutledge town, Alabama", "lat": 31.72407, "lng": -86.30201, "population": 351}, {"name": "Rockford town, Alabama", "lat": 32.89687, "lng": -86.20835, "population": 349}, {"name": "Hackneyville CDP, Alabama", "lat": 33.05465, "lng": -85.93442, "population": 349}, {"name": "Hurtsboro town, Alabama", "lat": 32.24009, "lng": -85.41467, "population": 349}, {"name": "Arley town, Alabama", "lat": 34.07623, "lng": -87.21783, "population": 330}, {"name": "Dutton town, Alabama", "lat": 34.60615, "lng": -85.91185, "population": 330}, {"name": "Nixburg CDP, Alabama", "lat": 32.85549, "lng": -86.10084, "population": 329}, {"name": "Pennington town, Alabama", "lat": 32.20061, "lng": -88.03757, "population": 329}, {"name": "Ray CDP, Alabama", "lat": 32.86814, "lng": -86.04525, "population": 326}, {"name": "Thomaston town, Alabama", "lat": 32.26828, "lng": -87.62371, "population": 326}, {"name": "Vina town, Alabama", "lat": 34.37618, "lng": -88.06057, "population": 325}, {"name": "Shiloh town, Alabama", "lat": 34.46267, "lng": -85.87762, "population": 321}, {"name": "Mentone town, Alabama", "lat": 34.56321, "lng": -85.5897, "population": 319}, {"name": "Maytown town, Alabama", "lat": 33.54995, "lng": -87.00004, "population": 316}, {"name": "Mount Olive CDP (Coosa County), Alabama", "lat": 33.07845, "lng": -86.13304, "population": 311}, {"name": "County Line town, Alabama", "lat": 33.82072, "lng": -86.71947, "population": 311}, {"name": "Cuba town, Alabama", "lat": 32.44073, "lng": -88.3748, "population": 306}, {"name": "Millerville CDP, Alabama", "lat": 33.19146, "lng": -85.92983, "population": 303}, {"name": "Boligee town, Alabama", "lat": 32.76808, "lng": -88.02859, "population": 301}, {"name": "Gordon town, Alabama", "lat": 31.14361, "lng": -85.0925, "population": 294}, {"name": "Movico CDP, Alabama", "lat": 31.06276, "lng": -88.02662, "population": 291}, {"name": "Carolina town, Alabama", "lat": 31.23415, "lng": -86.521, "population": 286}, {"name": "Dozier town, Alabama", "lat": 31.50541, "lng": -86.36924, "population": 285}, {"name": "Eunola CDP, Alabama", "lat": 31.03139, "lng": -85.83397, "population": 284}, {"name": "Epes town, Alabama", "lat": 32.69505, "lng": -88.14196, "population": 272}, {"name": "Goshen town, Alabama", "lat": 31.72002, "lng": -86.12324, "population": 269}, {"name": "Madrid town, Alabama", "lat": 31.03563, "lng": -85.3992, "population": 265}, {"name": "Hodges town, Alabama", "lat": 34.33425, "lng": -87.92316, "population": 265}, {"name": "Langston town, Alabama", "lat": 34.54506, "lng": -86.09335, "population": 265}, {"name": "Colony town, Alabama", "lat": 33.94139, "lng": -86.902, "population": 264}, {"name": "Pine Ridge town, Alabama", "lat": 34.44792, "lng": -85.78383, "population": 263}, {"name": "Uriah CDP, Alabama", "lat": 31.30737, "lng": -87.49921, "population": 263}, {"name": "Coffeeville town, Alabama", "lat": 31.76656, "lng": -88.08605, "population": 263}, {"name": "Delta CDP, Alabama", "lat": 33.44052, "lng": -85.67591, "population": 260}, {"name": "Waldo town, Alabama", "lat": 33.38708, "lng": -86.04108, "population": 258}, {"name": "Sanford town, Alabama", "lat": 31.29882, "lng": -86.39885, "population": 257}, {"name": "Calvert CDP, Alabama", "lat": 31.1499, "lng": -88.02155, "population": 255}, {"name": "Anderson town, Alabama", "lat": 34.91568, "lng": -87.27427, "population": 254}, {"name": "Gordonville town, Alabama", "lat": 32.15918, "lng": -86.70423, "population": 245}, {"name": "Hatton CDP, Alabama", "lat": 34.56067, "lng": -87.41384, "population": 244}, {"name": "Macedonia CDP, Alabama", "lat": 33.40314, "lng": -88.23922, "population": 241}, {"name": "Heath town, Alabama", "lat": 31.34484, "lng": -86.46905, "population": 236}, {"name": "Repton town, Alabama", "lat": 31.40972, "lng": -87.23893, "population": 235}, {"name": "Fruithurst town, Alabama", "lat": 33.72954, "lng": -85.43125, "population": 235}, {"name": "Detroit town, Alabama", "lat": 34.02738, "lng": -88.16783, "population": 230}, {"name": "Sweet Water town, Alabama", "lat": 32.10461, "lng": -87.86189, "population": 228}, {"name": "Akron town, Alabama", "lat": 32.87907, "lng": -87.7409, "population": 225}, {"name": "Fulton town, Alabama", "lat": 31.79099, "lng": -87.74421, "population": 223}, {"name": "Vredenburgh town, Alabama", "lat": 31.82323, "lng": -87.31808, "population": 222}, {"name": "Morrison Crossroads CDP, Alabama", "lat": 33.418, "lng": -85.48828, "population": 221}, {"name": "Woodland town, Alabama", "lat": 33.37563, "lng": -85.39744, "population": 221}, {"name": "Black town, Alabama", "lat": 31.00977, "lng": -85.74442, "population": 221}, {"name": "Spring Garden CDP, Alabama", "lat": 33.97297, "lng": -85.55576, "population": 216}, {"name": "Spruce Pine CDP, Alabama", "lat": 34.39287, "lng": -87.7296, "population": 215}, {"name": "Bakerhill town, Alabama", "lat": 31.77692, "lng": -85.29541, "population": 211}, {"name": "Hissop CDP, Alabama", "lat": 32.89057, "lng": -86.1296, "population": 209}, {"name": "Yellow Bluff town, Alabama", "lat": 31.96234, "lng": -87.47736, "population": 208}, {"name": "Boykin CDP, Alabama", "lat": 32.06838, "lng": -87.29434, "population": 208}, {"name": "Weogufka CDP, Alabama", "lat": 33.02172, "lng": -86.30915, "population": 207}, {"name": "Horn Hill town, Alabama", "lat": 31.23814, "lng": -86.32516, "population": 207}, {"name": "McIntosh town, Alabama", "lat": 31.26496, "lng": -88.02837, "population": 206}, {"name": "Coffee Springs town, Alabama", "lat": 31.16584, "lng": -85.9109, "population": 206}, {"name": "Edwardsville town, Alabama", "lat": 33.88374, "lng": -85.41412, "population": 206}, {"name": "Beatrice town, Alabama", "lat": 31.73331, "lng": -87.20905, "population": 204}, {"name": "Fredonia CDP, Alabama", "lat": 32.98358, "lng": -85.29231, "population": 198}, {"name": "Gantt town, Alabama", "lat": 31.41074, "lng": -86.48352, "population": 196}, {"name": "Graham CDP, Alabama", "lat": 33.45519, "lng": -85.32309, "population": 196}, {"name": "Chunchula CDP, Alabama", "lat": 30.92719, "lng": -88.2082, "population": 195}, {"name": "Beaverton town, Alabama", "lat": 33.93541, "lng": -88.02178, "population": 187}, {"name": "Belk town, Alabama", "lat": 33.65164, "lng": -87.92861, "population": 186}, {"name": "Nauvoo town, Alabama", "lat": 33.98439, "lng": -87.48544, "population": 185}, {"name": "Paint Rock town, Alabama", "lat": 34.66093, "lng": -86.33395, "population": 182}, {"name": "Union town, Alabama", "lat": 32.99381, "lng": -87.90718, "population": 180}, {"name": "Kansas town, Alabama", "lat": 33.90281, "lng": -87.5566, "population": 180}, {"name": "Vinegar Bend CDP, Alabama", "lat": 31.25909, "lng": -88.36726, "population": 178}, {"name": "Waterloo town, Alabama", "lat": 34.9172, "lng": -88.06437, "population": 178}, {"name": "Fruitdale CDP, Alabama", "lat": 31.34979, "lng": -88.41094, "population": 175}, {"name": "Daviston town, Alabama", "lat": 33.05684, "lng": -85.63433, "population": 174}, {"name": "Putnam CDP, Alabama", "lat": 32.01808, "lng": -88.03306, "population": 172}, {"name": "Bon Air town, Alabama", "lat": 33.25937, "lng": -86.32715, "population": 172}, {"name": "East Point CDP, Alabama", "lat": 34.19088, "lng": -86.7919, "population": 172}, {"name": "Gainesville town, Alabama", "lat": 32.81493, "lng": -88.16079, "population": 172}, {"name": "Belgreen CDP, Alabama", "lat": 34.47454, "lng": -87.86168, "population": 170}, {"name": "Gaylesville town, Alabama", "lat": 34.26744, "lng": -85.56125, "population": 170}, {"name": "Onycha town, Alabama", "lat": 31.22569, "lng": -86.27602, "population": 167}, {"name": "Providence town, Alabama", "lat": 32.34239, "lng": -87.77612, "population": 167}, {"name": "Whatley CDP, Alabama", "lat": 31.64634, "lng": -87.71084, "population": 167}, {"name": "Penton CDP, Alabama", "lat": 33.00983, "lng": -85.47482, "population": 163}, {"name": "Riverview town, Alabama", "lat": 31.06126, "lng": -87.07753, "population": 163}, {"name": "Fairford CDP, Alabama", "lat": 31.178, "lng": -88.07278, "population": 161}, {"name": "Lakeview town, Alabama", "lat": 34.39167, "lng": -85.97557, "population": 161}, {"name": "Broomtown CDP, Alabama", "lat": 34.36573, "lng": -85.53211, "population": 160}, {"name": "Loachapoka town, Alabama", "lat": 32.60795, "lng": -85.59848, "population": 160}, {"name": "Waverly town, Alabama", "lat": 32.73008, "lng": -85.571, "population": 159}, {"name": "Banks town, Alabama", "lat": 31.81326, "lng": -85.83643, "population": 156}, {"name": "Geiger town, Alabama", "lat": 32.86872, "lng": -88.31815, "population": 155}, {"name": "Cusseta town, Alabama", "lat": 32.78764, "lng": -85.30577, "population": 152}, {"name": "Glenwood town, Alabama", "lat": 31.67127, "lng": -86.17369, "population": 152}, {"name": "Hanover CDP, Alabama", "lat": 33.00292, "lng": -86.20093, "population": 151}, {"name": "Orrville town, Alabama", "lat": 32.30677, "lng": -87.24545, "population": 150}, {"name": "Equality CDP, Alabama", "lat": 32.76566, "lng": -86.12319, "population": 150}, {"name": "Sims Chapel CDP, Alabama", "lat": 31.24926, "lng": -88.14297, "population": 145}, {"name": "Toxey town, Alabama", "lat": 31.91071, "lng": -88.30915, "population": 145}, {"name": "Talladega Springs town, Alabama", "lat": 33.12045, "lng": -86.43776, "population": 144}, {"name": "Pine Apple town, Alabama", "lat": 31.87215, "lng": -86.98906, "population": 143}, {"name": "Gulfcrest CDP, Alabama", "lat": 30.99111, "lng": -88.24223, "population": 142}, {"name": "Deer Park CDP, Alabama", "lat": 31.21837, "lng": -88.32802, "population": 141}, {"name": "Gu-Win town, Alabama", "lat": 33.94433, "lng": -87.87038, "population": 141}, {"name": "Malcolm CDP, Alabama", "lat": 31.1987, "lng": -88.00106, "population": 136}, {"name": "Eldridge town, Alabama", "lat": 33.92202, "lng": -87.62011, "population": 136}, {"name": "Newbern town, Alabama", "lat": 32.59167, "lng": -87.53561, "population": 133}, {"name": "Abanda CDP, Alabama", "lat": 33.09163, "lng": -85.52703, "population": 133}, {"name": "Standing Rock CDP, Alabama", "lat": 33.08569, "lng": -85.23985, "population": 132}, {"name": "Kellyton town, Alabama", "lat": 32.97919, "lng": -86.03461, "population": 129}, {"name": "Pollard town, Alabama", "lat": 31.02388, "lng": -87.17298, "population": 128}, {"name": "North Johns town, Alabama", "lat": 33.36777, "lng": -87.10072, "population": 127}, {"name": "Cullomburg CDP, Alabama", "lat": 31.71306, "lng": -88.29177, "population": 126}, {"name": "Billingsley town, Alabama", "lat": 32.66471, "lng": -86.70671, "population": 125}, {"name": "Five Points town, Alabama", "lat": 33.01731, "lng": -85.35159, "population": 114}, {"name": "Haleburg town, Alabama", "lat": 31.40998, "lng": -85.13807, "population": 112}, {"name": "Lester town, Alabama", "lat": 34.98275, "lng": -87.15553, "population": 111}, {"name": "Libertyville town, Alabama", "lat": 31.24005, "lng": -86.45695, "population": 108}, {"name": "Hobson CDP, Alabama", "lat": 31.48872, "lng": -88.15093, "population": 100}, {"name": "Faunsdale town, Alabama", "lat": 32.45761, "lng": -87.59379, "population": 90}, {"name": "Lowndesboro town, Alabama", "lat": 32.27642, "lng": -86.61085, "population": 89}, {"name": "Peterman CDP, Alabama", "lat": 31.58367, "lng": -87.26304, "population": 87}, {"name": "Blue Springs town, Alabama", "lat": 31.66352, "lng": -85.50353, "population": 84}, {"name": "Ridgeville town, Alabama", "lat": 34.05693, "lng": -86.10287, "population": 83}, {"name": "Fitzpatrick CDP, Alabama", "lat": 32.21038, "lng": -85.87369, "population": 79}, {"name": "Nanafalia CDP, Alabama", "lat": 32.11139, "lng": -87.99576, "population": 75}, {"name": "Needham town, Alabama", "lat": 31.987, "lng": -88.33656, "population": 73}, {"name": "Panola CDP, Alabama", "lat": 32.94682, "lng": -88.26227, "population": 71}, {"name": "Myrtlewood town, Alabama", "lat": 32.25209, "lng": -87.94926, "population": 70}, {"name": "Petrey town, Alabama", "lat": 31.85216, "lng": -86.20401, "population": 67}, {"name": "Union Grove town, Alabama", "lat": 34.40617, "lng": -86.45167, "population": 67}, {"name": "Catherine CDP, Alabama", "lat": 32.18617, "lng": -87.46998, "population": 65}, {"name": "Megargel CDP, Alabama", "lat": 31.37814, "lng": -87.43065, "population": 60}, {"name": "Tibbie CDP, Alabama", "lat": 31.37049, "lng": -88.24386, "population": 55}, {"name": "Cardiff town, Alabama", "lat": 33.64729, "lng": -86.93064, "population": 52}, {"name": "Goldville town, Alabama", "lat": 33.08487, "lng": -85.77798, "population": 52}, {"name": "Ethelsville town, Alabama", "lat": 33.41407, "lng": -88.21609, "population": 49}, {"name": "Mooresville town, Alabama", "lat": 34.62588, "lng": -86.88003, "population": 47}, {"name": "Rockville CDP, Alabama", "lat": 31.40578, "lng": -87.84421, "population": 47}, {"name": "Carlton CDP, Alabama", "lat": 31.34857, "lng": -87.83567, "population": 46}, {"name": "Benton town, Alabama", "lat": 32.30793, "lng": -86.81755, "population": 41}, {"name": "McMullen town, Alabama", "lat": 33.1481, "lng": -88.17575, "population": 32}, {"name": "Natural Bridge town, Alabama", "lat": 34.09035, "lng": -87.60141, "population": 32}, {"name": "Emelle town, Alabama", "lat": 32.72868, "lng": -88.31649, "population": 32}, {"name": "Memphis town, Alabama", "lat": 33.13704, "lng": -88.30594, "population": 29}, {"name": "Dayton town, Alabama", "lat": 32.35096, "lng": -87.64157, "population": 28}, {"name": "Bucks CDP, Alabama", "lat": 31.01688, "lng": -88.02639, "population": 22}, {"name": "Oak Hill town, Alabama", "lat": 31.92162, "lng": -87.08523, "population": 14}]