[{"name": "Little Rock city, Arkansas", "lat": 34.72398, "lng": -92.35761, "population": 202591}, {"name": "Fayetteville city, Arkansas", "lat": 36.07146, "lng": -94.16656, "population": 93949}, {"name": "Fort Smith city, Arkansas", "lat": 35.34928, "lng": -94.37088, "population": 89142}, {"name": "Springdale city, Arkansas", "lat": 36.19007, "lng": -94.15943, "population": 84161}, {"name": "Jonesboro city, Arkansas", "lat": 35.81976, "lng": -90.67903, "population": 78576}, {"name": "Rogers city, Arkansas", "lat": 36.31809, "lng": -94.15229, "population": 69908}, {"name": "North Little Rock city, Arkansas", "lat": 34.78175, "lng": -92.23506, "population": 64591}, {"name": "Conway city, Arkansas", "lat": 35.07435, "lng": -92.46708, "population": 64134}, {"name": "Bentonville city, Arkansas", "lat": 36.35304, "lng": -94.25026, "population": 54164}, {"name": "Pine Bluff city, Arkansas", "lat": 34.21159, "lng": -92.01756, "population": 41253}, {"name": "Hot Springs city, Arkansas", "lat": 34.48944, "lng": -93.05025, "population": 37930}, {"name": "Benton city, Arkansas", "lat": 34.57742, "lng": -92.57258, "population": 35014}, {"name": "Sherwood city, Arkansas", "lat": 34.85203, "lng": -92.20448, "population": 32731}, {"name": "Bella Vista city, Arkansas", "lat": 36.46664, "lng": -94.26632, "population": 30104}, {"name": "Paragould city, Arkansas", "lat": 36.05229, "lng": -90.51047, "population": 29537}, {"name": "Jacksonville city, Arkansas", "lat": 34.88051, "lng": -92.13059, "population": 29477}, {"name": "Texarkana city, Arkansas", "lat": 33.43634, "lng": -93.98712, "population": 29387}, {"name": "Russellville city, Arkansas", "lat": 35.27633, "lng": -93.13874, "population": 28940}, {"name": "Cabot city, Arkansas", "lat": 34.97511, "lng": -92.02829, "population": 26569}, {"name": "West Memphis city, Arkansas", "lat": 35.14955, "lng": -90.19927, "population": 24520}, {"name": "Van Buren city, Arkansas", "lat": 35.45118, "lng": -94.354, "population": 23218}, {"name": "Searcy city, Arkansas", "lat": 35.24113, "lng": -91.73522, "population": 22937}, {"name": "Bryant city, Arkansas", "lat": 34.61506, "lng": -92.49134, "population": 20663}, {"name": "Maumelle city, Arkansas", "lat": 34.85234, "lng": -92.4, "population": 19251}, {"name": "Centerton city, Arkansas", "lat": 36.35515, "lng": -94.29769, "population": 17792}, {"name": "El Dorado city, Arkansas", "lat": 33.21898, "lng": -92.66407, "population": 17756}, {"name": "Siloam Springs city, Arkansas", "lat": 36.18461, "lng": -94.53152, "population": 17287}, {"name": "Hot Springs Village CDP, Arkansas", "lat": 34.65807, "lng": -92.96864, "population": 15861}, {"name": "Marion city, Arkansas", "lat": 35.20425, "lng": -90.20672, "population": 13752}, {"name": "Blytheville city, Arkansas", "lat": 35.93407, "lng": -89.90513, "population": 13406}, {"name": "Harrison city, Arkansas", "lat": 36.24259, "lng": -93.11765, "population": 13069}, {"name": "Forrest City city, Arkansas", "lat": 35.0136, "lng": -90.79321, "population": 13015}, {"name": "Mountain Home city, Arkansas", "lat": 36.33507, "lng": -92.38414, "population": 12825}, {"name": "Batesville city, Arkansas", "lat": 35.76857, "lng": -91.62265, "population": 11191}, {"name": "Magnolia city, Arkansas", "lat": 33.2767, "lng": -93.22625, "population": 11162}, {"name": "Malvern city, Arkansas", "lat": 34.37358, "lng": -92.82125, "population": 10867}, {"name": "Camden city, Arkansas", "lat": 33.56767, "lng": -92.84906, "population": 10612}, {"name": "Arkadelphia city, Arkansas", "lat": 34.12738, "lng": -93.07085, "population": 10380}, {"name": "Lowell city, Arkansas", "lat": 36.25585, "lng": -94.15336, "population": 9839}, {"name": "Helena-West Helena city, Arkansas", "lat": 34.53133, "lng": -90.62006, "population": 9519}, {"name": "Greenwood city, Arkansas", "lat": 35.21135, "lng": -94.23944, "population": 9516}, {"name": "Clarksville city, Arkansas", "lat": 35.45392, "lng": -93.48156, "population": 9381}, {"name": "Hope city, Arkansas", "lat": 33.66816, "lng": -93.58889, "population": 8952}, {"name": "Monticello city, Arkansas", "lat": 33.62478, "lng": -91.79372, "population": 8442}, {"name": "Beebe city, Arkansas", "lat": 35.07243, "lng": -91.90106, "population": 8437}, {"name": "Wynne city, Arkansas", "lat": 35.23529, "lng": -90.78836, "population": 8314}, {"name": "Stuttgart city, Arkansas", "lat": 34.49523, "lng": -91.54864, "population": 8264}, {"name": "Newport city, Arkansas", "lat": 35.62377, "lng": -91.23168, "population": 8005}, {"name": "Farmington city, Arkansas", "lat": 36.03658, "lng": -94.25247, "population": 7584}, {"name": "Trumann city, Arkansas", "lat": 35.67702, "lng": -90.5259, "population": 7399}, {"name": "Pocahontas city, Arkansas", "lat": 36.26357, "lng": -90.97023, "population": 7371}, {"name": "East End CDP, Arkansas", "lat": 34.5545, "lng": -92.32748, "population": 7137}, {"name": "Prairie Grove city, Arkansas", "lat": 35.98611, "lng": -94.30338, "population": 7045}, {"name": "Morrilton city, Arkansas", "lat": 35.15546, "lng": -92.73893, "population": 6992}, {"name": "Osceola city, Arkansas", "lat": 35.6942, "lng": -89.99342, "population": 6976}, {"name": "Heber Springs city, Arkansas", "lat": 35.49955, "lng": -92.02934, "population": 6969}, {"name": "Pea Ridge city, Arkansas", "lat": 36.44665, "lng": -94.12081, "population": 6559}, {"name": "De Queen city, Arkansas", "lat": 34.04225, "lng": -94.34213, "population": 6105}, {"name": "Ward city, Arkansas", "lat": 35.01378, "lng": -91.95773, "population": 6052}, {"name": "Alma city, Arkansas", "lat": 35.49239, "lng": -94.21375, "population": 5825}, {"name": "Greenbrier city, Arkansas", "lat": 35.22884, "lng": -92.38357, "population": 5707}, {"name": "Berryville city, Arkansas", "lat": 36.37103, "lng": -93.57039, "population": 5682}, {"name": "Mena city, Arkansas", "lat": 34.58083, "lng": -94.2371, "population": 5589}, {"name": "White Hall city, Arkansas", "lat": 34.27518, "lng": -92.10065, "population": 5581}, {"name": "Cave Springs city, Arkansas", "lat": 36.26843, "lng": -94.2195, "population": 5495}, {"name": "Warren city, Arkansas", "lat": 33.61183, "lng": -92.06772, "population": 5453}, {"name": "Walnut Ridge city, Arkansas", "lat": 36.08483, "lng": -90.94671, "population": 5384}, {"name": "Piney CDP, Arkansas", "lat": 34.50291, "lng": -93.14443, "population": 5238}, {"name": "Sheridan city, Arkansas", "lat": 34.32158, "lng": -92.44307, "population": 4920}, {"name": "Crossett city, Arkansas", "lat": 33.12683, "lng": -91.96304, "population": 4822}, {"name": "Barling city, Arkansas", "lat": 35.33129, "lng": -94.27519, "population": 4782}, {"name": "Cherokee Village city, Arkansas", "lat": 36.29132, "lng": -91.56937, "population": 4780}, {"name": "Rockwell CDP, Arkansas", "lat": 34.46434, "lng": -93.13383, "population": 4548}, {"name": "Dardanelle city, Arkansas", "lat": 35.22631, "lng": -93.16591, "population": 4517}, {"name": "Shannon Hills city, Arkansas", "lat": 34.61759, "lng": -92.40218, "population": 4490}, {"name": "Tontitown city, Arkansas", "lat": 36.16739, "lng": -94.24213, "population": 4301}, {"name": "Vilonia city, Arkansas", "lat": 35.0787, "lng": -92.21539, "population": 4288}, {"name": "Southside city, Arkansas", "lat": 35.72018, "lng": -91.63016, "population": 4279}, {"name": "Lonoke city, Arkansas", "lat": 34.7905, "lng": -91.90736, "population": 4276}, {"name": "Ashdown city, Arkansas", "lat": 33.67453, "lng": -94.12663, "population": 4261}, {"name": "Nashville city, Arkansas", "lat": 33.94192, "lng": -93.85166, "population": 4153}, {"name": "Gibson CDP, Arkansas", "lat": 34.90223, "lng": -92.24082, "population": 4111}, {"name": "Brookland city, Arkansas", "lat": 35.89705, "lng": -90.57166, "population": 4064}, {"name": "Dumas city, Arkansas", "lat": 33.88337, "lng": -91.48563, "population": 4001}, {"name": "Haskell city, Arkansas", "lat": 34.50924, "lng": -92.64186, "population": 3956}, {"name": "McGehee city, Arkansas", "lat": 33.62797, "lng": -91.39533, "population": 3849}, {"name": "Booneville city, Arkansas", "lat": 35.13933, "lng": -93.9175, "population": 3809}, {"name": "Gentry city, Arkansas", "lat": 36.25955, "lng": -94.49088, "population": 3790}, {"name": "Manila city, Arkansas", "lat": 35.88475, "lng": -90.16537, "population": 3682}, {"name": "Piggott city, Arkansas", "lat": 36.38719, "lng": -90.19894, "population": 3622}, {"name": "Johnson city, Arkansas", "lat": 36.13385, "lng": -94.17427, "population": 3609}, {"name": "Elkins city, Arkansas", "lat": 36.01722, "lng": -94.0235, "population": 3602}, {"name": "Landmark CDP, Arkansas", "lat": 34.61035, "lng": -92.31605, "population": 3585}, {"name": "Marianna city, Arkansas", "lat": 34.77363, "lng": -90.7675, "population": 3575}, {"name": "Gravette city, Arkansas", "lat": 36.4283, "lng": -94.36853, "population": 3547}, {"name": "Ozark city, Arkansas", "lat": 35.50186, "lng": -93.84838, "population": 3542}, {"name": "Austin city, Arkansas", "lat": 35.00591, "lng": -91.98961, "population": 3460}, {"name": "Fordyce city, Arkansas", "lat": 33.81813, "lng": -92.41739, "population": 3396}, {"name": "Waldron city, Arkansas", "lat": 34.90325, "lng": -94.09484, "population": 3386}, {"name": "Alexander city, Arkansas", "lat": 34.61856, "lng": -92.45122, "population": 3385}, {"name": "Corning city, Arkansas", "lat": 36.41368, "lng": -90.58361, "population": 3227}, {"name": "Paris city, Arkansas", "lat": 35.28913, "lng": -93.72495, "population": 3176}, {"name": "Pottsville city, Arkansas", "lat": 35.23061, "lng": -93.06084, "population": 3140}, {"name": "Prescott city, Arkansas", "lat": 33.80432, "lng": -93.39121, "population": 3101}, {"name": "DeWitt city, Arkansas", "lat": 34.28737, "lng": -91.33833, "population": 3056}, {"name": "Little Flock city, Arkansas", "lat": 36.38334, "lng": -94.13726, "population": 3055}, {"name": "Bethel Heights city, Arkansas", "lat": 36.22116, "lng": -94.1298, "population": 3015}, {"name": "Green Forest city, Arkansas", "lat": 36.33471, "lng": -93.43096, "population": 2972}, {"name": "Gosnell city, Arkansas", "lat": 35.96494, "lng": -89.96858, "population": 2910}, {"name": "Huntsville city, Arkansas", "lat": 36.09866, "lng": -93.73324, "population": 2879}, {"name": "Mountain View city, Arkansas", "lat": 35.86156, "lng": -92.10966, "population": 2877}, {"name": "Atkins city, Arkansas", "lat": 35.24086, "lng": -92.94964, "population": 2859}, {"name": "North Crossett CDP, Arkansas", "lat": 33.17411, "lng": -91.93174, "population": 2756}, {"name": "Brinkley city, Arkansas", "lat": 34.88978, "lng": -91.18982, "population": 2700}, {"name": "Hoxie city, Arkansas", "lat": 36.03604, "lng": -90.97359, "population": 2598}, {"name": "Charleston city, Arkansas", "lat": 35.29451, "lng": -94.04835, "population": 2588}, {"name": "Salem CDP, Arkansas", "lat": 34.6309, "lng": -92.56149, "population": 2544}, {"name": "Hamburg city, Arkansas", "lat": 33.22476, "lng": -91.79725, "population": 2536}, {"name": "Holiday Island CDP, Arkansas", "lat": 36.4817, "lng": -93.71299, "population": 2533}, {"name": "Bald Knob city, Arkansas", "lat": 35.31254, "lng": -91.57125, "population": 2522}, {"name": "Clinton city, Arkansas", "lat": 35.57898, "lng": -92.45574, "population": 2509}, {"name": "England city, Arkansas", "lat": 34.54543, "lng": -91.96744, "population": 2477}, {"name": "Lavaca city, Arkansas", "lat": 35.3302, "lng": -94.18288, "population": 2450}, {"name": "Horseshoe Bend city, Arkansas", "lat": 36.21873, "lng": -91.73832, "population": 2440}, {"name": "Bono city, Arkansas", "lat": 35.9111, "lng": -90.80082, "population": 2409}, {"name": "Elm Springs city, Arkansas", "lat": 36.20622, "lng": -94.2379, "population": 2361}, {"name": "West Fork city, Arkansas", "lat": 35.93492, "lng": -94.18111, "population": 2331}, {"name": "Lake City city, Arkansas", "lat": 35.81937, "lng": -90.45391, "population": 2326}, {"name": "Lincoln city, Arkansas", "lat": 35.94883, "lng": -94.41747, "population": 2294}, {"name": "Marked Tree city, Arkansas", "lat": 35.52789, "lng": -90.42661, "population": 2286}, {"name": "Prairie Creek CDP, Arkansas", "lat": 36.32948, "lng": -94.05893, "population": 2217}, {"name": "Harrisburg city, Arkansas", "lat": 35.56377, "lng": -90.72161, "population": 2212}, {"name": "Star City city, Arkansas", "lat": 33.94078, "lng": -91.83996, "population": 2173}, {"name": "Gassville city, Arkansas", "lat": 36.28495, "lng": -92.48683, "population": 2171}, {"name": "Eureka Springs city, Arkansas", "lat": 36.41077, "lng": -93.7449, "population": 2166}, {"name": "Fairfield Bay city, Arkansas", "lat": 35.6011, "lng": -92.26621, "population": 2108}, {"name": "Goshen town, Arkansas", "lat": 36.10246, "lng": -94.00158, "population": 2102}, {"name": "Lake Hamilton CDP, Arkansas", "lat": 34.42962, "lng": -93.07635, "population": 2084}, {"name": "Glenwood city, Arkansas", "lat": 34.32831, "lng": -93.52725, "population": 2068}, {"name": "Lake Village city, Arkansas", "lat": 33.32918, "lng": -91.28479, "population": 2065}, {"name": "Leachville city, Arkansas", "lat": 35.91147, "lng": -90.25495, "population": 2039}, {"name": "Carlisle city, Arkansas", "lat": 34.79543, "lng": -91.74049, "population": 2033}, {"name": "Danville city, Arkansas", "lat": 35.05246, "lng": -93.3912, "population": 2028}, {"name": "Dermott city, Arkansas", "lat": 33.52621, "lng": -91.4323, "population": 2021}, {"name": "Augusta city, Arkansas", "lat": 35.28655, "lng": -91.36086, "population": 1998}, {"name": "Mayflower city, Arkansas", "lat": 34.98032, "lng": -92.41935, "population": 1984}, {"name": "Bull Shoals city, Arkansas", "lat": 36.37357, "lng": -92.5915, "population": 1952}, {"name": "Cave City city, Arkansas", "lat": 35.94817, "lng": -91.54675, "population": 1922}, {"name": "Des Arc city, Arkansas", "lat": 34.97843, "lng": -91.50683, "population": 1905}, {"name": "Bay city, Arkansas", "lat": 35.74606, "lng": -90.55214, "population": 1876}, {"name": "Rector city, Arkansas", "lat": 36.26416, "lng": -90.29352, "population": 1862}, {"name": "Judsonia city, Arkansas", "lat": 35.27643, "lng": -91.64161, "population": 1854}, {"name": "Gurdon city, Arkansas", "lat": 33.91603, "lng": -93.15391, "population": 1840}, {"name": "Earle city, Arkansas", "lat": 35.27338, "lng": -90.4643, "population": 1831}, {"name": "Melbourne city, Arkansas", "lat": 36.06397, "lng": -91.88152, "population": 1830}, {"name": "Decatur city, Arkansas", "lat": 36.3411, "lng": -94.45134, "population": 1773}, {"name": "Lepanto city, Arkansas", "lat": 35.60853, "lng": -90.33298, "population": 1732}, {"name": "Eudora city, Arkansas", "lat": 33.11887, "lng": -91.26403, "population": 1728}, {"name": "Lamar city, Arkansas", "lat": 35.44443, "lng": -93.39468, "population": 1719}, {"name": "Tuckerman city, Arkansas", "lat": 35.7257, "lng": -91.20213, "population": 1707}, {"name": "Smackover city, Arkansas", "lat": 33.36359, "lng": -92.73143, "population": 1630}, {"name": "Highfill town, Arkansas", "lat": 36.27437, "lng": -94.32386, "population": 1587}, {"name": "McCrory city, Arkansas", "lat": 35.25733, "lng": -91.19728, "population": 1583}, {"name": "Salem city, Arkansas", "lat": 36.37042, "lng": -91.82171, "population": 1566}, {"name": "Mulberry city, Arkansas", "lat": 35.5085, "lng": -94.07475, "population": 1543}, {"name": "Wrightsville city, Arkansas", "lat": 34.62071, "lng": -92.21961, "population": 1542}, {"name": "Clarendon city, Arkansas", "lat": 34.69472, "lng": -91.30612, "population": 1526}, {"name": "Monette city, Arkansas", "lat": 35.89321, "lng": -90.34411, "population": 1506}, {"name": "Redfield city, Arkansas", "lat": 34.43934, "lng": -92.18848, "population": 1505}, {"name": "Murfreesboro city, Arkansas", "lat": 34.07031, "lng": -93.69407, "population": 1495}, {"name": "Hazen city, Arkansas", "lat": 34.78137, "lng": -91.55806, "population": 1481}, {"name": "McAlmont CDP, Arkansas", "lat": 34.79249, "lng": -92.19601, "population": 1447}, {"name": "Cedarville city, Arkansas", "lat": 35.58305, "lng": -94.36155, "population": 1424}, {"name": "Kensett city, Arkansas", "lat": 35.2352, "lng": -91.67126, "population": 1400}, {"name": "Perryville city, Arkansas", "lat": 35.012, "lng": -92.80294, "population": 1373}, {"name": "Flippin city, Arkansas", "lat": 36.27732, "lng": -92.59353, "population": 1345}, {"name": "Dover city, Arkansas", "lat": 35.39098, "lng": -93.11424, "population": 1337}, {"name": "Marshall city, Arkansas", "lat": 35.90846, "lng": -92.6465, "population": 1329}, {"name": "Avilla CDP, Arkansas", "lat": 34.69484, "lng": -92.58614, "population": 1325}, {"name": "Stamps city, Arkansas", "lat": 33.35496, "lng": -93.49788, "population": 1258}, {"name": "Diaz city, Arkansas", "lat": 35.64877, "lng": -91.25893, "population": 1224}, {"name": "Greenland city, Arkansas", "lat": 35.99619, "lng": -94.19089, "population": 1213}, {"name": "Marmaduke city, Arkansas", "lat": 36.19003, "lng": -90.38506, "population": 1212}, {"name": "Hampton city, Arkansas", "lat": 33.53476, "lng": -92.46661, "population": 1181}, {"name": "Newark city, Arkansas", "lat": 35.70763, "lng": -91.4434, "population": 1180}, {"name": "Yellville city, Arkansas", "lat": 36.22885, "lng": -92.68612, "population": 1178}, {"name": "Waldo city, Arkansas", "lat": 33.35192, "lng": -93.29539, "population": 1151}, {"name": "West Crossett CDP, Arkansas", "lat": 33.14804, "lng": -92.01698, "population": 1144}, {"name": "Ash Flat city, Arkansas", "lat": 36.23646, "lng": -91.60668, "population": 1137}, {"name": "Caraway city, Arkansas", "lat": 35.76022, "lng": -90.32208, "population": 1133}, {"name": "Oak Grove Heights town, Arkansas", "lat": 36.12643, "lng": -90.50343, "population": 1104}, {"name": "Mineral Springs city, Arkansas", "lat": 33.87772, "lng": -93.92139, "population": 1085}, {"name": "Hughes city, Arkansas", "lat": 34.94811, "lng": -90.47137, "population": 1056}, {"name": "Mansfield city, Arkansas", "lat": 35.06392, "lng": -94.23427, "population": 1053}, {"name": "Wooster town, Arkansas", "lat": 35.19976, "lng": -92.45027, "population": 1042}, {"name": "Midway CDP, Arkansas", "lat": 36.39224, "lng": -92.47553, "population": 1036}, {"name": "Sulphur Springs CDP, Arkansas", "lat": 34.17145, "lng": -92.13205, "population": 1032}, {"name": "Kibler city, Arkansas", "lat": 35.42524, "lng": -94.23614, "population": 1005}, {"name": "Mount Ida city, Arkansas", "lat": 34.54915, "lng": -93.62994, "population": 996}, {"name": "Highland city, Arkansas", "lat": 36.26943, "lng": -91.51982, "population": 982}, {"name": "Foreman city, Arkansas", "lat": 33.71949, "lng": -94.39767, "population": 977}, {"name": "Genoa CDP, Arkansas", "lat": 33.37749, "lng": -93.88241, "population": 972}, {"name": "Rison city, Arkansas", "lat": 33.95995, "lng": -92.19365, "population": 967}, {"name": "Luxora city, Arkansas", "lat": 35.75767, "lng": -89.92948, "population": 942}, {"name": "London city, Arkansas", "lat": 35.32762, "lng": -93.24347, "population": 936}, {"name": "Ola city, Arkansas", "lat": 35.03145, "lng": -93.22404, "population": 934}, {"name": "Mammoth Spring city, Arkansas", "lat": 36.49241, "lng": -91.54107, "population": 929}, {"name": "Horatio city, Arkansas", "lat": 33.94274, "lng": -94.3562, "population": 920}, {"name": "Dierks city, Arkansas", "lat": 34.11996, "lng": -94.01728, "population": 916}, {"name": "Lewisville city, Arkansas", "lat": 33.36013, "lng": -93.58397, "population": 915}, {"name": "Tumbling Shoals CDP, Arkansas", "lat": 35.54705, "lng": -91.96746, "population": 902}, {"name": "Calico Rock city, Arkansas", "lat": 36.12197, "lng": -92.12591, "population": 888}, {"name": "Cotter city, Arkansas", "lat": 36.2819, "lng": -92.52082, "population": 886}, {"name": "Marvell city, Arkansas", "lat": 34.5563, "lng": -90.91534, "population": 855}, {"name": "Sardis CDP, Arkansas", "lat": 34.53304, "lng": -92.40672, "population": 833}, {"name": "Greers Ferry city, Arkansas", "lat": 35.57497, "lng": -92.16596, "population": 821}, {"name": "Coal Hill city, Arkansas", "lat": 35.43799, "lng": -93.66519, "population": 820}, {"name": "Roland CDP, Arkansas", "lat": 34.90224, "lng": -92.51747, "population": 820}, {"name": "Fouke city, Arkansas", "lat": 33.26223, "lng": -93.88523, "population": 808}, {"name": "East Camden town, Arkansas", "lat": 33.60844, "lng": -92.74446, "population": 798}, {"name": "Parkin city, Arkansas", "lat": 35.26118, "lng": -90.55351, "population": 794}, {"name": "Hackett city, Arkansas", "lat": 35.18803, "lng": -94.41034, "population": 784}, {"name": "Cammack Village city, Arkansas", "lat": 34.7808, "lng": -92.34498, "population": 778}, {"name": "Bearden city, Arkansas", "lat": 33.72765, "lng": -92.61868, "population": 776}, {"name": "Lakeview city, Arkansas", "lat": 36.37391, "lng": -92.53874, "population": 775}, {"name": "Dyer city, Arkansas", "lat": 35.49437, "lng": -94.13881, "population": 772}, {"name": "Stephens city, Arkansas", "lat": 33.42092, "lng": -93.06959, "population": 770}, {"name": "Norphlet city, Arkansas", "lat": 33.31989, "lng": -92.66201, "population": 766}, {"name": "Wilson city, Arkansas", "lat": 35.56596, "lng": -90.0418, "population": 766}, {"name": "Madison city, Arkansas", "lat": 35.01799, "lng": -90.73115, "population": 759}, {"name": "Diamond City city, Arkansas", "lat": 36.45761, "lng": -92.91099, "population": 757}, {"name": "Guy city, Arkansas", "lat": 35.32732, "lng": -92.33666, "population": 752}, {"name": "Keiser city, Arkansas", "lat": 35.67398, "lng": -90.09584, "population": 751}, {"name": "Hardy city, Arkansas", "lat": 36.31965, "lng": -91.4815, "population": 743}, {"name": "Magazine city, Arkansas", "lat": 35.1539, "lng": -93.80785, "population": 740}, {"name": "Oppelo city, Arkansas", "lat": 35.10056, "lng": -92.77357, "population": 737}, {"name": "Plumerville city, Arkansas", "lat": 35.15938, "lng": -92.64306, "population": 734}, {"name": "Swifton city, Arkansas", "lat": 35.82446, "lng": -91.12943, "population": 733}, {"name": "Kirby CDP, Arkansas", "lat": 34.25429, "lng": -93.65487, "population": 721}, {"name": "Tyronza city, Arkansas", "lat": 35.48677, "lng": -90.35601, "population": 716}, {"name": "Desha CDP, Arkansas", "lat": 35.73045, "lng": -91.68558, "population": 715}, {"name": "Sweet Home CDP, Arkansas", "lat": 34.6674, "lng": -92.2463, "population": 712}, {"name": "Higginson town, Arkansas", "lat": 35.19681, "lng": -91.71518, "population": 705}, {"name": "Altheimer city, Arkansas", "lat": 34.32743, "lng": -91.84728, "population": 696}, {"name": "Quitman city, Arkansas", "lat": 35.38172, "lng": -92.21472, "population": 694}, {"name": "Magnet Cove CDP, Arkansas", "lat": 34.44916, "lng": -92.83772, "population": 692}, {"name": "Ozark Acres CDP, Arkansas", "lat": 36.29992, "lng": -91.38708, "population": 692}, {"name": "Amity city, Arkansas", "lat": 34.26619, "lng": -93.46342, "population": 681}, {"name": "Bradford city, Arkansas", "lat": 35.422, "lng": -91.45523, "population": 678}, {"name": "Rockport city, Arkansas", "lat": 34.40706, "lng": -92.80668, "population": 676}, {"name": "Altus city, Arkansas", "lat": 35.44676, "lng": -93.76439, "population": 665}, {"name": "Gould city, Arkansas", "lat": 33.98719, "lng": -91.56404, "population": 663}, {"name": "Knoxville town, Arkansas", "lat": 35.37754, "lng": -93.36184, "population": 660}, {"name": "Weiner city, Arkansas", "lat": 35.61971, "lng": -90.9053, "population": 647}, {"name": "Imboden town, Arkansas", "lat": 36.1997, "lng": -91.17739, "population": 640}, {"name": "Wickes town, Arkansas", "lat": 34.29974, "lng": -94.32725, "population": 637}, {"name": "Bauxite town, Arkansas", "lat": 34.55986, "lng": -92.49966, "population": 629}, {"name": "McRae city, Arkansas", "lat": 35.11363, "lng": -91.82619, "population": 616}, {"name": "Sulphur Rock town, Arkansas", "lat": 35.75163, "lng": -91.50025, "population": 609}, {"name": "Caddo Valley town, Arkansas", "lat": 34.18075, "lng": -93.0846, "population": 595}, {"name": "Lockesburg city, Arkansas", "lat": 33.97287, "lng": -94.17958, "population": 594}, {"name": "Garfield town, Arkansas", "lat": 36.45543, "lng": -93.97578, "population": 593}, {"name": "Black Rock city, Arkansas", "lat": 36.10624, "lng": -91.10748, "population": 590}, {"name": "Bonanza city, Arkansas", "lat": 35.23179, "lng": -94.41613, "population": 587}, {"name": "Holland city, Arkansas", "lat": 35.16601, "lng": -92.27705, "population": 586}, {"name": "Mountain Pine city, Arkansas", "lat": 34.56964, "lng": -93.17149, "population": 585}, {"name": "Taylor city, Arkansas", "lat": 33.0998, "lng": -93.46184, "population": 579}, {"name": "Cherry Valley city, Arkansas", "lat": 35.40276, "lng": -90.75362, "population": 575}, {"name": "Oxford city, Arkansas", "lat": 36.20903, "lng": -91.91827, "population": 573}, {"name": "Gillett city, Arkansas", "lat": 34.11917, "lng": -91.37913, "population": 564}, {"name": "Jasper city, Arkansas", "lat": 36.0121, "lng": -93.1875, "population": 547}, {"name": "Summit city, Arkansas", "lat": 36.2522, "lng": -92.68829, "population": 544}, {"name": "Cotton Plant city, Arkansas", "lat": 35.00592, "lng": -91.25205, "population": 529}, {"name": "Mountainburg city, Arkansas", "lat": 35.64963, "lng": -94.16241, "population": 528}, {"name": "Hermitage city, Arkansas", "lat": 33.44737, "lng": -92.17145, "population": 525}, {"name": "De Valls Bluff city, Arkansas", "lat": 34.78587, "lng": -91.46107, "population": 520}, {"name": "Turrell city, Arkansas", "lat": 35.37461, "lng": -90.27038, "population": 517}, {"name": "Hartman city, Arkansas", "lat": 35.43525, "lng": -93.62825, "population": 516}, {"name": "Elaine city, Arkansas", "lat": 34.3086, "lng": -90.85335, "population": 509}, {"name": "Palestine city, Arkansas", "lat": 34.97031, "lng": -90.90823, "population": 506}, {"name": "Junction City city, Arkansas", "lat": 33.02209, "lng": -92.72362, "population": 503}, {"name": "Pangburn city, Arkansas", "lat": 35.42611, "lng": -91.83941, "population": 500}, {"name": "Hartford city, Arkansas", "lat": 35.02343, "lng": -94.37941, "population": 499}, {"name": "Joiner city, Arkansas", "lat": 35.50739, "lng": -90.15071, "population": 498}, {"name": "Dennard CDP, Arkansas", "lat": 35.74792, "lng": -92.55, "population": 496}, {"name": "Grannis city, Arkansas", "lat": 34.24016, "lng": -94.322, "population": 496}, {"name": "Traskwood city, Arkansas", "lat": 34.45245, "lng": -92.66644, "population": 495}, {"name": "Rose Bud town, Arkansas", "lat": 35.32118, "lng": -92.07652, "population": 494}, {"name": "Huntington city, Arkansas", "lat": 35.08171, "lng": -94.26632, "population": 490}, {"name": "Avoca town, Arkansas", "lat": 36.3947, "lng": -94.06577, "population": 487}, {"name": "Tull town, Arkansas", "lat": 34.44121, "lng": -92.58588, "population": 484}, {"name": "Sulphur Springs city, Arkansas", "lat": 36.48408, "lng": -94.46009, "population": 481}, {"name": "Fountain Lake town, Arkansas", "lat": 34.60985, "lng": -92.91977, "population": 475}, {"name": "Salesville city, Arkansas", "lat": 36.23906, "lng": -92.2775, "population": 473}, {"name": "Salado CDP, Arkansas", "lat": 35.69541, "lng": -91.59232, "population": 472}, {"name": "College Station CDP, Arkansas", "lat": 34.70054, "lng": -92.22843, "population": 469}, {"name": "Plainview city, Arkansas", "lat": 34.98987, "lng": -93.29795, "population": 467}, {"name": "Norfork city, Arkansas", "lat": 36.20947, "lng": -92.27784, "population": 465}, {"name": "Humphrey city, Arkansas", "lat": 34.42237, "lng": -91.70245, "population": 463}, {"name": "Crawfordsville town, Arkansas", "lat": 35.22667, "lng": -90.32417, "population": 462}, {"name": "Central City town, Arkansas", "lat": 35.33638, "lng": -94.23804, "population": 461}, {"name": "Holly Grove city, Arkansas", "lat": 34.6015, "lng": -91.20025, "population": 460}, {"name": "Leola town, Arkansas", "lat": 34.17009, "lng": -92.59141, "population": 460}, {"name": "Yarborough Landing CDP, Arkansas", "lat": 33.71883, "lng": -94.00926, "population": 457}, {"name": "Caldwell town, Arkansas", "lat": 35.07479, "lng": -90.80945, "population": 451}, {"name": "Huttig city, Arkansas", "lat": 33.04032, "lng": -92.17968, "population": 448}, {"name": "Gateway town, Arkansas", "lat": 36.4889, "lng": -93.93309, "population": 436}, {"name": "Cushman city, Arkansas", "lat": 35.86585, "lng": -91.77809, "population": 433}, {"name": "Calion city, Arkansas", "lat": 33.32841, "lng": -92.54019, "population": 429}, {"name": "Bergman town, Arkansas", "lat": 36.31279, "lng": -93.01122, "population": 426}, {"name": "Ravenden town, Arkansas", "lat": 36.2432, "lng": -91.25131, "population": 426}, {"name": "Portia town, Arkansas", "lat": 36.08487, "lng": -91.07104, "population": 424}, {"name": "Evening Shade city, Arkansas", "lat": 36.06993, "lng": -91.62188, "population": 420}, {"name": "Lafe town, Arkansas", "lat": 36.20918, "lng": -90.50429, "population": 418}, {"name": "Wilmot city, Arkansas", "lat": 33.05696, "lng": -91.57786, "population": 416}, {"name": "Emmet city, Arkansas", "lat": 33.72254, "lng": -93.46616, "population": 415}, {"name": "Natural Steps CDP, Arkansas", "lat": 34.87427, "lng": -92.49777, "population": 413}, {"name": "Bellefonte town, Arkansas", "lat": 36.19986, "lng": -93.04704, "population": 411}, {"name": "Hector town, Arkansas", "lat": 35.46291, "lng": -92.97913, "population": 411}, {"name": "Jones Mills CDP, Arkansas", "lat": 34.44495, "lng": -92.90154, "population": 411}, {"name": "Strong city, Arkansas", "lat": 33.10788, "lng": -92.35557, "population": 410}, {"name": "Bradley city, Arkansas", "lat": 33.10011, "lng": -93.6569, "population": 405}, {"name": "Subiaco town, Arkansas", "lat": 35.29737, "lng": -93.63944, "population": 401}, {"name": "Appleton CDP, Arkansas", "lat": 35.41082, "lng": -92.87528, "population": 399}, {"name": "Lost Bridge Village CDP, Arkansas", "lat": 36.38973, "lng": -93.91554, "population": 397}, {"name": "Wilmar city, Arkansas", "lat": 33.62638, "lng": -91.92934, "population": 395}, {"name": "Reyno city, Arkansas", "lat": 36.3609, "lng": -90.75899, "population": 391}, {"name": "Oak Grove town, Arkansas", "lat": 36.46427, "lng": -93.43021, "population": 386}, {"name": "Damascus town, Arkansas", "lat": 35.36709, "lng": -92.41071, "population": 382}, {"name": "McNeil city, Arkansas", "lat": 33.34792, "lng": -93.2084, "population": 381}, {"name": "Maynard town, Arkansas", "lat": 36.42149, "lng": -90.9018, "population": 379}, {"name": "Floyd CDP, Arkansas", "lat": 35.19888, "lng": -91.96453, "population": 377}, {"name": "Midway town, Arkansas", "lat": 34.24989, "lng": -92.97343, "population": 377}, {"name": "Acorn CDP, Arkansas", "lat": 34.63879, "lng": -94.20011, "population": 376}, {"name": "Arkansas City city, Arkansas", "lat": 33.60888, "lng": -91.2049, "population": 376}, {"name": "Leslie city, Arkansas", "lat": 35.82951, "lng": -92.55596, "population": 375}, {"name": "Alpena town, Arkansas", "lat": 36.29275, "lng": -93.30371, "population": 374}, {"name": "Winslow city, Arkansas", "lat": 35.80154, "lng": -94.13178, "population": 365}, {"name": "Viola town, Arkansas", "lat": 36.39924, "lng": -91.98698, "population": 358}, {"name": "Sparkman city, Arkansas", "lat": 33.91717, "lng": -92.85, "population": 355}, {"name": "Western Grove town, Arkansas", "lat": 36.10112, "lng": -92.95455, "population": 354}, {"name": "Mount Pleasant town, Arkansas", "lat": 35.98142, "lng": -91.77738, "population": 353}, {"name": "Bigelow town, Arkansas", "lat": 34.99762, "lng": -92.63142, "population": 352}, {"name": "Pleasant Plains town, Arkansas", "lat": 35.55461, "lng": -91.62732, "population": 352}, {"name": "Kingsland city, Arkansas", "lat": 33.85798, "lng": -92.29779, "population": 347}, {"name": "Woodson CDP, Arkansas", "lat": 34.53973, "lng": -92.22255, "population": 346}, {"name": "Hatfield town, Arkansas", "lat": 34.48451, "lng": -94.37991, "population": 345}, {"name": "Dyess town, Arkansas", "lat": 35.58934, "lng": -90.21329, "population": 339}, {"name": "Thornton city, Arkansas", "lat": 33.77488, "lng": -92.48765, "population": 339}, {"name": "Vanndale CDP, Arkansas", "lat": 35.31529, "lng": -90.77111, "population": 339}, {"name": "Clarkedale city, Arkansas", "lat": 35.29703, "lng": -90.21025, "population": 336}, {"name": "Batavia CDP, Arkansas", "lat": 36.24785, "lng": -93.21577, "population": 328}, {"name": "Lake View city, Arkansas", "lat": 34.42116, "lng": -90.81331, "population": 327}, {"name": "Portland city, Arkansas", "lat": 33.23794, "lng": -91.51095, "population": 325}, {"name": "Cove town, Arkansas", "lat": 34.43898, "lng": -94.42232, "population": 319}, {"name": "Enola town, Arkansas", "lat": 35.19591, "lng": -92.20658, "population": 318}, {"name": "Twin Groves town, Arkansas", "lat": 35.32921, "lng": -92.40567, "population": 317}, {"name": "Armorel CDP, Arkansas", "lat": 35.92557, "lng": -89.79796, "population": 312}, {"name": "Belleville city, Arkansas", "lat": 35.09153, "lng": -93.44577, "population": 312}, {"name": "Patterson city, Arkansas", "lat": 35.25897, "lng": -91.23496, "population": 310}, {"name": "Henderson CDP, Arkansas", "lat": 36.37721, "lng": -92.21892, "population": 309}, {"name": "Cincinnati CDP, Arkansas", "lat": 36.04532, "lng": -94.52731, "population": 306}, {"name": "Pearcy CDP, Arkansas", "lat": 34.43545, "lng": -93.28822, "population": 306}, {"name": "Biggers town, Arkansas", "lat": 36.33136, "lng": -90.8007, "population": 305}, {"name": "Fredonia (Biscoe) town, Arkansas", "lat": 34.81937, "lng": -91.41016, "population": 305}, {"name": "Grady city, Arkansas", "lat": 34.07876, "lng": -91.69765, "population": 305}, {"name": "Norman town, Arkansas", "lat": 34.45898, "lng": -93.67682, "population": 303}, {"name": "Grubbs city, Arkansas", "lat": 35.654, "lng": -91.07546, "population": 301}, {"name": "Branch city, Arkansas", "lat": 35.3083, "lng": -93.95537, "population": 296}, {"name": "Bee Branch CDP, Arkansas", "lat": 35.46262, "lng": -92.40102, "population": 293}, {"name": "Colt city, Arkansas", "lat": 35.1329, "lng": -90.81293, "population": 293}, {"name": "Emerson town, Arkansas", "lat": 33.09733, "lng": -93.19598, "population": 293}, {"name": "Mitchellville city, Arkansas", "lat": 33.90533, "lng": -91.4984, "population": 293}, {"name": "Center Ridge CDP, Arkansas", "lat": 35.38071, "lng": -92.57563, "population": 290}, {"name": "Prattsville town, Arkansas", "lat": 34.31849, "lng": -92.54315, "population": 289}, {"name": "Blevins city, Arkansas", "lat": 33.87125, "lng": -93.57819, "population": 288}, {"name": "Delight city, Arkansas", "lat": 34.02953, "lng": -93.50656, "population": 288}, {"name": "Wilton city, Arkansas", "lat": 33.73873, "lng": -94.14799, "population": 287}, {"name": "Centerville CDP, Arkansas", "lat": 35.1157, "lng": -93.17146, "population": 283}, {"name": "Cash town, Arkansas", "lat": 35.80116, "lng": -90.93165, "population": 280}, {"name": "Wheatley city, Arkansas", "lat": 34.92119, "lng": -91.10626, "population": 279}, {"name": "Donaldson town, Arkansas", "lat": 34.23498, "lng": -92.91952, "population": 275}, {"name": "Lead Hill town, Arkansas", "lat": 36.41361, "lng": -92.90717, "population": 274}, {"name": "Menifee town, Arkansas", "lat": 35.1497, "lng": -92.55042, "population": 274}, {"name": "Rosston town, Arkansas", "lat": 33.58802, "lng": -93.28693, "population": 272}, {"name": "Strawberry town, Arkansas", "lat": 35.96652, "lng": -91.3211, "population": 268}, {"name": "El Paso CDP, Arkansas", "lat": 35.1153, "lng": -92.08119, "population": 267}, {"name": "Horseshoe Lake town, Arkansas", "lat": 34.91375, "lng": -90.30772, "population": 264}, {"name": "Morrow CDP, Arkansas", "lat": 35.85633, "lng": -94.43056, "population": 263}, {"name": "Poyen town, Arkansas", "lat": 34.32417, "lng": -92.64198, "population": 263}, {"name": "Perry town, Arkansas", "lat": 35.04622, "lng": -92.79441, "population": 262}, {"name": "Lawson CDP, Arkansas", "lat": 33.19996, "lng": -92.4879, "population": 260}, {"name": "Lynn town, Arkansas", "lat": 36.00426, "lng": -91.252, "population": 258}, {"name": "Perla town, Arkansas", "lat": 34.36476, "lng": -92.77623, "population": 257}, {"name": "Almyra town, Arkansas", "lat": 34.40569, "lng": -91.41085, "population": 256}, {"name": "Etowah town, Arkansas", "lat": 35.71576, "lng": -90.23068, "population": 254}, {"name": "Chidester city, Arkansas", "lat": 33.70195, "lng": -93.0238, "population": 253}, {"name": "Shirley town, Arkansas", "lat": 35.64375, "lng": -92.31352, "population": 248}, {"name": "Scranton city, Arkansas", "lat": 35.36043, "lng": -93.53972, "population": 245}, {"name": "Edmondson town, Arkansas", "lat": 35.10504, "lng": -90.30545, "population": 243}, {"name": "Montrose city, Arkansas", "lat": 33.29892, "lng": -91.49644, "population": 243}, {"name": "Payneway CDP, Arkansas", "lat": 35.54573, "lng": -90.5123, "population": 241}, {"name": "Letona town, Arkansas", "lat": 35.3635, "lng": -91.82955, "population": 240}, {"name": "Havana city, Arkansas", "lat": 35.10981, "lng": -93.52602, "population": 239}, {"name": "Fox CDP, Arkansas", "lat": 35.7844, "lng": -92.29963, "population": 237}, {"name": "Briarcliff city, Arkansas", "lat": 36.27197, "lng": -92.28209, "population": 236}, {"name": "Pleasant Grove CDP, Arkansas", "lat": 35.82046, "lng": -91.90698, "population": 235}, {"name": "Black Oak town, Arkansas", "lat": 35.83649, "lng": -90.36757, "population": 233}, {"name": "Campbell Station city, Arkansas", "lat": 35.6678, "lng": -91.25375, "population": 232}, {"name": "Perrytown town, Arkansas", "lat": 33.69714, "lng": -93.53241, "population": 232}, {"name": "Bismarck CDP, Arkansas", "lat": 34.32184, "lng": -93.17814, "population": 229}, {"name": "Hickory Ridge city, Arkansas", "lat": 35.40281, "lng": -90.99446, "population": 228}, {"name": "Midland town, Arkansas", "lat": 35.0924, "lng": -94.35295, "population": 227}, {"name": "Oil Trough town, Arkansas", "lat": 35.62916, "lng": -91.46123, "population": 226}, {"name": "Springfield CDP, Arkansas", "lat": 35.27289, "lng": -92.55499, "population": 223}, {"name": "Carthage city, Arkansas", "lat": 34.07261, "lng": -92.55531, "population": 222}, {"name": "Magness town, Arkansas", "lat": 35.70305, "lng": -91.48224, "population": 220}, {"name": "Humnoke city, Arkansas", "lat": 34.54224, "lng": -91.75966, "population": 219}, {"name": "St. Francis city, Arkansas", "lat": 36.45487, "lng": -90.14218, "population": 218}, {"name": "Poplar Grove CDP, Arkansas", "lat": 34.55217, "lng": -90.85422, "population": 215}, {"name": "Widener town, Arkansas", "lat": 35.0235, "lng": -90.68193, "population": 212}, {"name": "Garner town, Arkansas", "lat": 35.1425, "lng": -91.77918, "population": 211}, {"name": "Harrell town, Arkansas", "lat": 33.50987, "lng": -92.40006, "population": 210}, {"name": "Keo town, Arkansas", "lat": 34.60929, "lng": -92.01157, "population": 207}, {"name": "Lexa town, Arkansas", "lat": 34.59825, "lng": -90.75189, "population": 207}, {"name": "St. Charles town, Arkansas", "lat": 34.373, "lng": -91.13745, "population": 207}, {"name": "Denning town, Arkansas", "lat": 35.42515, "lng": -93.75676, "population": 200}, {"name": "Bethesda CDP, Arkansas", "lat": 35.7871, "lng": -91.79271, "population": 199}, {"name": "Garland town, Arkansas", "lat": 33.36096, "lng": -93.71417, "population": 195}, {"name": "Dell town, Arkansas", "lat": 35.85717, "lng": -90.03408, "population": 194}, {"name": "Pollard city, Arkansas", "lat": 36.42956, "lng": -90.26713, "population": 193}, {"name": "O'Kean town, Arkansas", "lat": 36.17146, "lng": -90.81835, "population": 192}, {"name": "Sidney town, Arkansas", "lat": 36.00442, "lng": -91.65829, "population": 192}, {"name": "Franklin town, Arkansas", "lat": 36.1727, "lng": -91.76972, "population": 191}, {"name": "Concord town, Arkansas", "lat": 35.66633, "lng": -91.86062, "population": 190}, {"name": "Tollette town, Arkansas", "lat": 33.81809, "lng": -93.8969, "population": 185}, {"name": "Watson city, Arkansas", "lat": 33.89375, "lng": -91.25706, "population": 185}, {"name": "Russell town, Arkansas", "lat": 35.36213, "lng": -91.50995, "population": 184}, {"name": "Sunset town, Arkansas", "lat": 35.22398, "lng": -90.20564, "population": 184}, {"name": "Valley Springs town, Arkansas", "lat": 36.15377, "lng": -92.9897, "population": 183}, {"name": "Pyatt town, Arkansas", "lat": 36.25074, "lng": -92.84664, "population": 181}, {"name": "Fisher city, Arkansas", "lat": 35.49144, "lng": -90.97257, "population": 180}, {"name": "Oden town, Arkansas", "lat": 34.62315, "lng": -93.78365, "population": 180}, {"name": "Wabbaseka town, Arkansas", "lat": 34.35981, "lng": -91.79378, "population": 180}, {"name": "Center Point CDP, Arkansas", "lat": 34.03183, "lng": -93.95117, "population": 179}, {"name": "Moro town, Arkansas", "lat": 34.79198, "lng": -90.98798, "population": 177}, {"name": "Oak Grove CDP, Arkansas", "lat": 35.36478, "lng": -92.96418, "population": 177}, {"name": "Urbana CDP, Arkansas", "lat": 33.15845, "lng": -92.44536, "population": 177}, {"name": "Gilmore city, Arkansas", "lat": 35.41399, "lng": -90.29558, "population": 176}, {"name": "Ulm town, Arkansas", "lat": 34.57623, "lng": -91.46169, "population": 175}, {"name": "Greenway city, Arkansas", "lat": 36.34058, "lng": -90.22212, "population": 174}, {"name": "Woodlawn CDP, Arkansas", "lat": 33.96674, "lng": -92.04524, "population": 174}, {"name": "New Blaine CDP, Arkansas", "lat": 35.29252, "lng": -93.41908, "population": 173}, {"name": "Parkdale city, Arkansas", "lat": 33.12121, "lng": -91.5464, "population": 172}, {"name": "Tillar city, Arkansas", "lat": 33.711, "lng": -91.45181, "population": 172}, {"name": "West Point town, Arkansas", "lat": 35.20331, "lng": -91.6099, "population": 170}, {"name": "Newhope CDP, Arkansas", "lat": 34.22226, "lng": -93.8774, "population": 169}, {"name": "Ratcliff city, Arkansas", "lat": 35.30695, "lng": -93.88864, "population": 167}, {"name": "Boles CDP, Arkansas", "lat": 34.78812, "lng": -94.0494, "population": 166}, {"name": "Summers CDP, Arkansas", "lat": 35.98719, "lng": -94.48287, "population": 166}, {"name": "Buckner city, Arkansas", "lat": 33.35727, "lng": -93.43556, "population": 165}, {"name": "Rondo town, Arkansas", "lat": 34.65745, "lng": -90.82084, "population": 163}, {"name": "Sedgwick town, Arkansas", "lat": 35.97416, "lng": -90.86215, "population": 163}, {"name": "Wesley CDP, Arkansas", "lat": 36.03254, "lng": -93.91862, "population": 161}, {"name": "Rover CDP, Arkansas", "lat": 34.95182, "lng": -93.40896, "population": 159}, {"name": "Fifty-Six city, Arkansas", "lat": 35.96351, "lng": -92.23336, "population": 158}, {"name": "Friendship town, Arkansas", "lat": 34.22434, "lng": -93.00366, "population": 158}, {"name": "Gillham town, Arkansas", "lat": 34.16863, "lng": -94.31298, "population": 157}, {"name": "Griffithville town, Arkansas", "lat": 35.12305, "lng": -91.64497, "population": 155}, {"name": "Caulksville town, Arkansas", "lat": 35.30185, "lng": -93.86781, "population": 154}, {"name": "Pineville town, Arkansas", "lat": 36.16114, "lng": -92.10647, "population": 154}, {"name": "Louann town, Arkansas", "lat": 33.39148, "lng": -92.79221, "population": 153}, {"name": "Walcott CDP, Arkansas", "lat": 36.04612, "lng": -90.6705, "population": 152}, {"name": "Jacksonport town, Arkansas", "lat": 35.64218, "lng": -91.30791, "population": 150}, {"name": "Adona city, Arkansas", "lat": 35.03993, "lng": -92.89913, "population": 149}, {"name": "Collins CDP, Arkansas", "lat": 33.53227, "lng": -91.57244, "population": 149}, {"name": "Wayton CDP, Arkansas", "lat": 35.91936, "lng": -93.25959, "population": 148}, {"name": "Willisville town, Arkansas", "lat": 33.51612, "lng": -93.29367, "population": 148}, {"name": "Knobel city, Arkansas", "lat": 36.31999, "lng": -90.60227, "population": 147}, {"name": "Chester town, Arkansas", "lat": 35.67777, "lng": -94.17783, "population": 144}, {"name": "Drasco CDP, Arkansas", "lat": 35.63377, "lng": -91.94178, "population": 144}, {"name": "Mount Vernon town, Arkansas", "lat": 35.2236, "lng": -92.12398, "population": 144}, {"name": "Alicia town, Arkansas", "lat": 35.89291, "lng": -91.08345, "population": 143}, {"name": "Houston town, Arkansas", "lat": 35.03488, "lng": -92.69452, "population": 143}, {"name": "Hagarville CDP, Arkansas", "lat": 35.51502, "lng": -93.33213, "population": 142}, {"name": "Ben Lomond town, Arkansas", "lat": 33.82911, "lng": -94.12332, "population": 140}, {"name": "Burdette town, Arkansas", "lat": 35.81527, "lng": -89.94642, "population": 140}, {"name": "Lacey CDP, Arkansas", "lat": 33.45035, "lng": -91.84955, "population": 139}, {"name": "Hensley CDP, Arkansas", "lat": 34.51041, "lng": -92.20952, "population": 137}, {"name": "Jerusalem CDP, Arkansas", "lat": 35.40757, "lng": -92.82301, "population": 137}, {"name": "Winchester town, Arkansas", "lat": 33.77407, "lng": -91.4737, "population": 137}, {"name": "Anthonyville town, Arkansas", "lat": 35.03983, "lng": -90.34033, "population": 135}, {"name": "Deer CDP, Arkansas", "lat": 35.82802, "lng": -93.21962, "population": 135}, {"name": "Ivan CDP, Arkansas", "lat": 33.90197, "lng": -92.4332, "population": 135}, {"name": "Alpine CDP, Arkansas", "lat": 34.22689, "lng": -93.37832, "population": 134}, {"name": "McDougal town, Arkansas", "lat": 36.43646, "lng": -90.39073, "population": 134}, {"name": "New Edinburg CDP, Arkansas", "lat": 33.75622, "lng": -92.24036, "population": 134}, {"name": "Staves CDP, Arkansas", "lat": 34.03358, "lng": -92.28058, "population": 133}, {"name": "Hattieville CDP, Arkansas", "lat": 35.29523, "lng": -92.77535, "population": 132}, {"name": "Wilburn CDP, Arkansas", "lat": 35.50879, "lng": -91.88837, "population": 132}, {"name": "Ogden city, Arkansas", "lat": 33.58587, "lng": -94.04692, "population": 131}, {"name": "Reed town, Arkansas", "lat": 33.70167, "lng": -91.44576, "population": 130}, {"name": "Rudy town, Arkansas", "lat": 35.52746, "lng": -94.24038, "population": 130}, {"name": "Crystal Springs CDP, Arkansas", "lat": 34.52483, "lng": -93.33362, "population": 129}, {"name": "St. Joe town, Arkansas", "lat": 36.02603, "lng": -92.80128, "population": 129}, {"name": "Omaha town, Arkansas", "lat": 36.46165, "lng": -93.18996, "population": 128}, {"name": "Moorefield town, Arkansas", "lat": 35.76723, "lng": -91.57081, "population": 126}, {"name": "Bassett town, Arkansas", "lat": 35.53558, "lng": -90.12943, "population": 124}, {"name": "Saratoga CDP, Arkansas", "lat": 33.74374, "lng": -93.90429, "population": 124}, {"name": "Mount Holly CDP, Arkansas", "lat": 33.30722, "lng": -92.95021, "population": 123}, {"name": "Rye CDP, Arkansas", "lat": 33.75048, "lng": -91.99849, "population": 123}, {"name": "Haynes town, Arkansas", "lat": 34.89093, "lng": -90.79266, "population": 122}, {"name": "Bodcaw town, Arkansas", "lat": 33.56364, "lng": -93.39304, "population": 121}, {"name": "Dora CDP, Arkansas", "lat": 35.46285, "lng": -94.42969, "population": 121}, {"name": "Casa town, Arkansas", "lat": 35.02497, "lng": -93.04551, "population": 120}, {"name": "Ravenden Springs town, Arkansas", "lat": 36.31271, "lng": -91.22326, "population": 119}, {"name": "Bluff City town, Arkansas", "lat": 33.73512, "lng": -93.12456, "population": 118}, {"name": "Jennette town, Arkansas", "lat": 35.15813, "lng": -90.41876, "population": 118}, {"name": "Maysville CDP, Arkansas", "lat": 36.40198, "lng": -94.58895, "population": 117}, {"name": "Winthrop city, Arkansas", "lat": 33.83084, "lng": -94.35422, "population": 116}, {"name": "Fulton town, Arkansas", "lat": 33.61256, "lng": -93.81379, "population": 115}, {"name": "Vandervoort town, Arkansas", "lat": 34.37978, "lng": -94.36492, "population": 115}, {"name": "Higden town, Arkansas", "lat": 35.56641, "lng": -92.20518, "population": 114}, {"name": "Antoine town, Arkansas", "lat": 34.03454, "lng": -93.42136, "population": 113}, {"name": "Egypt town, Arkansas", "lat": 35.86778, "lng": -90.94583, "population": 113}, {"name": "Goodwin CDP, Arkansas", "lat": 34.94073, "lng": -91.00358, "population": 113}, {"name": "Uniontown CDP, Arkansas", "lat": 35.58522, "lng": -94.447, "population": 112}, {"name": "St. Paul town, Arkansas", "lat": 35.82679, "lng": -93.76729, "population": 111}, {"name": "Mount Judea CDP, Arkansas", "lat": 35.92617, "lng": -93.0568, "population": 110}, {"name": "Floral CDP, Arkansas", "lat": 35.58894, "lng": -91.75893, "population": 109}, {"name": "Aubrey town, Arkansas", "lat": 34.71982, "lng": -90.89798, "population": 108}, {"name": "Fountain Hill town, Arkansas", "lat": 33.35755, "lng": -91.85114, "population": 108}, {"name": "Marie town, Arkansas", "lat": 35.61293, "lng": -90.08296, "population": 108}, {"name": "Peach Orchard city, Arkansas", "lat": 36.28123, "lng": -90.66077, "population": 105}, {"name": "Everton town, Arkansas", "lat": 36.15414, "lng": -92.90954, "population": 104}, {"name": "Powhatan town, Arkansas", "lat": 36.08731, "lng": -91.12388, "population": 104}, {"name": "Hunter town, Arkansas", "lat": 35.05456, "lng": -91.12286, "population": 103}, {"name": "Lonsdale town, Arkansas", "lat": 34.54497, "lng": -92.81056, "population": 103}, {"name": "Evansville CDP, Arkansas", "lat": 35.79064, "lng": -94.48884, "population": 102}, {"name": "Alix CDP, Arkansas", "lat": 35.422, "lng": -93.72878, "population": 100}, {"name": "Aplin CDP, Arkansas", "lat": 34.96748, "lng": -92.98127, "population": 100}, {"name": "Jericho town, Arkansas", "lat": 35.28768, "lng": -90.23047, "population": 98}, {"name": "Success town, Arkansas", "lat": 36.4545, "lng": -90.72262, "population": 98}, {"name": "Alleene CDP, Arkansas", "lat": 33.76482, "lng": -94.2622, "population": 97}, {"name": "Kingston CDP, Arkansas", "lat": 36.05674, "lng": -93.51474, "population": 97}, {"name": "Okolona town, Arkansas", "lat": 34.00048, "lng": -93.33762, "population": 97}, {"name": "Scott CDP, Arkansas", "lat": 34.69766, "lng": -92.09393, "population": 97}, {"name": "Black Springs town, Arkansas", "lat": 34.45598, "lng": -93.71312, "population": 96}, {"name": "Pindall town, Arkansas", "lat": 36.06366, "lng": -92.86216, "population": 95}, {"name": "Tucker CDP, Arkansas", "lat": 34.43952, "lng": -91.95191, "population": 95}, {"name": "Washington city, Arkansas", "lat": 33.77288, "lng": -93.68329, "population": 94}, {"name": "Ozone CDP, Arkansas", "lat": 35.63849, "lng": -93.44732, "population": 92}, {"name": "Zinc town, Arkansas", "lat": 36.28396, "lng": -92.91442, "population": 92}, {"name": "Gum Springs town, Arkansas", "lat": 34.06394, "lng": -93.09571, "population": 91}, {"name": "Hindsville town, Arkansas", "lat": 36.14772, "lng": -93.86488, "population": 90}, {"name": "Big Flat town, Arkansas", "lat": 36.0034, "lng": -92.41022, "population": 88}, {"name": "Blue Mountain town, Arkansas", "lat": 35.1318, "lng": -93.71667, "population": 88}, {"name": "Daisy town, Arkansas", "lat": 34.23592, "lng": -93.73919, "population": 88}, {"name": "Banks town, Arkansas", "lat": 33.5758, "lng": -92.2671, "population": 87}, {"name": "Board Camp CDP, Arkansas", "lat": 34.53252, "lng": -94.07967, "population": 87}, {"name": "Coy town, Arkansas", "lat": 34.54048, "lng": -91.8713, "population": 87}, {"name": "Minturn town, Arkansas", "lat": 35.97642, "lng": -91.02719, "population": 87}, {"name": "Smithville town, Arkansas", "lat": 36.07992, "lng": -91.30267, "population": 87}, {"name": "Allport town, Arkansas", "lat": 34.53987, "lng": -91.78389, "population": 86}, {"name": "South Lead Hill town, Arkansas", "lat": 36.39561, "lng": -92.90621, "population": 86}, {"name": "Felsenthal town, Arkansas", "lat": 33.06083, "lng": -92.14896, "population": 85}, {"name": "Beedeville town, Arkansas", "lat": 35.42917, "lng": -91.11074, "population": 84}, {"name": "Springtown town, Arkansas", "lat": 36.26029, "lng": -94.42381, "population": 83}, {"name": "Georgetown town, Arkansas", "lat": 35.12668, "lng": -91.45392, "population": 81}, {"name": "Williford town, Arkansas", "lat": 36.25183, "lng": -91.36046, "population": 79}, {"name": "Morrison Bluff town, Arkansas", "lat": 35.38195, "lng": -93.51885, "population": 78}, {"name": "Bowman CDP, Arkansas", "lat": 35.81683, "lng": -90.49623, "population": 75}, {"name": "Canehill CDP, Arkansas", "lat": 35.91376, "lng": -94.39732, "population": 74}, {"name": "Cale town, Arkansas", "lat": 33.62789, "lng": -93.2328, "population": 73}, {"name": "Cherokee City CDP, Arkansas", "lat": 36.2947, "lng": -94.5768, "population": 73}, {"name": "Oakland CDP, Arkansas", "lat": 36.46042, "lng": -92.57177, "population": 72}, {"name": "Pencil Bluff CDP, Arkansas", "lat": 34.63038, "lng": -93.73503, "population": 72}, {"name": "Tupelo town, Arkansas", "lat": 35.39033, "lng": -91.2299, "population": 70}, {"name": "Amagon town, Arkansas", "lat": 35.56317, "lng": -91.10941, "population": 69}, {"name": "Nimmons town, Arkansas", "lat": 36.30625, "lng": -90.09506, "population": 69}, {"name": "Guion town, Arkansas", "lat": 35.92683, "lng": -91.93893, "population": 68}, {"name": "Roe town, Arkansas", "lat": 34.6311, "lng": -91.38596, "population": 68}, {"name": "Beaver town, Arkansas", "lat": 36.47399, "lng": -93.77733, "population": 67}, {"name": "Datto town, Arkansas", "lat": 36.39247, "lng": -90.7285, "population": 65}, {"name": "Oakhaven town, Arkansas", "lat": 33.7294, "lng": -93.62078, "population": 65}, {"name": "Delaplaine town, Arkansas", "lat": 36.23039, "lng": -90.72565, "population": 64}, {"name": "Fargo town, Arkansas", "lat": 34.95399, "lng": -91.17974, "population": 57}, {"name": "McCaskill town, Arkansas", "lat": 33.91954, "lng": -93.63683, "population": 57}, {"name": "Patmos town, Arkansas", "lat": 33.51137, "lng": -93.56696, "population": 57}, {"name": "Weldon town, Arkansas", "lat": 35.44799, "lng": -91.23161, "population": 57}, {"name": "Edgemont CDP, Arkansas", "lat": 35.60069, "lng": -92.19637, "population": 56}, {"name": "Fourche town, Arkansas", "lat": 34.99313, "lng": -92.61894, "population": 56}, {"name": "Fair Oaks CDP, Arkansas", "lat": 35.248, "lng": -91.03602, "population": 55}, {"name": "Sherrill town, Arkansas", "lat": 34.38506, "lng": -91.95181, "population": 53}, {"name": "Waldenburg town, Arkansas", "lat": 35.56526, "lng": -90.93456, "population": 53}, {"name": "LaGrange town, Arkansas", "lat": 34.65576, "lng": -90.73474, "population": 52}, {"name": "Monroe CDP, Arkansas", "lat": 34.73404, "lng": -91.10677, "population": 51}, {"name": "Ozan town, Arkansas", "lat": 33.84661, "lng": -93.72082, "population": 50}, {"name": "Tinsman town, Arkansas", "lat": 33.62918, "lng": -92.3533, "population": 50}, {"name": "Wiederkehr Village city, Arkansas", "lat": 35.47771, "lng": -93.76472, "population": 50}, {"name": "Warm Springs CDP, Arkansas", "lat": 36.48315, "lng": -91.04901, "population": 47}, {"name": "Whelen Springs town, Arkansas", "lat": 33.83314, "lng": -93.12603, "population": 47}, {"name": "Blue Eye town, Arkansas", "lat": 36.49667, "lng": -93.39771, "population": 46}, {"name": "Rivervale CDP, Arkansas", "lat": 35.67588, "lng": -90.3445, "population": 46}, {"name": "Corinth town, Arkansas", "lat": 35.06951, "lng": -93.42009, "population": 45}, {"name": "Halley CDP, Arkansas", "lat": 33.53625, "lng": -91.32365, "population": 44}, {"name": "Gregory CDP, Arkansas", "lat": 35.15333, "lng": -91.33424, "population": 43}, {"name": "Oark CDP, Arkansas", "lat": 35.69498, "lng": -93.57503, "population": 43}, {"name": "Reader CDP, Arkansas", "lat": 33.75161, "lng": -93.10118, "population": 40}, {"name": "Caddo Gap CDP, Arkansas", "lat": 34.40249, "lng": -93.61788, "population": 39}, {"name": "Beirne CDP, Arkansas", "lat": 33.88821, "lng": -93.20622, "population": 36}, {"name": "Violet Hill CDP, Arkansas", "lat": 36.1529, "lng": -91.83972, "population": 36}, {"name": "Gamaliel CDP, Arkansas", "lat": 36.45189, "lng": -92.23693, "population": 33}, {"name": "Witts Springs CDP, Arkansas", "lat": 35.77027, "lng": -92.88228, "population": 33}, {"name": "Birdsong town, Arkansas", "lat": 35.46116, "lng": -90.25976, "population": 32}, {"name": "McNab town, Arkansas", "lat": 33.66089, "lng": -93.83228, "population": 30}, {"name": "Ponca CDP, Arkansas", "lat": 36.02929, "lng": -93.36238, "population": 30}, {"name": "Buffalo City CDP, Arkansas", "lat": 36.16912, "lng": -92.43807, "population": 26}, {"name": "Gilbert town, Arkansas", "lat": 35.99098, "lng": -92.71618, "population": 26}, {"name": "Jerome town, Arkansas", "lat": 33.3986, "lng": -91.46981, "population": 24}, {"name": "Mellwood CDP, Arkansas", "lat": 34.21547, "lng": -90.94469, "population": 21}, {"name": "Victoria town, Arkansas", "lat": 35.75742, "lng": -90.06015, "population": 20}, {"name": "Mount Olive CDP, Arkansas", "lat": 36.00312, "lng": -92.09046, "population": 17}, {"name": "Indian Bay CDP, Arkansas", "lat": 34.38712, "lng": -91.06956, "population": 15}, {"name": "Oneida CDP, Arkansas", "lat": 34.46049, "lng": -90.78672, "population": 13}, {"name": "Princeton CDP, Arkansas", "lat": 33.97754, "lng": -92.62418, "population": 13}]