[{"name": "Dededo", "lat": 13.5181, "lng": 144.8381, "population": 46842}, {"name": "Yigo", "lat": 13.5361, "lng": 144.8875, "population": 21052}, {"name": "Tamuning", "lat": 13.4872, "lng": 144.7781, "population": 19685}, {"name": "Mangilao", "lat": 13.4497, "lng": 144.7978, "population": 17383}, {"name": "Barrigada", "lat": 13.4686, "lng": 144.8064, "population": 14353}, {"name": "Santa Rita", "lat": 13.3875, "lng": 144.6711, "population": 7500}, {"name": "Mongmong-Toto-Maite", "lat": 13.4619, "lng": 144.7808, "population": 6825}, {"name": "Yona", "lat": 13.4086, "lng": 144.7569, "population": 6484}, {"name": "Chalan Pago-Ordot", "lat": 13.4561, "lng": 144.7786, "population": 6483}, {"name": "Agat", "lat": 13.3889, "lng": 144.6556, "population": 5656}, {"name": "Agana Heights", "lat": 13.4667, "lng": 144.75, "population": 3940}, {"name": "Talofofo", "lat": 13.3581, "lng": 144.7517, "population": 3636}, {"name": "Inarajan", "lat": 13.2744, "lng": 144.7461, "population": 3256}, {"name": "Sinajana", "lat": 13.4558, "lng": 144.7536, "population": 2592}, {"name": "Asan-Maina", "lat": 13.4706, "lng": 144.7194, "population": 2137}, {"name": "Merizo", "lat": 13.2636, "lng": 144.6739, "population": 1850}, {"name": "Piti", "lat": 13.4625, "lng": 144.6917, "population": 1671}, {"name": "Hagatna", "lat": 13.4757, "lng": 144.7489, "population": 1062}, {"name": "Umatac", "lat": 13.2958, "lng": 144.6614, "population": 782}]