[{"name": "Portland city, Maine", "lat": 43.63316, "lng": -70.1853, "population": 68408}, {"name": "Lewiston city, Maine", "lat": 44.08951, "lng": -70.17209, "population": 37121}, {"name": "Bangor city, Maine", "lat": 44.82963, "lng": -68.78877, "population": 31753}, {"name": "South Portland city, Maine", "lat": 43.6314, "lng": -70.28599, "population": 26498}, {"name": "Auburn city, Maine", "lat": 44.08454, "lng": -70.24965, "population": 24061}, {"name": "Biddeford city, Maine", "lat": 43.43873, "lng": -70.39294, "population": 22552}, {"name": "Sanford city, Maine", "lat": 43.42414, "lng": -70.75786, "population": 21982}, {"name": "Westbrook city, Maine", "lat": 43.70792, "lng": -70.3526, "population": 20400}, {"name": "Saco city, Maine", "lat": 43.52796, "lng": -70.41957, "population": 20381}, {"name": "Augusta city, Maine", "lat": 44.3349, "lng": -69.7342, "population": 18899}, {"name": "Brunswick CDP, Maine", "lat": 43.88745, "lng": -69.94262, "population": 17033}, {"name": "Waterville city, Maine", "lat": 44.54528, "lng": -69.6614, "population": 15828}, {"name": "Orono CDP, Maine", "lat": 44.87826, "lng": -68.68814, "population": 10185}, {"name": "Brewer city, Maine", "lat": 44.78446, "lng": -68.73456, "population": 9672}, {"name": "Old Orchard Beach CDP, Maine", "lat": 43.53377, "lng": -70.35685, "population": 8960}, {"name": "Presque Isle city, Maine", "lat": 46.68895, "lng": -67.99191, "population": 8797}, {"name": "Bath city, Maine", "lat": 43.93253, "lng": -69.84719, "population": 8766}, {"name": "Ellsworth city, Maine", "lat": 44.58293, "lng": -68.48009, "population": 8399}, {"name": "Gorham CDP, Maine", "lat": 43.69324, "lng": -70.43496, "population": 7469}, {"name": "Old Town city, Maine", "lat": 44.95417, "lng": -68.73969, "population": 7431}, {"name": "Caribou city, Maine", "lat": 46.83655, "lng": -67.93606, "population": 7396}, {"name": "Belfast city, Maine", "lat": 44.42587, "lng": -69.02642, "population": 6938}, {"name": "Rockland city, Maine", "lat": 44.12388, "lng": -69.13045, "population": 6936}, {"name": "Topsham CDP, Maine", "lat": 43.94739, "lng": -69.93165, "population": 6623}, {"name": "Skowhegan CDP, Maine", "lat": 44.77815, "lng": -69.7122, "population": 6404}, {"name": "Yarmouth CDP, Maine", "lat": 43.80382, "lng": -70.18858, "population": 6125}, {"name": "Gardiner city, Maine", "lat": 44.19509, "lng": -69.79377, "population": 5961}, {"name": "Oak Hill CDP, Maine", "lat": 43.59636, "lng": -70.34085, "population": 5846}, {"name": "Kennebunk CDP, Maine", "lat": 43.38411, "lng": -70.54417, "population": 5776}, {"name": "Winslow CDP, Maine", "lat": 44.55343, "lng": -69.60845, "population": 5318}, {"name": "North Windham CDP, Maine", "lat": 43.82634, "lng": -70.43125, "population": 5274}, {"name": "Kittery CDP, Maine", "lat": 43.08998, "lng": -70.73832, "population": 4973}, {"name": "Houlton CDP, Maine", "lat": 46.12145, "lng": -67.83221, "population": 4743}, {"name": "Hampden CDP, Maine", "lat": 44.7476, "lng": -68.83988, "population": 4516}, {"name": "Rumford CDP, Maine", "lat": 44.54484, "lng": -70.56019, "population": 4298}, {"name": "Lisbon Falls CDP, Maine", "lat": 44.00861, "lng": -70.05764, "population": 4182}, {"name": "Farmington CDP, Maine", "lat": 44.66837, "lng": -70.14404, "population": 4168}, {"name": "Millinocket CDP, Maine", "lat": 45.65922, "lng": -68.69815, "population": 4104}, {"name": "Camden CDP, Maine", "lat": 44.21377, "lng": -69.06846, "population": 3850}, {"name": "South Berwick CDP, Maine", "lat": 43.23005, "lng": -70.79814, "population": 3825}, {"name": "South Eliot CDP, Maine", "lat": 43.13508, "lng": -70.79316, "population": 3719}, {"name": "Lisbon CDP, Maine", "lat": 44.02971, "lng": -70.10752, "population": 3217}, {"name": "Lake Arrowhead CDP, Maine", "lat": 43.66168, "lng": -70.742, "population": 3192}, {"name": "York Harbor CDP, Maine", "lat": 43.14302, "lng": -70.64749, "population": 3132}, {"name": "Calais city, Maine", "lat": 45.14295, "lng": -67.21753, "population": 3079}, {"name": "Cape Neddick CDP, Maine", "lat": 43.17198, "lng": -70.62374, "population": 3037}, {"name": "Bucksport CDP, Maine", "lat": 44.58843, "lng": -68.79864, "population": 2832}, {"name": "Pittsfield CDP, Maine", "lat": 44.76327, "lng": -69.37273, "population": 2822}, {"name": "Madawaska CDP, Maine", "lat": 47.34245, "lng": -68.33344, "population": 2797}, {"name": "Dover-Foxcroft CDP, Maine", "lat": 45.20507, "lng": -69.22321, "population": 2776}, {"name": "Cumberland Center CDP, Maine", "lat": 43.79474, "lng": -70.24406, "population": 2739}, {"name": "Norway CDP, Maine", "lat": 44.23076, "lng": -70.56344, "population": 2696}, {"name": "Lincoln CDP, Maine", "lat": 45.36268, "lng": -68.50173, "population": 2667}, {"name": "Winthrop CDP, Maine", "lat": 44.32338, "lng": -69.95079, "population": 2666}, {"name": "Fairfield CDP, Maine", "lat": 44.59034, "lng": -69.60522, "population": 2616}, {"name": "Hallowell city, Maine", "lat": 44.28724, "lng": -69.81804, "population": 2570}, {"name": "Oakland CDP, Maine", "lat": 44.55247, "lng": -69.70614, "population": 2536}, {"name": "Madison CDP, Maine", "lat": 44.80779, "lng": -69.85037, "population": 2533}, {"name": "Fort Kent CDP, Maine", "lat": 47.25174, "lng": -68.58722, "population": 2413}, {"name": "Berwick CDP, Maine", "lat": 43.26996, "lng": -70.86243, "population": 2277}, {"name": "Bar Harbor CDP, Maine", "lat": 44.38131, "lng": -68.21113, "population": 2260}, {"name": "Mechanic Falls CDP, Maine", "lat": 44.11167, "lng": -70.39405, "population": 2257}, {"name": "Mexico CDP, Maine", "lat": 44.55695, "lng": -70.53374, "population": 2234}, {"name": "Milford CDP, Maine", "lat": 44.95743, "lng": -68.63094, "population": 2211}, {"name": "South Paris CDP, Maine", "lat": 44.21782, "lng": -70.51302, "population": 2183}, {"name": "Bridgton CDP, Maine", "lat": 44.07646, "lng": -70.71547, "population": 2118}, {"name": "Dexter CDP, Maine", "lat": 45.01621, "lng": -69.29466, "population": 2093}, {"name": "Dunstan CDP, Maine", "lat": 43.56912, "lng": -70.3862, "population": 2083}, {"name": "Wilton CDP, Maine", "lat": 44.59435, "lng": -70.23752, "population": 2071}, {"name": "Farmingdale CDP, Maine", "lat": 44.25139, "lng": -69.78448, "population": 2000}, {"name": "Falmouth CDP, Maine", "lat": 43.71601, "lng": -70.23106, "population": 1988}, {"name": "Thomaston CDP, Maine", "lat": 44.08187, "lng": -69.17945, "population": 1836}, {"name": "Veazie CDP, Maine", "lat": 44.84744, "lng": -68.71419, "population": 1814}, {"name": "Richmond CDP, Maine", "lat": 44.09904, "lng": -69.80957, "population": 1810}, {"name": "Van Buren CDP, Maine", "lat": 47.16705, "lng": -67.94888, "population": 1809}, {"name": "Milo CDP, Maine", "lat": 45.24832, "lng": -68.95055, "population": 1751}, {"name": "Randolph CDP, Maine", "lat": 44.23729, "lng": -69.75125, "population": 1743}, {"name": "North Berwick CDP, Maine", "lat": 43.29621, "lng": -70.73095, "population": 1721}, {"name": "Freeport CDP, Maine", "lat": 43.85705, "lng": -70.10259, "population": 1700}, {"name": "Newport CDP, Maine", "lat": 44.83643, "lng": -69.25485, "population": 1690}, {"name": "Fort Fairfield CDP, Maine", "lat": 46.76707, "lng": -67.83194, "population": 1666}, {"name": "East Millinocket CDP, Maine", "lat": 45.6271, "lng": -68.57377, "population": 1560}, {"name": "Falmouth Foreside CDP, Maine", "lat": 43.73235, "lng": -70.21802, "population": 1554}, {"name": "Livermore Falls CDP, Maine", "lat": 44.47257, "lng": -70.1808, "population": 1540}, {"name": "Machias CDP, Maine", "lat": 44.70064, "lng": -67.47861, "population": 1457}, {"name": "Fryeburg CDP, Maine", "lat": 44.02011, "lng": -70.972, "population": 1444}, {"name": "Clinton CDP, Maine", "lat": 44.64463, "lng": -69.48866, "population": 1386}, {"name": "Winterport CDP, Maine", "lat": 44.64813, "lng": -68.86125, "population": 1355}, {"name": "Norridgewock CDP, Maine", "lat": 44.72282, "lng": -69.76307, "population": 1351}, {"name": "Chisholm CDP, Maine", "lat": 44.49289, "lng": -70.1926, "population": 1343}, {"name": "Dixfield CDP, Maine", "lat": 44.53795, "lng": -70.44603, "population": 1323}, {"name": "Waldoboro CDP, Maine", "lat": 44.09332, "lng": -69.37843, "population": 1300}, {"name": "Oxford CDP, Maine", "lat": 44.14487, "lng": -70.52387, "population": 1294}, {"name": "Eastport city, Maine", "lat": 44.91094, "lng": -67.00916, "population": 1288}, {"name": "Kennebunkport CDP, Maine", "lat": 43.36324, "lng": -70.46028, "population": 1264}, {"name": "Wiscasset CDP, Maine", "lat": 44.01075, "lng": -69.67803, "population": 1232}, {"name": "Steep Falls CDP, Maine", "lat": 43.79122, "lng": -70.61386, "population": 1223}, {"name": "South Windham CDP, Maine", "lat": 43.73879, "lng": -70.4219, "population": 1215}, {"name": "Damariscotta CDP, Maine", "lat": 44.01717, "lng": -69.52023, "population": 1193}, {"name": "West Kennebunk CDP, Maine", "lat": 43.41419, "lng": -70.58099, "population": 1191}, {"name": "Castine CDP, Maine", "lat": 44.39398, "lng": -68.80602, "population": 1014}, {"name": "Greenville CDP, Maine", "lat": 45.46611, "lng": -69.57786, "population": 1010}, {"name": "Kittery Point CDP, Maine", "lat": 43.09381, "lng": -70.69096, "population": 1009}, {"name": "Searsport CDP, Maine", "lat": 44.47495, "lng": -68.9156, "population": 999}, {"name": "Blue Hill CDP, Maine", "lat": 44.39865, "lng": -68.58103, "population": 963}, {"name": "Howland CDP, Maine", "lat": 45.2696, "lng": -68.6581, "population": 947}, {"name": "Washburn CDP, Maine", "lat": 46.7884, "lng": -68.1396, "population": 937}, {"name": "Gray CDP, Maine", "lat": 43.88639, "lng": -70.32409, "population": 887}, {"name": "Limestone CDP, Maine", "lat": 46.91121, "lng": -67.83083, "population": 874}, {"name": "Alfred CDP, Maine", "lat": 43.47857, "lng": -70.72709, "population": 874}, {"name": "Boothbay Harbor CDP, Maine", "lat": 43.85562, "lng": -69.62334, "population": 872}, {"name": "Little Falls CDP, Maine", "lat": 43.73543, "lng": -70.43538, "population": 863}, {"name": "Woodland CDP, Maine", "lat": 45.15821, "lng": -67.40974, "population": 853}, {"name": "Mars Hill CDP, Maine", "lat": 46.51919, "lng": -67.86971, "population": 818}, {"name": "Sabattus CDP, Maine", "lat": 44.12012, "lng": -70.10378, "population": 787}, {"name": "Bradley CDP, Maine", "lat": 44.91183, "lng": -68.62153, "population": 765}, {"name": "Cornish CDP, Maine", "lat": 43.80012, "lng": -70.79514, "population": 764}, {"name": "Hartland CDP, Maine", "lat": 44.88556, "lng": -69.46917, "population": 756}, {"name": "Greene CDP, Maine", "lat": 44.18975, "lng": -70.14509, "population": 750}, {"name": "Southwest Harbor CDP, Maine", "lat": 44.27839, "lng": -68.32858, "population": 740}, {"name": "Guilford CDP, Maine", "lat": 45.17862, "lng": -69.39504, "population": 740}, {"name": "Kezar Falls CDP, Maine", "lat": 43.80712, "lng": -70.8753, "population": 736}, {"name": "Bowdoinham CDP, Maine", "lat": 44.02121, "lng": -69.90126, "population": 734}, {"name": "Corinna CDP, Maine", "lat": 44.92274, "lng": -69.26585, "population": 729}, {"name": "Bingham CDP, Maine", "lat": 45.05808, "lng": -69.87305, "population": 716}, {"name": "Anson CDP, Maine", "lat": 44.79673, "lng": -69.90024, "population": 680}, {"name": "Newcastle CDP, Maine", "lat": 44.0486, "lng": -69.53326, "population": 660}, {"name": "Bethel CDP, Maine", "lat": 44.4038, "lng": -70.78635, "population": 658}, {"name": "Kingfield CDP, Maine", "lat": 44.9545, "lng": -70.16452, "population": 640}, {"name": "Ashland CDP, Maine", "lat": 46.61687, "lng": -68.39283, "population": 639}, {"name": "Mapleton CDP, Maine", "lat": 46.68076, "lng": -68.15119, "population": 623}, {"name": "Jonesport CDP, Maine", "lat": 44.53537, "lng": -67.60759, "population": 608}, {"name": "Rangeley CDP, Maine", "lat": 44.9659, "lng": -70.65215, "population": 590}, {"name": "Casco CDP, Maine", "lat": 44.00169, "lng": -70.53276, "population": 582}, {"name": "Eagle Lake CDP, Maine", "lat": 47.03444, "lng": -68.58895, "population": 553}, {"name": "Turner CDP, Maine", "lat": 44.25781, "lng": -70.25786, "population": 544}, {"name": "Patten CDP, Maine", "lat": 46.00434, "lng": -68.44276, "population": 539}, {"name": "Cousins Island CDP, Maine", "lat": 43.7668, "lng": -70.14302, "population": 528}, {"name": "Brownville Junction CDP, Maine", "lat": 45.34874, "lng": -69.05624, "population": 506}, {"name": "Standish CDP, Maine", "lat": 43.73534, "lng": -70.5525, "population": 480}, {"name": "North Anson CDP, Maine", "lat": 44.86387, "lng": -69.89898, "population": 459}, {"name": "Unity CDP, Maine", "lat": 44.61868, "lng": -69.34458, "population": 448}, {"name": "Milbridge CDP, Maine", "lat": 44.52918, "lng": -67.8949, "population": 435}, {"name": "Mattawamkeag CDP, Maine", "lat": 45.51772, "lng": -68.35166, "population": 422}, {"name": "Naples CDP, Maine", "lat": 43.96058, "lng": -70.60228, "population": 415}, {"name": "Winter Harbor CDP, Maine", "lat": 44.3928, "lng": -68.09166, "population": 385}, {"name": "Oakfield CDP, Maine", "lat": 46.10198, "lng": -68.15165, "population": 378}, {"name": "Northeast Harbor CDP, Maine", "lat": 44.29016, "lng": -68.29085, "population": 370}, {"name": "Lubec CDP, Maine", "lat": 44.85509, "lng": -66.98982, "population": 334}, {"name": "Danforth CDP, Maine", "lat": 45.6596, "lng": -67.86831, "population": 331}, {"name": "Island Falls CDP, Maine", "lat": 46.00871, "lng": -68.26394, "population": 309}, {"name": "Blaine CDP, Maine", "lat": 46.499, "lng": -67.86877, "population": 250}, {"name": "Grand Isle CDP, Maine", "lat": 47.30736, "lng": -68.1587, "population": 184}, {"name": "Littlejohn Island CDP, Maine", "lat": 43.76066, "lng": -70.12656, "population": 116}, {"name": "Vanceboro CDP, Maine", "lat": 45.56724, "lng": -67.42922, "population": 94}]