[{"name": "Jackson city, Mississippi", "lat": 32.31583, "lng": -90.21285, "population": 153701}, {"name": "Gulfport city, Mississippi", "lat": 30.41949, "lng": -89.06902, "population": 72926}, {"name": "Southaven city, Mississippi", "lat": 34.95101, "lng": -89.97767, "population": 54648}, {"name": "Biloxi city, Mississippi", "lat": 30.42666, "lng": -88.93576, "population": 49449}, {"name": "Hattiesburg city, Mississippi", "lat": 31.3073, "lng": -89.31743, "population": 48730}, {"name": "Olive Branch city, Mississippi", "lat": 34.95575, "lng": -89.84115, "population": 39711}, {"name": "Tupelo city, Mississippi", "lat": 34.2706, "lng": -88.73246, "population": 37923}, {"name": "Meridian city, Mississippi", "lat": 32.38417, "lng": -88.68945, "population": 35052}, {"name": "Greenville city, Mississippi", "lat": 33.38346, "lng": -91.05231, "population": 29670}, {"name": "Clinton city, Mississippi", "lat": 32.35444, "lng": -90.34189, "population": 28100}, {"name": "Madison city, Mississippi", "lat": 32.47388, "lng": -90.13087, "population": 27747}, {"name": "Pearl city, Mississippi", "lat": 32.27246, "lng": -90.09183, "population": 27115}, {"name": "Horn Lake city, Mississippi", "lat": 34.95208, "lng": -90.04921, "population": 26736}, {"name": "Oxford city, Mississippi", "lat": 34.35126, "lng": -89.53698, "population": 25416}, {"name": "Brandon city, Mississippi", "lat": 32.27809, "lng": -89.99069, "population": 25138}, {"name": "Starkville city, Mississippi", "lat": 33.45881, "lng": -88.83269, "population": 24360}, {"name": "Ridgeland city, Mississippi", "lat": 32.41977, "lng": -90.14848, "population": 24340}, {"name": "Columbus city, Mississippi", "lat": 33.50821, "lng": -88.40713, "population": 24084}, {"name": "Pascagoula city, Mississippi", "lat": 30.36007, "lng": -88.55633, "population": 22010}, {"name": "Vicksburg city, Mississippi", "lat": 32.322, "lng": -90.88156, "population": 21573}, {"name": "Gautier city, Mississippi", "lat": 30.40621, "lng": -88.65934, "population": 19024}, {"name": "Ocean Springs city, Mississippi", "lat": 30.4027, "lng": -88.78865, "population": 18429}, {"name": "Laurel city, Mississippi", "lat": 31.69508, "lng": -89.14495, "population": 17161}, {"name": "Hernando city, Mississippi", "lat": 34.84959, "lng": -89.9924, "population": 17138}, {"name": "Long Beach city, Mississippi", "lat": 30.35447, "lng": -89.16268, "population": 16780}, {"name": "Clarksdale city, Mississippi", "lat": 34.1938, "lng": -90.5686, "population": 14903}, {"name": "Corinth city, Mississippi", "lat": 34.94835, "lng": -88.51362, "population": 14622}, {"name": "Natchez city, Mississippi", "lat": 31.54244, "lng": -91.38565, "population": 14520}, {"name": "Greenwood city, Mississippi", "lat": 33.51246, "lng": -90.19896, "population": 14490}, {"name": "D'Iberville city, Mississippi", "lat": 30.44352, "lng": -88.89536, "population": 12721}, {"name": "Grenada city, Mississippi", "lat": 33.78144, "lng": -89.81155, "population": 12700}, {"name": "Byram city, Mississippi", "lat": 32.1903, "lng": -90.28602, "population": 12666}, {"name": "McComb city, Mississippi", "lat": 31.24447, "lng": -90.47159, "population": 12413}, {"name": "Moss Point city, Mississippi", "lat": 30.42591, "lng": -88.53273, "population": 12147}, {"name": "Picayune city, Mississippi", "lat": 30.53082, "lng": -89.67063, "population": 11885}, {"name": "Brookhaven city, Mississippi", "lat": 31.58057, "lng": -90.44339, "population": 11674}, {"name": "Cleveland city, Mississippi", "lat": 33.74401, "lng": -90.72848, "population": 11199}, {"name": "Petal city, Mississippi", "lat": 31.34817, "lng": -89.23513, "population": 11010}, {"name": "Canton city, Mississippi", "lat": 32.59842, "lng": -90.03219, "population": 10948}, {"name": "Yazoo City city, Mississippi", "lat": 32.86222, "lng": -90.408, "population": 10316}, {"name": "Flowood city, Mississippi", "lat": 32.3361, "lng": -90.07287, "population": 10202}, {"name": "West Point city, Mississippi", "lat": 33.60624, "lng": -88.65757, "population": 10105}, {"name": "Indianola city, Mississippi", "lat": 33.44896, "lng": -90.64379, "population": 9646}, {"name": "Diamondhead city, Mississippi", "lat": 30.38207, "lng": -89.35022, "population": 9529}, {"name": "Bay St. Louis city, Mississippi", "lat": 30.32345, "lng": -89.35879, "population": 9284}, {"name": "Booneville city, Mississippi", "lat": 34.66442, "lng": -88.56799, "population": 9126}, {"name": "Gulf Hills CDP, Mississippi", "lat": 30.42893, "lng": -88.81207, "population": 8526}, {"name": "Senatobia city, Mississippi", "lat": 34.60865, "lng": -89.98099, "population": 8354}, {"name": "St. Martin CDP, Mississippi", "lat": 30.43805, "lng": -88.86174, "population": 7811}, {"name": "New Albany city, Mississippi", "lat": 34.49229, "lng": -89.02172, "population": 7626}, {"name": "Batesville city, Mississippi", "lat": 34.32098, "lng": -89.92488, "population": 7523}, {"name": "Waveland city, Mississippi", "lat": 30.29541, "lng": -89.3937, "population": 7210}, {"name": "Richland city, Mississippi", "lat": 32.23041, "lng": -90.15962, "population": 7137}, {"name": "Philadelphia city, Mississippi", "lat": 32.77511, "lng": -89.12204, "population": 7118}, {"name": "Kosciusko city, Mississippi", "lat": 33.05817, "lng": -89.58936, "population": 7114}, {"name": "Holly Springs city, Mississippi", "lat": 34.77802, "lng": -89.44582, "population": 6968}, {"name": "Latimer CDP, Mississippi", "lat": 30.48729, "lng": -88.84853, "population": 6720}, {"name": "Amory city, Mississippi", "lat": 33.98185, "lng": -88.48261, "population": 6666}, {"name": "Louisville city, Mississippi", "lat": 33.12293, "lng": -89.05488, "population": 6072}, {"name": "West Hattiesburg CDP, Mississippi", "lat": 31.30996, "lng": -89.37715, "population": 6006}, {"name": "Gulf Park Estates CDP, Mississippi", "lat": 30.37933, "lng": -88.7579, "population": 5972}, {"name": "Columbia city, Mississippi", "lat": 31.25691, "lng": -89.82544, "population": 5864}, {"name": "Pass Christian city, Mississippi", "lat": 30.31803, "lng": -89.23908, "population": 5686}, {"name": "Pontotoc city, Mississippi", "lat": 34.25088, "lng": -89.00835, "population": 5640}, {"name": "Vancleave CDP, Mississippi", "lat": 30.54592, "lng": -88.67341, "population": 5592}, {"name": "Ripley city, Mississippi", "lat": 34.73244, "lng": -88.94353, "population": 5462}, {"name": "Forest city, Mississippi", "lat": 32.35984, "lng": -89.47591, "population": 5430}, {"name": "Mississippi State CDP, Mississippi", "lat": 33.45161, "lng": -88.791, "population": 4968}, {"name": "Aberdeen city, Mississippi", "lat": 33.8283, "lng": -88.55474, "population": 4961}, {"name": "Saltillo city, Mississippi", "lat": 34.37846, "lng": -88.69364, "population": 4922}, {"name": "Carthage city, Mississippi", "lat": 32.74423, "lng": -89.53345, "population": 4901}, {"name": "Crystal Springs city, Mississippi", "lat": 31.98995, "lng": -90.35533, "population": 4862}, {"name": "University CDP, Mississippi", "lat": 34.36553, "lng": -89.53787, "population": 4696}, {"name": "Ellisville city, Mississippi", "lat": 31.59728, "lng": -89.21027, "population": 4652}, {"name": "Florence city, Mississippi", "lat": 32.15561, "lng": -90.12245, "population": 4572}, {"name": "Waynesboro city, Mississippi", "lat": 31.67756, "lng": -88.63384, "population": 4567}, {"name": "Fulton city, Mississippi", "lat": 34.26288, "lng": -88.40193, "population": 4542}, {"name": "Winona city, Mississippi", "lat": 33.49026, "lng": -89.72929, "population": 4505}, {"name": "Wiggins city, Mississippi", "lat": 30.85605, "lng": -89.13898, "population": 4272}, {"name": "Leland city, Mississippi", "lat": 33.40483, "lng": -90.89092, "population": 3988}, {"name": "Magee city, Mississippi", "lat": 31.87301, "lng": -89.734, "population": 3988}, {"name": "Pearl River CDP, Mississippi", "lat": 32.79688, "lng": -89.2409, "population": 3822}, {"name": "Houston city, Mississippi", "lat": 33.89619, "lng": -89.00349, "population": 3797}, {"name": "Leakesville town, Mississippi", "lat": 31.1492, "lng": -88.55585, "population": 3775}, {"name": "Morton city, Mississippi", "lat": 32.34553, "lng": -89.65914, "population": 3711}, {"name": "Hazlehurst city, Mississippi", "lat": 31.86386, "lng": -90.39279, "population": 3619}, {"name": "Beechwood CDP, Mississippi", "lat": 32.33672, "lng": -90.80869, "population": 3469}, {"name": "Water Valley city, Mississippi", "lat": 34.16199, "lng": -89.63012, "population": 3380}, {"name": "Escatawpa CDP, Mississippi", "lat": 30.49062, "lng": -88.54407, "population": 3254}, {"name": "Gluckstadt CDP, Mississippi", "lat": 32.53703, "lng": -90.10519, "population": 3208}, {"name": "Newton city, Mississippi", "lat": 32.33011, "lng": -89.14753, "population": 3195}, {"name": "New Hope CDP, Mississippi", "lat": 33.45726, "lng": -88.34318, "population": 3161}, {"name": "Iuka city, Mississippi", "lat": 34.80738, "lng": -88.19692, "population": 3139}, {"name": "Baldwyn city, Mississippi", "lat": 34.50549, "lng": -88.64279, "population": 3071}, {"name": "Lucedale city, Mississippi", "lat": 30.93121, "lng": -88.5959, "population": 2869}, {"name": "Nicholson CDP, Mississippi", "lat": 30.48737, "lng": -89.69807, "population": 2833}, {"name": "Poplarville city, Mississippi", "lat": 30.8397, "lng": -89.53009, "population": 2833}, {"name": "Verona city, Mississippi", "lat": 34.18969, "lng": -88.7205, "population": 2792}, {"name": "Ruleville city, Mississippi", "lat": 33.72491, "lng": -90.55032, "population": 2642}, {"name": "Macon city, Mississippi", "lat": 33.12206, "lng": -88.55671, "population": 2582}, {"name": "Okolona city, Mississippi", "lat": 34.00506, "lng": -88.74769, "population": 2513}, {"name": "Tutwiler town, Mississippi", "lat": 34.01718, "lng": -90.43334, "population": 2476}, {"name": "Lynchburg CDP, Mississippi", "lat": 34.96197, "lng": -90.10708, "population": 2466}, {"name": "Guntown town, Mississippi", "lat": 34.4451, "lng": -88.6638, "population": 2410}, {"name": "Lyman CDP, Mississippi", "lat": 30.50789, "lng": -89.13046, "population": 2372}, {"name": "Collins city, Mississippi", "lat": 31.64827, "lng": -89.56758, "population": 2342}, {"name": "Arnold Line CDP, Mississippi", "lat": 31.33717, "lng": -89.37719, "population": 2333}, {"name": "Hollandale city, Mississippi", "lat": 33.1761, "lng": -90.8529, "population": 2323}, {"name": "Bridgetown CDP, Mississippi", "lat": 34.88973, "lng": -89.90482, "population": 2281}, {"name": "Durant city, Mississippi", "lat": 33.08195, "lng": -89.85734, "population": 2231}, {"name": "Kiln CDP, Mississippi", "lat": 30.41844, "lng": -89.42978, "population": 2224}, {"name": "Mendenhall city, Mississippi", "lat": 31.9607, "lng": -89.86948, "population": 2199}, {"name": "Tunica Resorts CDP, Mississippi", "lat": 34.82419, "lng": -90.32119, "population": 2132}, {"name": "Hide-A-Way Lake CDP, Mississippi", "lat": 30.57865, "lng": -89.63857, "population": 2065}, {"name": "Quitman city, Mississippi", "lat": 32.04152, "lng": -88.72052, "population": 2061}, {"name": "Farmington town, Mississippi", "lat": 34.92256, "lng": -88.44613, "population": 2055}, {"name": "Union town, Mississippi", "lat": 32.57113, "lng": -89.1152, "population": 2042}, {"name": "Shelby city, Mississippi", "lat": 33.95053, "lng": -90.76509, "population": 2021}, {"name": "Eupora city, Mississippi", "lat": 33.54508, "lng": -89.27405, "population": 2018}, {"name": "Collinsville CDP, Mississippi", "lat": 32.48732, "lng": -88.84431, "population": 1984}, {"name": "Raymond city, Mississippi", "lat": 32.26097, "lng": -90.40902, "population": 1960}, {"name": "Decatur town, Mississippi", "lat": 32.43397, "lng": -89.11123, "population": 1945}, {"name": "Belzoni city, Mississippi", "lat": 33.1805, "lng": -90.48629, "population": 1938}, {"name": "Moorhead city, Mississippi", "lat": 33.44942, "lng": -90.50627, "population": 1937}, {"name": "Nettleton city, Mississippi", "lat": 34.08307, "lng": -88.6263, "population": 1935}, {"name": "Purvis city, Mississippi", "lat": 31.14637, "lng": -89.40628, "population": 1909}, {"name": "Charleston city, Mississippi", "lat": 34.00765, "lng": -90.05517, "population": 1884}, {"name": "Magnolia city, Mississippi", "lat": 31.16116, "lng": -90.46953, "population": 1883}, {"name": "Rolling Fork city, Mississippi", "lat": 32.9073, "lng": -90.87691, "population": 1883}, {"name": "Pleasant Hill CDP, Mississippi", "lat": 34.92434, "lng": -89.90447, "population": 1863}, {"name": "Belmont town, Mississippi", "lat": 34.50503, "lng": -88.20831, "population": 1859}, {"name": "Drew city, Mississippi", "lat": 33.81009, "lng": -90.53038, "population": 1852}, {"name": "Wesson town, Mississippi", "lat": 31.69993, "lng": -90.39504, "population": 1833}, {"name": "Sumrall town, Mississippi", "lat": 31.41703, "lng": -89.54178, "population": 1765}, {"name": "Oak Grove CDP, Mississippi", "lat": 31.28674, "lng": -89.41449, "population": 1758}, {"name": "Marion town, Mississippi", "lat": 32.43023, "lng": -88.65181, "population": 1751}, {"name": "Sardis town, Mississippi", "lat": 34.4355, "lng": -89.91136, "population": 1748}, {"name": "Bruce town, Mississippi", "lat": 33.99091, "lng": -89.34546, "population": 1707}, {"name": "Cleary CDP, Mississippi", "lat": 32.15766, "lng": -90.19645, "population": 1688}, {"name": "Glendale CDP, Mississippi", "lat": 31.36802, "lng": -89.30863, "population": 1681}, {"name": "Itta Bena city, Mississippi", "lat": 33.50087, "lng": -90.32429, "population": 1679}, {"name": "Bay Springs city, Mississippi", "lat": 31.978, "lng": -89.27961, "population": 1670}, {"name": "Tchula town, Mississippi", "lat": 33.18318, "lng": -90.22285, "population": 1652}, {"name": "Flora town, Mississippi", "lat": 32.54273, "lng": -90.3137, "population": 1647}, {"name": "Lumberton city, Mississippi", "lat": 31.00587, "lng": -89.45901, "population": 1617}, {"name": "Columbus AFB CDP, Mississippi", "lat": 33.6276, "lng": -88.44544, "population": 1604}, {"name": "Lexington city, Mississippi", "lat": 33.11709, "lng": -90.04962, "population": 1602}, {"name": "Ackerman town, Mississippi", "lat": 33.31065, "lng": -89.17025, "population": 1594}, {"name": "Rosedale city, Mississippi", "lat": 33.86022, "lng": -91.04353, "population": 1584}, {"name": "Hurley CDP, Mississippi", "lat": 30.66271, "lng": -88.49869, "population": 1557}, {"name": "Mound Bayou city, Mississippi", "lat": 33.88072, "lng": -90.72787, "population": 1534}, {"name": "Calhoun City town, Mississippi", "lat": 33.85935, "lng": -89.31462, "population": 1533}, {"name": "Tylertown town, Mississippi", "lat": 31.1172, "lng": -90.14485, "population": 1515}, {"name": "Summit town, Mississippi", "lat": 31.28082, "lng": -90.46698, "population": 1505}, {"name": "Shannon town, Mississippi", "lat": 34.11442, "lng": -88.69313, "population": 1496}, {"name": "Robinhood CDP, Mississippi", "lat": 32.2004, "lng": -89.96733, "population": 1491}, {"name": "Shaw city, Mississippi", "lat": 33.60149, "lng": -90.77199, "population": 1457}, {"name": "Fayette city, Mississippi", "lat": 31.71221, "lng": -91.06206, "population": 1445}, {"name": "Marks city, Mississippi", "lat": 34.25352, "lng": -90.27222, "population": 1444}, {"name": "Monticello town, Mississippi", "lat": 31.55324, "lng": -90.11867, "population": 1441}, {"name": "Coldwater town, Mississippi", "lat": 34.69038, "lng": -89.97552, "population": 1381}, {"name": "Conehatta CDP, Mississippi", "lat": 32.46661, "lng": -89.26693, "population": 1376}, {"name": "Walls town, Mississippi", "lat": 34.92586, "lng": -90.16774, "population": 1351}, {"name": "Sharon CDP, Mississippi", "lat": 31.79547, "lng": -89.09294, "population": 1344}, {"name": "Byhalia town, Mississippi", "lat": 34.86919, "lng": -89.68999, "population": 1339}, {"name": "Morgantown CDP, Mississippi", "lat": 31.57502, "lng": -91.3521, "population": 1334}, {"name": "Nellieburg CDP, Mississippi", "lat": 32.39697, "lng": -88.78003, "population": 1316}, {"name": "Terry town, Mississippi", "lat": 32.10606, "lng": -90.2926, "population": 1304}, {"name": "DeLisle CDP, Mississippi", "lat": 30.38236, "lng": -89.27569, "population": 1275}, {"name": "Lambert town, Mississippi", "lat": 34.2006, "lng": -90.28453, "population": 1273}, {"name": "Pelahatchie town, Mississippi", "lat": 32.3209, "lng": -89.80795, "population": 1272}, {"name": "Port Gibson city, Mississippi", "lat": 31.95582, "lng": -90.98344, "population": 1269}, {"name": "Centreville town, Mississippi", "lat": 31.08702, "lng": -91.06544, "population": 1258}, {"name": "Goodman town, Mississippi", "lat": 32.96821, "lng": -89.91273, "population": 1258}, {"name": "Rawls Springs CDP, Mississippi", "lat": 31.3834, "lng": -89.38653, "population": 1202}, {"name": "Pearlington CDP, Mississippi", "lat": 30.25083, "lng": -89.6048, "population": 1153}, {"name": "Taylorsville town, Mississippi", "lat": 31.83217, "lng": -89.43397, "population": 1148}, {"name": "Caledonia town, Mississippi", "lat": 33.68361, "lng": -88.32602, "population": 1135}, {"name": "Mantachie town, Mississippi", "lat": 34.32134, "lng": -88.50257, "population": 1121}, {"name": "Alcorn State University CDP, Mississippi", "lat": 31.87917, "lng": -91.14064, "population": 1120}, {"name": "Como town, Mississippi", "lat": 34.51356, "lng": -89.93995, "population": 1118}, {"name": "Vardaman town, Mississippi", "lat": 33.8822, "lng": -89.1778, "population": 1110}, {"name": "Raleigh town, Mississippi", "lat": 32.03466, "lng": -89.5257, "population": 1094}, {"name": "Saucier CDP, Mississippi", "lat": 30.62087, "lng": -89.14227, "population": 1077}, {"name": "Hillsboro CDP, Mississippi", "lat": 32.4507, "lng": -89.48647, "population": 1072}, {"name": "Victoria CDP, Mississippi", "lat": 34.83899, "lng": -89.61542, "population": 1066}, {"name": "Kearney Park CDP, Mississippi", "lat": 32.59004, "lng": -90.3164, "population": 1048}, {"name": "Tunica town, Mississippi", "lat": 34.68814, "lng": -90.38094, "population": 1026}, {"name": "Wade CDP, Mississippi", "lat": 30.62968, "lng": -88.55584, "population": 996}, {"name": "Edwards town, Mississippi", "lat": 32.33261, "lng": -90.60556, "population": 995}, {"name": "Helena CDP, Mississippi", "lat": 30.48808, "lng": -88.50557, "population": 983}, {"name": "Prentiss town, Mississippi", "lat": 31.59946, "lng": -89.87465, "population": 976}, {"name": "Sunflower town, Mississippi", "lat": 33.5443, "lng": -90.53729, "population": 964}, {"name": "Jonestown town, Mississippi", "lat": 34.32215, "lng": -90.45427, "population": 962}, {"name": "Derma town, Mississippi", "lat": 33.85887, "lng": -89.28776, "population": 957}, {"name": "Blue Mountain town, Mississippi", "lat": 34.67388, "lng": -89.02618, "population": 948}, {"name": "Woodville town, Mississippi", "lat": 31.10289, "lng": -91.29926, "population": 928}, {"name": "Pickens town, Mississippi", "lat": 32.89132, "lng": -89.96877, "population": 920}, {"name": "Richton town, Mississippi", "lat": 31.34948, "lng": -88.94074, "population": 920}, {"name": "Brooksville town, Mississippi", "lat": 33.2367, "lng": -88.57814, "population": 915}, {"name": "Vaiden town, Mississippi", "lat": 33.33252, "lng": -89.7526, "population": 907}, {"name": "Ecru town, Mississippi", "lat": 34.3543, "lng": -89.02313, "population": 901}, {"name": "Gloster town, Mississippi", "lat": 31.19507, "lng": -91.01768, "population": 897}, {"name": "Friars Point town, Mississippi", "lat": 34.36658, "lng": -90.63705, "population": 896}, {"name": "Mount Olive town, Mississippi", "lat": 31.75381, "lng": -89.65595, "population": 895}, {"name": "Elliott CDP, Mississippi", "lat": 33.69125, "lng": -89.75245, "population": 880}, {"name": "Stonewall town, Mississippi", "lat": 32.13498, "lng": -88.79741, "population": 879}, {"name": "De Kalb town, Mississippi", "lat": 32.7731, "lng": -88.6561, "population": 877}, {"name": "Burnsville town, Mississippi", "lat": 34.83203, "lng": -88.3187, "population": 868}, {"name": "Inverness town, Mississippi", "lat": 33.35423, "lng": -90.59119, "population": 868}, {"name": "Plantersville town, Mississippi", "lat": 34.20817, "lng": -88.66544, "population": 868}, {"name": "Bogue Chitto CDP (Kemper and Neshoba Counties), Mississippi", "lat": 32.83234, "lng": -88.91843, "population": 864}, {"name": "Mooreville CDP, Mississippi", "lat": 34.2649, "lng": -88.57687, "population": 859}, {"name": "Mathiston town, Mississippi", "lat": 33.53888, "lng": -89.12589, "population": 831}, {"name": "Metcalfe town, Mississippi", "lat": 33.45059, "lng": -91.00183, "population": 816}, {"name": "Mississippi Valley State University CDP, Mississippi", "lat": 33.51728, "lng": -90.34444, "population": 805}, {"name": "Coffeeville town, Mississippi", "lat": 33.97649, "lng": -89.68448, "population": 797}, {"name": "Bude town, Mississippi", "lat": 31.46245, "lng": -90.85228, "population": 780}, {"name": "Toomsuba CDP, Mississippi", "lat": 32.43028, "lng": -88.50709, "population": 778}, {"name": "Maben town, Mississippi", "lat": 33.55417, "lng": -89.08104, "population": 771}, {"name": "North Tunica CDP, Mississippi", "lat": 34.70306, "lng": -90.37972, "population": 760}, {"name": "Scooba town, Mississippi", "lat": 32.83018, "lng": -88.47712, "population": 744}, {"name": "Algoma town, Mississippi", "lat": 34.17954, "lng": -89.03807, "population": 705}, {"name": "Walnut town, Mississippi", "lat": 34.94967, "lng": -88.92445, "population": 704}, {"name": "New Houlka town, Mississippi", "lat": 34.03625, "lng": -89.02108, "population": 698}, {"name": "Hermanville CDP, Mississippi", "lat": 31.95784, "lng": -90.84036, "population": 692}, {"name": "Thaxton town, Mississippi", "lat": 34.30291, "lng": -89.17174, "population": 692}, {"name": "Redwater CDP, Mississippi", "lat": 32.79279, "lng": -89.55336, "population": 683}, {"name": "Renova town, Mississippi", "lat": 33.78048, "lng": -90.7232, "population": 676}, {"name": "Beaumont town, Mississippi", "lat": 31.16754, "lng": -88.92836, "population": 669}, {"name": "Tucker CDP, Mississippi", "lat": 32.70778, "lng": -89.04907, "population": 642}, {"name": "Kilmichael town, Mississippi", "lat": 33.44048, "lng": -89.56033, "population": 639}, {"name": "Crenshaw town, Mississippi", "lat": 34.50466, "lng": -90.19464, "population": 638}, {"name": "Isola town, Mississippi", "lat": 33.2634, "lng": -90.59234, "population": 638}, {"name": "Heidelberg town, Mississippi", "lat": 31.89051, "lng": -88.99022, "population": 637}, {"name": "Sandersville town, Mississippi", "lat": 31.78402, "lng": -89.03976, "population": 636}, {"name": "Utica town, Mississippi", "lat": 32.10725, "lng": -90.62223, "population": 636}, {"name": "Duck Hill town, Mississippi", "lat": 33.63165, "lng": -89.7154, "population": 619}, {"name": "Big Point CDP, Mississippi", "lat": 30.59056, "lng": -88.48456, "population": 618}, {"name": "Sherman town, Mississippi", "lat": 34.36117, "lng": -88.83874, "population": 600}, {"name": "White Oak CDP, Mississippi", "lat": 34.64387, "lng": -90.34943, "population": 595}, {"name": "Polkville town, Mississippi", "lat": 32.19094, "lng": -89.69598, "population": 588}, {"name": "Meridian Station CDP, Mississippi", "lat": 32.54865, "lng": -88.60741, "population": 581}, {"name": "Crowder town, Mississippi", "lat": 34.17291, "lng": -90.13769, "population": 573}, {"name": "Holcomb CDP, Mississippi", "lat": 33.76421, "lng": -89.97318, "population": 568}, {"name": "Liberty town, Mississippi", "lat": 31.1619, "lng": -90.79833, "population": 560}, {"name": "Cloverdale CDP, Mississippi", "lat": 31.49593, "lng": -91.41519, "population": 557}, {"name": "New Augusta town, Mississippi", "lat": 31.20338, "lng": -89.02934, "population": 554}, {"name": "Ashland town, Mississippi", "lat": 34.83412, "lng": -89.17774, "population": 551}, {"name": "New Hamilton CDP, Mississippi", "lat": 33.74715, "lng": -88.44284, "population": 533}, {"name": "Boyle town, Mississippi", "lat": 33.70647, "lng": -90.72487, "population": 532}, {"name": "Foxworth CDP, Mississippi", "lat": 31.23855, "lng": -89.88283, "population": 523}, {"name": "Standing Pine CDP, Mississippi", "lat": 32.67103, "lng": -89.45209, "population": 517}, {"name": "Bovina CDP, Mississippi", "lat": 32.34996, "lng": -90.73793, "population": 516}, {"name": "Walnut Grove town, Mississippi", "lat": 32.59317, "lng": -89.45783, "population": 510}, {"name": "Smithville town, Mississippi", "lat": 34.06796, "lng": -88.39815, "population": 509}, {"name": "Bond CDP, Mississippi", "lat": 30.90196, "lng": -89.16565, "population": 506}, {"name": "Enterprise town, Mississippi", "lat": 32.17254, "lng": -88.81582, "population": 496}, {"name": "Hickory Flat town, Mississippi", "lat": 34.61593, "lng": -89.19139, "population": 496}, {"name": "Anguilla town, Mississippi", "lat": 32.97187, "lng": -90.82826, "population": 496}, {"name": "Hatley town, Mississippi", "lat": 33.97732, "lng": -88.41839, "population": 495}, {"name": "Myrtle town, Mississippi", "lat": 34.56052, "lng": -89.11786, "population": 484}, {"name": "Lake town, Mississippi", "lat": 32.32999, "lng": -89.31435, "population": 475}, {"name": "Dumas town, Mississippi", "lat": 34.63802, "lng": -88.84309, "population": 471}, {"name": "Courtland town, Mississippi", "lat": 34.24108, "lng": -89.94328, "population": 470}, {"name": "Roxie town, Mississippi", "lat": 31.50768, "lng": -91.07104, "population": 469}, {"name": "Tremont town, Mississippi", "lat": 34.23373, "lng": -88.24894, "population": 467}, {"name": "Oakland town, Mississippi", "lat": 34.05758, "lng": -89.91322, "population": 462}, {"name": "State Line town, Mississippi", "lat": 31.4361, "lng": -88.47348, "population": 452}, {"name": "Meadville town, Mississippi", "lat": 31.47201, "lng": -90.89309, "population": 448}, {"name": "Weir town, Mississippi", "lat": 33.26133, "lng": -89.29533, "population": 441}, {"name": "Bolton town, Mississippi", "lat": 32.35461, "lng": -90.45858, "population": 441}, {"name": "Falkner town, Mississippi", "lat": 34.83935, "lng": -88.94841, "population": 437}, {"name": "Bogue Chitto CDP (Lincoln County), Mississippi", "lat": 31.42942, "lng": -90.46188, "population": 437}, {"name": "Blue Springs village, Mississippi", "lat": 34.39278, "lng": -88.88327, "population": 436}, {"name": "Mayersville town, Mississippi", "lat": 32.89641, "lng": -91.04668, "population": 433}, {"name": "Jumpertown town, Mississippi", "lat": 34.70614, "lng": -88.66755, "population": 425}, {"name": "Carrollton town, Mississippi", "lat": 33.50565, "lng": -89.92181, "population": 423}, {"name": "Soso town, Mississippi", "lat": 31.75028, "lng": -89.27687, "population": 418}, {"name": "Potts Camp town, Mississippi", "lat": 34.64919, "lng": -89.30642, "population": 416}, {"name": "Webb town, Mississippi", "lat": 33.94775, "lng": -90.34633, "population": 416}, {"name": "Crawford town, Mississippi", "lat": 33.30232, "lng": -88.62527, "population": 415}, {"name": "Benton CDP, Mississippi", "lat": 32.82156, "lng": -90.2617, "population": 415}, {"name": "Hickory town, Mississippi", "lat": 32.3167, "lng": -89.02174, "population": 408}, {"name": "Shubuta town, Mississippi", "lat": 31.86204, "lng": -88.70205, "population": 406}, {"name": "North Carrollton town, Mississippi", "lat": 33.51863, "lng": -89.9194, "population": 405}, {"name": "Hamilton CDP, Mississippi", "lat": 33.74658, "lng": -88.40758, "population": 404}, {"name": "Shuqualak town, Mississippi", "lat": 32.97928, "lng": -88.5693, "population": 399}, {"name": "Lauderdale CDP, Mississippi", "lat": 32.51039, "lng": -88.52637, "population": 395}, {"name": "Noxapater town, Mississippi", "lat": 32.99358, "lng": -89.06353, "population": 390}, {"name": "Clara CDP, Mississippi", "lat": 31.58313, "lng": -88.69161, "population": 386}, {"name": "Eudora CDP, Mississippi", "lat": 34.83103, "lng": -90.14883, "population": 386}, {"name": "New Hebron town, Mississippi", "lat": 31.73322, "lng": -89.98333, "population": 386}, {"name": "Buckatunna CDP, Mississippi", "lat": 31.5532, "lng": -88.53428, "population": 383}, {"name": "Glen town, Mississippi", "lat": 34.85822, "lng": -88.41757, "population": 382}, {"name": "Osyka town, Mississippi", "lat": 31.00732, "lng": -90.47113, "population": 381}, {"name": "Merigold town, Mississippi", "lat": 33.83914, "lng": -90.72639, "population": 379}, {"name": "D'Lo town, Mississippi", "lat": 31.98695, "lng": -89.90113, "population": 373}, {"name": "Abbeville town, Mississippi", "lat": 34.50339, "lng": -89.50252, "population": 372}, {"name": "Tishomingo town, Mississippi", "lat": 34.63828, "lng": -88.22914, "population": 370}, {"name": "Sledge town, Mississippi", "lat": 34.43263, "lng": -90.22118, "population": 368}, {"name": "Benoit town, Mississippi", "lat": 33.6516, "lng": -91.00874, "population": 365}, {"name": "Taylor village, Mississippi", "lat": 34.26974, "lng": -89.58369, "population": 355}, {"name": "Ethel town, Mississippi", "lat": 33.12209, "lng": -89.46502, "population": 348}, {"name": "Agricola CDP, Mississippi", "lat": 30.8138, "lng": -88.52492, "population": 346}, {"name": "Puckett village, Mississippi", "lat": 32.08683, "lng": -89.78169, "population": 342}, {"name": "Runnelstown CDP, Mississippi", "lat": 31.37785, "lng": -89.11427, "population": 320}, {"name": "Bentonia town, Mississippi", "lat": 32.6436, "lng": -90.36919, "population": 319}, {"name": "Bethlehem CDP, Mississippi", "lat": 34.57732, "lng": -89.32887, "population": 319}, {"name": "Mize town, Mississippi", "lat": 31.86642, "lng": -89.55416, "population": 317}, {"name": "McLain town, Mississippi", "lat": 31.10384, "lng": -88.82415, "population": 313}, {"name": "Sidon town, Mississippi", "lat": 33.40793, "lng": -90.20808, "population": 311}, {"name": "Kirkville CDP, Mississippi", "lat": 34.44201, "lng": -88.48546, "population": 308}, {"name": "Snow Lake Shores town, Mississippi", "lat": 34.82125, "lng": -89.23813, "population": 306}, {"name": "Seminary town, Mississippi", "lat": 31.5577, "lng": -89.49931, "population": 305}, {"name": "Moselle CDP, Mississippi", "lat": 31.50867, "lng": -89.28241, "population": 304}, {"name": "Arcola town, Mississippi", "lat": 33.27054, "lng": -90.88, "population": 304}, {"name": "Artesia town, Mississippi", "lat": 33.41671, "lng": -88.6423, "population": 304}, {"name": "Lakeview CDP, Mississippi", "lat": 34.98798, "lng": -90.13651, "population": 299}, {"name": "Glen Allan CDP, Mississippi", "lat": 33.02214, "lng": -91.01381, "population": 298}, {"name": "Eagle Bend CDP, Mississippi", "lat": 32.52751, "lng": -91.02466, "population": 296}, {"name": "Lyon town, Mississippi", "lat": 34.21693, "lng": -90.54319, "population": 296}, {"name": "Gunnison town, Mississippi", "lat": 33.94311, "lng": -90.94664, "population": 295}, {"name": "Longview CDP, Mississippi", "lat": 33.40113, "lng": -88.93402, "population": 295}, {"name": "Mount Pleasant CDP, Mississippi", "lat": 34.95398, "lng": -89.5256, "population": 293}, {"name": "Beauregard village, Mississippi", "lat": 31.71779, "lng": -90.38869, "population": 289}, {"name": "Fernwood CDP, Mississippi", "lat": 31.18612, "lng": -90.45707, "population": 286}, {"name": "Toccopola town, Mississippi", "lat": 34.25525, "lng": -89.22131, "population": 286}, {"name": "Arkabutla CDP, Mississippi", "lat": 34.70023, "lng": -90.12157, "population": 285}, {"name": "Strayhorn CDP, Mississippi", "lat": 34.6159, "lng": -90.15257, "population": 284}, {"name": "Rienzi town, Mississippi", "lat": 34.76332, "lng": -88.53397, "population": 281}, {"name": "Sumner town, Mississippi", "lat": 33.96932, "lng": -90.36928, "population": 278}, {"name": "Duncan town, Mississippi", "lat": 34.04181, "lng": -90.7459, "population": 276}, {"name": "Louin town, Mississippi", "lat": 32.0752, "lng": -89.27318, "population": 275}, {"name": "De Soto CDP, Mississippi", "lat": 31.96685, "lng": -88.72394, "population": 274}, {"name": "Wheeler CDP, Mississippi", "lat": 34.58366, "lng": -88.60248, "population": 274}, {"name": "Chunky town, Mississippi", "lat": 32.32749, "lng": -88.93017, "population": 272}, {"name": "Cruger town, Mississippi", "lat": 33.323, "lng": -90.23552, "population": 268}, {"name": "Pope village, Mississippi", "lat": 34.21578, "lng": -89.94479, "population": 268}, {"name": "Baxterville CDP, Mississippi", "lat": 31.09147, "lng": -89.5867, "population": 267}, {"name": "Sebastopol town, Mississippi", "lat": 32.56793, "lng": -89.33399, "population": 266}, {"name": "French Camp town, Mississippi", "lat": 33.29233, "lng": -89.39928, "population": 256}, {"name": "Georgetown town, Mississippi", "lat": 31.87006, "lng": -90.16478, "population": 252}, {"name": "Harperville CDP, Mississippi", "lat": 32.4928, "lng": -89.48787, "population": 250}, {"name": "Crosby town, Mississippi", "lat": 31.27436, "lng": -91.06151, "population": 242}, {"name": "Beulah town, Mississippi", "lat": 33.79047, "lng": -90.98014, "population": 242}, {"name": "Cary town, Mississippi", "lat": 32.80564, "lng": -90.92461, "population": 241}, {"name": "Mantee village, Mississippi", "lat": 33.7209, "lng": -89.0587, "population": 237}, {"name": "Schlater town, Mississippi", "lat": 33.63971, "lng": -90.34936, "population": 236}, {"name": "Henderson Point CDP, Mississippi", "lat": 30.31396, "lng": -89.28616, "population": 232}, {"name": "Coahoma town, Mississippi", "lat": 34.36629, "lng": -90.52202, "population": 229}, {"name": "Silver City town, Mississippi", "lat": 33.09369, "lng": -90.49902, "population": 223}, {"name": "Red Banks CDP, Mississippi", "lat": 34.83469, "lng": -89.56341, "population": 215}, {"name": "Skene CDP, Mississippi", "lat": 33.70399, "lng": -90.7974, "population": 210}, {"name": "Morgan City town, Mississippi", "lat": 33.37865, "lng": -90.34616, "population": 207}, {"name": "Pachuta town, Mississippi", "lat": 32.04411, "lng": -88.88439, "population": 207}, {"name": "Sturgis town, Mississippi", "lat": 33.34516, "lng": -89.04577, "population": 207}, {"name": "Biggersville CDP, Mississippi", "lat": 34.83673, "lng": -88.56393, "population": 205}, {"name": "Lula town, Mississippi", "lat": 34.45451, "lng": -90.47788, "population": 204}, {"name": "Farrell CDP, Mississippi", "lat": 34.26171, "lng": -90.67504, "population": 200}, {"name": "Independence CDP, Mississippi", "lat": 34.70778, "lng": -89.80752, "population": 200}, {"name": "Marietta town, Mississippi", "lat": 34.49997, "lng": -88.47258, "population": 198}, {"name": "Randolph CDP, Mississippi", "lat": 34.18133, "lng": -89.16163, "population": 197}, {"name": "Tula CDP, Mississippi", "lat": 34.23717, "lng": -89.36842, "population": 197}, {"name": "Golden town, Mississippi", "lat": 34.48664, "lng": -88.18632, "population": 192}, {"name": "Bassfield town, Mississippi", "lat": 31.49595, "lng": -89.74493, "population": 192}, {"name": "Eastabuchie CDP, Mississippi", "lat": 31.42938, "lng": -89.28982, "population": 187}, {"name": "Braxton village, Mississippi", "lat": 32.02639, "lng": -89.97153, "population": 186}, {"name": "Ovett CDP, Mississippi", "lat": 31.48858, "lng": -89.02527, "population": 183}, {"name": "Pace town, Mississippi", "lat": 33.79225, "lng": -90.85914, "population": 183}, {"name": "Louise town, Mississippi", "lat": 32.98143, "lng": -90.59043, "population": 178}, {"name": "Pattison CDP, Mississippi", "lat": 31.89082, "lng": -90.88392, "population": 176}, {"name": "Silver Creek town, Mississippi", "lat": 31.60479, "lng": -90.00232, "population": 175}, {"name": "Dennis CDP, Mississippi", "lat": 34.55895, "lng": -88.23031, "population": 172}, {"name": "Chalybeate CDP, Mississippi", "lat": 34.93268, "lng": -88.87055, "population": 170}, {"name": "Paris CDP, Mississippi", "lat": 34.17484, "lng": -89.45178, "population": 163}, {"name": "Kossuth village, Mississippi", "lat": 34.86937, "lng": -88.64326, "population": 160}, {"name": "Pheba CDP, Mississippi", "lat": 33.58366, "lng": -88.9494, "population": 160}, {"name": "Lena town, Mississippi", "lat": 32.59397, "lng": -89.59481, "population": 157}, {"name": "Pittsboro village, Mississippi", "lat": 33.94, "lng": -89.33729, "population": 157}, {"name": "Darling CDP, Mississippi", "lat": 34.35914, "lng": -90.27541, "population": 154}, {"name": "Glendora village, Mississippi", "lat": 33.82764, "lng": -90.2927, "population": 154}, {"name": "West town, Mississippi", "lat": 33.19777, "lng": -89.78211, "population": 153}, {"name": "Winstonville town, Mississippi", "lat": 33.91229, "lng": -90.75288, "population": 153}, {"name": "Kokomo CDP, Mississippi", "lat": 31.20304, "lng": -89.99713, "population": 150}, {"name": "Eden village, Mississippi", "lat": 32.98371, "lng": -90.32396, "population": 133}, {"name": "Big Creek village, Mississippi", "lat": 33.84639, "lng": -89.4159, "population": 133}, {"name": "Sallis town, Mississippi", "lat": 33.02155, "lng": -89.76474, "population": 131}, {"name": "Elizabeth CDP, Mississippi", "lat": 33.4271, "lng": -90.88072, "population": 127}, {"name": "Rena Lara CDP, Mississippi", "lat": 34.15877, "lng": -90.77487, "population": 123}, {"name": "New Site CDP, Mississippi", "lat": 34.55525, "lng": -88.41532, "population": 122}, {"name": "Bobo CDP, Mississippi", "lat": 34.13361, "lng": -90.67755, "population": 118}, {"name": "Falcon town, Mississippi", "lat": 34.39114, "lng": -90.25564, "population": 116}, {"name": "Walthall village, Mississippi", "lat": 33.60667, "lng": -89.27911, "population": 116}, {"name": "Alligator town, Mississippi", "lat": 34.0898, "lng": -90.72265, "population": 116}, {"name": "Panther Burn CDP, Mississippi", "lat": 33.06585, "lng": -90.87262, "population": 115}, {"name": "Waterford CDP, Mississippi", "lat": 34.64944, "lng": -89.45755, "population": 112}, {"name": "Woodland village, Mississippi", "lat": 33.77967, "lng": -89.05069, "population": 110}, {"name": "Slate Springs village, Mississippi", "lat": 33.74171, "lng": -89.37517, "population": 105}, {"name": "Montrose town, Mississippi", "lat": 32.12566, "lng": -89.23439, "population": 104}, {"name": "Paden village, Mississippi", "lat": 34.66028, "lng": -88.26051, "population": 104}, {"name": "McCool town, Mississippi", "lat": 33.19886, "lng": -89.34065, "population": 103}, {"name": "Stewart CDP, Mississippi", "lat": 33.45189, "lng": -89.43755, "population": 99}, {"name": "Winterville CDP, Mississippi", "lat": 33.50235, "lng": -91.06028, "population": 96}, {"name": "Tillatoba town, Mississippi", "lat": 33.98509, "lng": -89.89606, "population": 95}, {"name": "Van Vleet CDP, Mississippi", "lat": 33.98322, "lng": -88.89717, "population": 95}, {"name": "Scott CDP, Mississippi", "lat": 33.59447, "lng": -91.07602, "population": 90}, {"name": "Sylvarena village, Mississippi", "lat": 32.01438, "lng": -89.3818, "population": 87}, {"name": "Redwood CDP, Mississippi", "lat": 32.47347, "lng": -90.79685, "population": 84}, {"name": "Gattman village, Mississippi", "lat": 33.88485, "lng": -88.23657, "population": 77}, {"name": "Grace CDP, Mississippi", "lat": 32.99144, "lng": -90.95689, "population": 77}, {"name": "Dundee CDP, Mississippi", "lat": 34.53214, "lng": -90.44839, "population": 73}, {"name": "Symonds CDP, Mississippi", "lat": 33.83393, "lng": -90.88952, "population": 72}, {"name": "Valley Park CDP, Mississippi", "lat": 32.63136, "lng": -90.85067, "population": 71}, {"name": "Delta City CDP, Mississippi", "lat": 33.07386, "lng": -90.79253, "population": 70}, {"name": "Doddsville town, Mississippi", "lat": 33.65986, "lng": -90.52144, "population": 69}, {"name": "Benndale CDP, Mississippi", "lat": 30.86869, "lng": -88.80544, "population": 65}, {"name": "Leaf CDP, Mississippi", "lat": 31.02755, "lng": -88.798, "population": 62}, {"name": "Learned town, Mississippi", "lat": 32.19712, "lng": -90.54801, "population": 56}, {"name": "Jacinto CDP, Mississippi", "lat": 34.76221, "lng": -88.42756, "population": 52}, {"name": "Austin CDP, Mississippi", "lat": 34.64224, "lng": -90.44791, "population": 51}, {"name": "Satartia village, Mississippi", "lat": 32.67196, "lng": -90.54452, "population": 41}, {"name": "Lamar CDP, Mississippi", "lat": 34.91221, "lng": -89.31509, "population": 39}, {"name": "Stoneville CDP, Mississippi", "lat": 33.4238, "lng": -90.92163, "population": 39}, {"name": "Bolivar CDP, Mississippi", "lat": 33.66068, "lng": -91.05183, "population": 39}, {"name": "Porterville CDP, Mississippi", "lat": 32.68543, "lng": -88.47127, "population": 34}, {"name": "Dublin CDP, Mississippi", "lat": 34.07259, "lng": -90.48916, "population": 24}, {"name": "Nitta Yuma CDP, Mississippi", "lat": 33.02362, "lng": -90.84875, "population": 8}]