[{"name": "Andorra la Vella", "lat": 42.50779, "lng": 1.52109, "population": 20430}, {"name": "les Escaldes", "lat": 42.50729, "lng": 1.53414, "population": 15853}, {"name": "Encamp", "lat": 42.53474, "lng": 1.58014, "population": 11223}, {"name": "Sant Julià de Lòria", "lat": 42.46372, "lng": 1.49129, "population": 8022}, {"name": "la Massana", "lat": 42.54499, "lng": 1.51483, "population": 7211}, {"name": "Canillo", "lat": 42.5676, "lng": 1.59756, "population": 3292}, {"name": "Santa Coloma", "lat": 42.49454, "lng": 1.49897, "population": 3236}, {"name": "Ordino", "lat": 42.55623, "lng": 1.53319, "population": 3066}, {"name": "Pas de la Casa", "lat": 42.54277, "lng": 1.73361, "population": 2363}, {"name": "Arinsal", "lat": 42.57205, "lng": 1.48453, "population": 1419}, {"name": "Vila", "lat": 42.53176, "lng": 1.56654, "population": 1418}, {"name": "Les Bons", "lat": 42.53873, "lng": 1.58649, "population": 1114}, {"name": "El Tarter", "lat": 42.57952, "lng": 1.65362, "population": 1052}, {"name": "Aixirivall", "lat": 42.46245, "lng": 1.50209, "population": 1041}, {"name": "Anyós", "lat": 42.53465, "lng": 1.5251, "population": 1006}]