[{"name": "Buenos Aires", "lat": -34.61315, "lng": -58.37723, "population": 2891082}, {"name": "Córdoba", "lat": -31.40648, "lng": -64.18853, "population": 2106734}, {"name": "Rosario", "lat": -32.94682, "lng": -60.63932, "population": 948312}, {"name": "Mar del Plata", "lat": -38.00042, "lng": -57.5562, "population": 593337}, {"name": "San Miguel de Tucumán", "lat": -26.81601, "lng": -65.21051, "population": 548866}, {"name": "Salta", "lat": -24.80645, "lng": -65.41999, "population": 520683}, {"name": "Santa Fe", "lat": -31.64881, "lng": -60.70868, "population": 391164}, {"name": "Corrientes", "lat": -27.46784, "lng": -58.8344, "population": 346334}, {"name": "Posadas", "lat": -27.39184, "lng": -55.92379, "population": 305874}, {"name": "Bahía Blanca", "lat": -38.7176, "lng": -62.26545, "population": 299101}, {"name": "Resistencia", "lat": -27.46363, "lng": -58.98665, "population": 290793}, {"name": "Merlo", "lat": -34.66536, "lng": -58.72744, "population": 268961}, {"name": "Quilmes", "lat": -34.72065, "lng": -58.25454, "population": 262379}, {"name": "San Salvador de Jujuy", "lat": -24.1928, "lng": -65.29342, "population": 257970}, {"name": "Santiago del Estero", "lat": -27.80047, "lng": -64.26285, "population": 252192}, {"name": "Paraná", "lat": -31.73271, "lng": -60.52897, "population": 247139}, {"name": "Neuquén", "lat": -38.95078, "lng": -68.0592, "population": 231198}, {"name": "José C. Paz", "lat": -34.51541, "lng": -58.76813, "population": 230208}, {"name": "Formosa", "lat": -26.18489, "lng": -58.17313, "population": 222226}, {"name": "La Plata", "lat": -34.92126, "lng": -57.95442, "population": 195443}, {"name": "Berazategui", "lat": -34.76531, "lng": -58.21278, "population": 180523}, {"name": "La Rioja", "lat": -29.41328, "lng": -66.85637, "population": 178872}, {"name": "San Luis", "lat": -33.2914, "lng": -66.32467, "population": 169947}, {"name": "San Miguel", "lat": -34.54335, "lng": -58.71229, "population": 168762}, {"name": "Ituzaingó", "lat": -27.58504, "lng": -56.68707, "population": 168419}, {"name": "Catamarca", "lat": -28.46957, "lng": -65.78524, "population": 159139}, {"name": "Río Cuarto", "lat": -33.13044, "lng": -64.35272, "population": 157010}, {"name": "Balvanera", "lat": -34.61032, "lng": -58.39766, "population": 152198}, {"name": "Concordia", "lat": -31.39195, "lng": -58.01706, "population": 145210}, {"name": "Comodoro Rivadavia", "lat": -45.86256, "lng": -67.494, "population": 140850}, {"name": "Belgrano", "lat": -34.5627, "lng": -58.45829, "population": 138942}, {"name": "San Nicolás de los Arroyos", "lat": -33.33425, "lng": -60.2108, "population": 134217}, {"name": "San Rafael", "lat": -34.61531, "lng": -68.33238, "population": 118009}, {"name": "Tandil", "lat": -37.3287, "lng": -59.1369, "population": 115877}, {"name": "Mendoza", "lat": -32.88946, "lng": -68.84582, "population": 114893}, {"name": "Villa Lugano", "lat": -34.67907, "lng": -58.47263, "population": 114000}, {"name": "Lomas de Zamora", "lat": -34.7574, "lng": -58.40279, "population": 111897}, {"name": "San Juan", "lat": -31.53726, "lng": -68.52568, "population": 109123}, {"name": "Castelar", "lat": -34.65142, "lng": -58.64074, "population": 107786}, {"name": "San Justo", "lat": -34.68107, "lng": -58.56379, "population": 105274}, {"name": "Santa Rosa", "lat": -36.61617, "lng": -64.28991, "population": 102860}, {"name": "Morón", "lat": -34.65118, "lng": -58.62205, "population": 99066}, {"name": "Zárate", "lat": -34.09584, "lng": -59.02423, "population": 99061}, {"name": "Trelew", "lat": -43.24895, "lng": -65.30505, "population": 97915}, {"name": "Luján", "lat": -34.5664, "lng": -59.11478, "population": 97363}, {"name": "Villa Mercedes", "lat": -33.67571, "lng": -65.45783, "population": 96781}, {"name": "Río Gallegos", "lat": -51.6253, "lng": -69.25229, "population": 95796}, {"name": "San Carlos de Bariloche", "lat": -41.14557, "lng": -71.30822, "population": 95394}, {"name": "Villa María", "lat": -32.40751, "lng": -63.24016, "population": 92453}, {"name": "Pergamino", "lat": -33.89101, "lng": -60.57462, "population": 91399}, {"name": "Reconquista", "lat": -29.15, "lng": -59.65, "population": 90184}, {"name": "Olavarría", "lat": -36.89384, "lng": -60.32319, "population": 89721}, {"name": "Rafaela", "lat": -31.25285, "lng": -61.49078, "population": 88713}, {"name": "Junín", "lat": -34.59391, "lng": -60.94644, "population": 87509}, {"name": "Campana", "lat": -34.16327, "lng": -58.95919, "population": 86860}, {"name": "San Martín", "lat": -33.08338, "lng": -68.47312, "population": 82549}, {"name": "Presidencia Roque Sáenz Peña", "lat": -26.79095, "lng": -60.44132, "population": 81879}, {"name": "Pilar", "lat": -34.45867, "lng": -58.91398, "population": 81120}, {"name": "Bella Vista", "lat": -34.5651, "lng": -58.69034, "population": 79737}, {"name": "Gualeguaychú", "lat": -33.00777, "lng": -58.51836, "population": 78676}, {"name": "Barracas", "lat": -34.64966, "lng": -58.38341, "population": 77474}, {"name": "Cipolletti", "lat": -38.93392, "lng": -67.99032, "population": 75078}, {"name": "Gobernador Gálvez", "lat": -33.03016, "lng": -60.64045, "population": 74650}, {"name": "San Ramón de la Nueva Orán", "lat": -23.13705, "lng": -64.32426, "population": 74059}, {"name": "Chimbas", "lat": -31.49313, "lng": -68.53263, "population": 73829}, {"name": "Necochea", "lat": -38.5545, "lng": -58.73961, "population": 73557}, {"name": "General Roca", "lat": -39.03333, "lng": -67.58333, "population": 73212}, {"name": "Venado Tuerto", "lat": -33.74585, "lng": -61.96711, "population": 72340}, {"name": "Don Torcuato", "lat": -34.49459, "lng": -58.62729, "population": 71356}, {"name": "Goya", "lat": -29.13995, "lng": -59.26343, "population": 70245}, {"name": "Villa Carlos Paz", "lat": -31.4183, "lng": -64.49008, "population": 69451}, {"name": "Concepción del Uruguay", "lat": -32.48463, "lng": -58.23217, "population": 67895}, {"name": "Puerto Madryn", "lat": -42.76848, "lng": -65.03827, "population": 64555}, {"name": "Mercedes", "lat": -34.65072, "lng": -59.43143, "population": 63284}, {"name": "Tartagal", "lat": -22.51682, "lng": -63.8056, "population": 60819}, {"name": "Hurlingham", "lat": -34.5904, "lng": -58.62904, "population": 60000}, {"name": "Santo Tomé", "lat": -31.66274, "lng": -60.7653, "population": 59072}, {"name": "San Francisco", "lat": -31.42497, "lng": -62.08404, "population": 59062}, {"name": "El Palomar", "lat": -34.61771, "lng": -58.60153, "population": 59031}, {"name": "San Pedro de Jujuy", "lat": -24.23127, "lng": -64.86614, "population": 58430}, {"name": "Colón", "lat": -32.22312, "lng": -58.14426, "population": 58219}, {"name": "Punta Alta", "lat": -38.8805, "lng": -62.07503, "population": 57209}, {"name": "General Pico", "lat": -35.6593, "lng": -63.75787, "population": 57029}, {"name": "Colegiales", "lat": -34.57365, "lng": -58.44924, "population": 57000}, {"name": "Ushuaia", "lat": -54.81084, "lng": -68.31591, "population": 56825}, {"name": "Oberá", "lat": -27.48683, "lng": -55.11994, "population": 56528}, {"name": "Chivilcoy", "lat": -34.8969, "lng": -60.01909, "population": 54514}, {"name": "Puerto Eldorado", "lat": -26.40843, "lng": -54.69463, "population": 54189}, {"name": "Azul", "lat": -36.77803, "lng": -59.85848, "population": 53941}, {"name": "Río Tercero", "lat": -32.17675, "lng": -64.11295, "population": 53389}, {"name": "Los Polvorines", "lat": -34.50316, "lng": -58.70596, "population": 53354}, {"name": "Río Grande", "lat": -53.78773, "lng": -67.70975, "population": 52681}, {"name": "Barranqueras", "lat": -27.48132, "lng": -58.93925, "population": 50823}, {"name": "Yerba Buena", "lat": -26.81298, "lng": -65.29543, "population": 50783}, {"name": "Libertador General San Martín", "lat": -23.81305, "lng": -64.79353, "population": 49267}, {"name": "Viedma", "lat": -40.81519, "lng": -63.0004, "population": 48940}, {"name": "Tafí Viejo", "lat": -26.7333, "lng": -65.26146, "population": 48459}, {"name": "Boedo", "lat": -34.63333, "lng": -58.41667, "population": 48231}, {"name": "Palpalá", "lat": -24.25798, "lng": -65.21358, "population": 48199}, {"name": "San Lorenzo", "lat": -28.13442, "lng": -58.76685, "population": 47626}, {"name": "Chascomús", "lat": -35.57681, "lng": -58.01215, "population": 47524}, {"name": "San Pedro", "lat": -33.67918, "lng": -59.66633, "population": 47452}, {"name": "Cutral-Có", "lat": -38.93424, "lng": -69.23052, "population": 47380}, {"name": "Tres Arroyos", "lat": -38.37694, "lng": -60.27563, "population": 47136}, {"name": "San Isidro", "lat": -34.46971, "lng": -58.52111, "population": 45190}, {"name": "Pehuajó", "lat": -35.81081, "lng": -61.89897, "population": 44783}, {"name": "Villa Constitución", "lat": -33.22795, "lng": -60.32994, "population": 44271}, {"name": "Paso de los Libres", "lat": -29.71251, "lng": -57.08771, "population": 43805}, {"name": "Santa Lucía", "lat": -31.54055, "lng": -68.49794, "population": 43565}, {"name": "Villa Ángela", "lat": -27.57679, "lng": -60.71114, "population": 43511}, {"name": "Villa de Mayo", "lat": -34.5108, "lng": -58.68059, "population": 43405}, {"name": "General Pacheco", "lat": -34.45256, "lng": -58.64312, "population": 43287}, {"name": "Nogoyá", "lat": -32.39375, "lng": -59.78955, "population": 43195}, {"name": "Chilecito", "lat": -29.16163, "lng": -67.49934, "population": 42248}, {"name": "Lincoln", "lat": -34.86819, "lng": -61.52929, "population": 41808}, {"name": "Tortuguitas", "lat": -34.47513, "lng": -58.75367, "population": 41390}, {"name": "Pocito", "lat": -31.68333, "lng": -68.58333, "population": 40969}, {"name": "Alta Gracia", "lat": -31.64978, "lng": -64.42972, "population": 40384}, {"name": "Salto", "lat": -34.29175, "lng": -60.2545, "population": 40157}, {"name": "Balcarce", "lat": -37.84638, "lng": -58.25549, "population": 38823}, {"name": "Retiro", "lat": -34.58333, "lng": -58.38333, "population": 38635}, {"name": "Ingeniero Pablo Nogués", "lat": -34.47775, "lng": -58.70652, "population": 38470}, {"name": "Alderetes", "lat": -26.81787, "lng": -65.14202, "population": 38466}, {"name": "San Vicente", "lat": -26.61667, "lng": -54.13333, "population": 38247}, {"name": "San Antonio de Padua", "lat": -34.66267, "lng": -58.69819, "population": 37745}, {"name": "Haedo", "lat": -34.64239, "lng": -58.59212, "population": 37745}, {"name": "Santos Lugares", "lat": -34.60306, "lng": -58.54074, "population": 37267}, {"name": "Juan José Castelli", "lat": -25.9466, "lng": -60.62008, "population": 36588}, {"name": "Curuzú Cuatiá", "lat": -29.79145, "lng": -58.0499, "population": 36390}, {"name": "Caleta Olivia", "lat": -46.44785, "lng": -67.52274, "population": 36077}, {"name": "Cañada de Gómez", "lat": -32.82033, "lng": -61.39513, "population": 36000}, {"name": "Esperanza", "lat": -31.44957, "lng": -60.93153, "population": 35885}, {"name": "Saladillo", "lat": -35.63884, "lng": -59.77938, "population": 35669}, {"name": "Bell Ville", "lat": -32.63021, "lng": -62.68883, "population": 35105}, {"name": "Nueve de Julio", "lat": -35.44394, "lng": -60.88463, "population": 34718}, {"name": "Chacabuco", "lat": -34.64203, "lng": -60.47124, "population": 34587}, {"name": "Villa Santa Rita", "lat": -34.61082, "lng": -58.481, "population": 34000}, {"name": "Caucete", "lat": -31.6515, "lng": -68.28216, "population": 33609}, {"name": "Pontevedra", "lat": -34.74947, "lng": -58.70158, "population": 33515}, {"name": "Gualeguay", "lat": -33.14091, "lng": -59.31257, "population": 33120}, {"name": "Aguilares", "lat": -27.4315, "lng": -65.61465, "population": 32494}, {"name": "Granadero Baigorria", "lat": -32.85683, "lng": -60.71754, "population": 32427}, {"name": "Quitilipi", "lat": -26.8708, "lng": -60.21537, "population": 32083}, {"name": "Puerto Iguazú", "lat": -25.59912, "lng": -54.57355, "population": 32038}, {"name": "Villaguay", "lat": -31.86767, "lng": -59.02701, "population": 32027}, {"name": "Casilda", "lat": -33.04459, "lng": -61.16423, "population": 32002}, {"name": "General José de San Martín", "lat": -26.53643, "lng": -59.34138, "population": 31758}, {"name": "Zapala", "lat": -38.90056, "lng": -70.06674, "population": 31534}, {"name": "Villa Regina", "lat": -39.09631, "lng": -67.08374, "population": 31209}, {"name": "Tigre", "lat": -34.42603, "lng": -58.57962, "population": 31106}, {"name": "Famaillá", "lat": -27.05452, "lng": -65.40189, "population": 30951}, {"name": "Chajarí", "lat": -30.75482, "lng": -57.98196, "population": 30655}, {"name": "Mercedes", "lat": -29.18416, "lng": -58.07519, "population": 30649}, {"name": "Centenario", "lat": -38.82955, "lng": -68.1318, "population": 28956}, {"name": "Garupá", "lat": -27.48315, "lng": -55.82924, "population": 28814}, {"name": "Gobernador Virasora", "lat": -28.05, "lng": -56.03333, "population": 28756}, {"name": "Esquel", "lat": -42.91147, "lng": -71.31947, "population": 28486}, {"name": "Adrogué", "lat": -34.80041, "lng": -58.38384, "population": 28265}, {"name": "Cruz del Eje", "lat": -30.72644, "lng": -64.80387, "population": 28166}, {"name": "Machagai", "lat": -26.92617, "lng": -60.04852, "population": 28070}, {"name": "Villa Dolores", "lat": -31.94504, "lng": -65.19025, "population": 28009}, {"name": "Termas de Río Hondo", "lat": -27.49362, "lng": -64.85972, "population": 27838}, {"name": "Charata", "lat": -27.21787, "lng": -61.18738, "population": 27813}, {"name": "Capitán Bermúdez", "lat": -32.82262, "lng": -60.71852, "population": 27060}, {"name": "Coronel Suárez", "lat": -37.45859, "lng": -61.93294, "population": 27000}, {"name": "Las Breñas", "lat": -27.08819, "lng": -61.08217, "population": 26955}, {"name": "Muñiz", "lat": -34.55622, "lng": -58.70739, "population": 26844}, {"name": "Jesús María", "lat": -30.98153, "lng": -64.09424, "population": 26825}, {"name": "Fontana", "lat": -27.42039, "lng": -59.03731, "population": 26745}, {"name": "Apóstoles", "lat": -27.91421, "lng": -55.75355, "population": 26710}, {"name": "Arrecifes", "lat": -34.06306, "lng": -60.10261, "population": 26400}, {"name": "Esquina", "lat": -30.01476, "lng": -59.5289, "population": 26399}, {"name": "Rawson", "lat": -43.30031, "lng": -65.10564, "population": 26335}, {"name": "Allen", "lat": -38.97736, "lng": -67.82714, "population": 26083}, {"name": "Dolores", "lat": -36.31539, "lng": -57.67546, "population": 25190}, {"name": "Plottier", "lat": -38.96667, "lng": -68.23333, "population": 25186}, {"name": "Victoria", "lat": -32.61841, "lng": -60.15478, "population": 25139}, {"name": "Profesor Salvador Mazza", "lat": -22.04897, "lng": -63.69075, "population": 25000}, {"name": "Jardín América", "lat": -27.04346, "lng": -55.22698, "population": 24905}, {"name": "La Calera", "lat": -31.34582, "lng": -64.33849, "population": 24796}, {"name": "Tres Isletas", "lat": -26.34067, "lng": -60.43207, "population": 24747}, {"name": "La Paz", "lat": -30.74179, "lng": -59.64517, "population": 24716}, {"name": "Monte Caseros", "lat": -30.2518, "lng": -57.63537, "population": 24671}, {"name": "Veinticinco de Mayo", "lat": -35.43247, "lng": -60.17156, "population": 24668}, {"name": "Pérez", "lat": -32.99835, "lng": -60.76791, "population": 24436}, {"name": "Marcos Juárez", "lat": -32.6978, "lng": -62.10672, "population": 24226}, {"name": "Embarcación", "lat": -23.21003, "lng": -64.09965, "population": 23961}, {"name": "Monteros", "lat": -27.16825, "lng": -65.49892, "population": 23771}, {"name": "San Pedro", "lat": -26.6218, "lng": -54.10902, "population": 23736}, {"name": "San Martín de los Andes", "lat": -40.15789, "lng": -71.35337, "population": 23519}, {"name": "Avellaneda", "lat": -29.11761, "lng": -59.65834, "population": 23341}, {"name": "Villa Gesell", "lat": -37.26394, "lng": -56.97304, "population": 23257}, {"name": "Santo Tomé", "lat": -28.55104, "lng": -56.04125, "population": 22634}, {"name": "Villa Ortúzar", "lat": -34.57973, "lng": -58.46829, "population": 22500}, {"name": "Montecarlo", "lat": -26.56849, "lng": -54.7579, "population": 22229}, {"name": "San Justo", "lat": -30.78991, "lng": -60.59276, "population": 21809}, {"name": "Villa Allende", "lat": -31.29368, "lng": -64.2977, "population": 21683}, {"name": "San José de Jáchal", "lat": -30.24162, "lng": -68.74662, "population": 21018}, {"name": "Aristóbulo del Valle", "lat": -27.09571, "lng": -54.89344, "population": 20683}, {"name": "Arroyo Seco", "lat": -33.15365, "lng": -60.51168, "population": 20620}, {"name": "Carmen de Patagones", "lat": -40.80255, "lng": -62.98349, "population": 20533}, {"name": "Albardón", "lat": -31.43722, "lng": -68.52556, "population": 20413}, {"name": "Añatuya", "lat": -28.4602, "lng": -62.83354, "population": 20261}, {"name": "Deán Funes", "lat": -30.42498, "lng": -64.35274, "population": 20164}, {"name": "Laboulaye", "lat": -34.12688, "lng": -63.39083, "population": 19908}, {"name": "Cinco Saltos", "lat": -38.82225, "lng": -68.06293, "population": 19819}, {"name": "General Mosconi", "lat": -22.59617, "lng": -63.811, "population": 19811}, {"name": "Vera", "lat": -29.45986, "lng": -60.21315, "population": 19797}, {"name": "Arroyito", "lat": -31.41917, "lng": -63.05084, "population": 19577}, {"name": "El Soberbio", "lat": -27.29662, "lng": -54.19811, "population": 19571}, {"name": "Diamante", "lat": -32.0671, "lng": -60.64267, "population": 19545}, {"name": "Joaquín V. González", "lat": -25.11364, "lng": -64.12628, "population": 19185}, {"name": "Pirané", "lat": -25.73271, "lng": -59.10989, "population": 19124}, {"name": "Villa Ocampo", "lat": -28.48726, "lng": -59.35421, "population": 19101}, {"name": "Villa Paula de Sarmiento", "lat": -31.4933, "lng": -68.53838, "population": 19092}, {"name": "Cosquín", "lat": -31.24525, "lng": -64.46574, "population": 19070}, {"name": "Sunchales", "lat": -30.94478, "lng": -61.5597, "population": 18757}, {"name": "Santa Elena", "lat": -30.94432, "lng": -59.78832, "population": 18410}, {"name": "Gálvez", "lat": -32.02957, "lng": -61.22097, "population": 18374}, {"name": "Rufino", "lat": -34.26237, "lng": -62.71128, "population": 18361}, {"name": "Saladas", "lat": -28.25504, "lng": -58.62386, "population": 18349}, {"name": "Crespo", "lat": -32.03077, "lng": -60.30619, "population": 18296}, {"name": "Firmat", "lat": -33.45937, "lng": -61.4832, "population": 18294}, {"name": "Río Segundo", "lat": -31.6501, "lng": -63.91165, "population": 18155}, {"name": "Puerto Rico", "lat": -26.8089, "lng": -55.02147, "population": 17491}, {"name": "Villa Sarmiento", "lat": -34.63364, "lng": -58.57047, "population": 17481}, {"name": "Ayacucho", "lat": -37.15276, "lng": -58.48838, "population": 17364}, {"name": "Coronda", "lat": -31.97365, "lng": -60.91935, "population": 16975}, {"name": "San Antonio Oeste", "lat": -40.73193, "lng": -64.94769, "population": 16966}, {"name": "San Jorge", "lat": -31.89706, "lng": -61.85993, "population": 16873}, {"name": "Villa Nueva", "lat": -32.43289, "lng": -63.24811, "population": 16841}, {"name": "Río Ceballos", "lat": -31.1697, "lng": -64.3175, "population": 16632}, {"name": "Aimogasta", "lat": -28.56003, "lng": -66.80737, "population": 16625}, {"name": "Federal", "lat": -30.95619, "lng": -58.7797, "population": 16333}, {"name": "General Villegas", "lat": -35.03264, "lng": -63.01484, "population": 16270}, {"name": "Río Colorado", "lat": -38.99081, "lng": -64.09574, "population": 16132}, {"name": "Embalse", "lat": -32.20681, "lng": -64.40064, "population": 15900}, {"name": "General Pinedo", "lat": -27.32534, "lng": -61.28101, "population": 15741}, {"name": "Carcarañá", "lat": -32.85704, "lng": -61.15114, "population": 15619}, {"name": "San Javier", "lat": -30.58072, "lng": -59.92962, "population": 15606}, {"name": "Puerto Esperanza", "lat": -26.02267, "lng": -54.61356, "population": 15579}, {"name": "El Bolsón", "lat": -41.96051, "lng": -71.53336, "population": 15537}, {"name": "Colonia Wanda", "lat": -25.97337, "lng": -54.56304, "population": 15529}, {"name": "Unquillo", "lat": -31.23717, "lng": -64.31176, "population": 15369}, {"name": "San Luis del Palmar", "lat": -27.50766, "lng": -58.55625, "population": 15347}, {"name": "Catriel", "lat": -37.87552, "lng": -67.79451, "population": 15169}, {"name": "Morteros", "lat": -30.71066, "lng": -62.00714, "population": 15129}, {"name": "Bella Vista", "lat": -27.03424, "lng": -65.30196, "population": 15126}, {"name": "La Falda", "lat": -31.09321, "lng": -64.48448, "population": 15112}, {"name": "Clorinda", "lat": -25.28627, "lng": -57.72168, "population": 15000}, {"name": "La Punta", "lat": -33.18368, "lng": -66.3127, "population": 15000}, {"name": "Pico Truncado", "lat": -46.79942, "lng": -67.95785, "population": 14985}, {"name": "La Quiaca", "lat": -22.10448, "lng": -65.59646, "population": 14751}, {"name": "Funes", "lat": -32.91568, "lng": -60.80995, "population": 14750}, {"name": "Las Varillas", "lat": -31.8704, "lng": -62.71968, "population": 14649}, {"name": "Dos de Mayo", "lat": -27.01998, "lng": -54.68462, "population": 14544}, {"name": "Tinogasta", "lat": -28.06556, "lng": -67.56437, "population": 14509}, {"name": "Fray Luis A. Beltrán", "lat": -32.79122, "lng": -60.72819, "population": 14390}, {"name": "San Cristóbal", "lat": -30.31038, "lng": -61.23492, "population": 14286}, {"name": "Recreo", "lat": -29.28184, "lng": -65.06096, "population": 14204}, {"name": "Andalgalá", "lat": -27.58185, "lng": -66.31626, "population": 14068}, {"name": "Santa Lucía", "lat": -28.98984, "lng": -59.10076, "population": 14056}, {"name": "Tostado", "lat": -29.23269, "lng": -61.76869, "population": 14000}, {"name": "Rosario del Tala", "lat": -32.30073, "lng": -59.13928, "population": 13807}, {"name": "Federación", "lat": -30.99114, "lng": -57.91789, "population": 13789}, {"name": "Arauco", "lat": -28.58071, "lng": -66.7925, "population": 13720}, {"name": "Fraile Pintado", "lat": -23.94148, "lng": -64.8009, "population": 13682}, {"name": "Chamical", "lat": -30.35942, "lng": -66.31387, "population": 13383}, {"name": "Ceres", "lat": -29.88113, "lng": -61.94521, "population": 13063}, {"name": "Recreo", "lat": -31.49076, "lng": -60.73299, "population": 12798}, {"name": "Las Rosas", "lat": -32.47547, "lng": -61.57737, "population": 12793}, {"name": "El Colorado", "lat": -26.30896, "lng": -59.37226, "population": 12780}, {"name": "Oncativo", "lat": -31.9134, "lng": -63.68214, "population": 12660}, {"name": "General Acha", "lat": -37.37821, "lng": -64.60422, "population": 12536}, {"name": "Pilar", "lat": -31.68129, "lng": -63.8824, "population": 12488}, {"name": "Roldán", "lat": -32.89846, "lng": -60.90681, "population": 12468}, {"name": "Plaza Huincul", "lat": -38.93012, "lng": -69.20778, "population": 12273}, {"name": "Laguna Paiva", "lat": -31.3067, "lng": -60.6606, "population": 12250}, {"name": "Presidencia de la Plaza", "lat": -27.00213, "lng": -59.84476, "population": 12231}, {"name": "Campo Grande", "lat": -27.2077, "lng": -54.97977, "population": 12040}, {"name": "Villa Berthet", "lat": -27.28567, "lng": -60.41579, "population": 12029}, {"name": "Veinticinco de Mayo", "lat": -27.37796, "lng": -54.74505, "population": 11928}, {"name": "Las Toscas", "lat": -28.35436, "lng": -59.25884, "population": 11811}, {"name": "Cafayate", "lat": -26.07286, "lng": -65.97766, "population": 11785}, {"name": "Chos Malal", "lat": -37.37809, "lng": -70.27085, "population": 11721}, {"name": "Coronel Dorrego", "lat": -38.71872, "lng": -61.28849, "population": 11644}, {"name": "Oliva", "lat": -32.03823, "lng": -63.57063, "population": 11629}, {"name": "San Salvador", "lat": -31.62494, "lng": -58.50517, "population": 11626}, {"name": "Pampa del Indio", "lat": -26.04982, "lng": -59.93728, "population": 11588}, {"name": "La Carlota", "lat": -33.42012, "lng": -63.2975, "population": 11490}, {"name": "Humahuaca", "lat": -23.20612, "lng": -65.34742, "population": 11369}, {"name": "Las Parejas", "lat": -32.68478, "lng": -61.51637, "population": 11317}, {"name": "Armstrong", "lat": -32.78487, "lng": -61.60321, "population": 11181}, {"name": "San Clemente del Tuyú", "lat": -36.35419, "lng": -56.72568, "population": 11174}, {"name": "Merlo", "lat": -32.34288, "lng": -65.01396, "population": 11159}, {"name": "San José de Feliciano", "lat": -30.38546, "lng": -58.75025, "population": 11137}, {"name": "San Bernardo", "lat": -27.28672, "lng": -60.71293, "population": 11101}, {"name": "Candelaria", "lat": -27.4617, "lng": -55.7449, "population": 11039}, {"name": "Quimilí", "lat": -27.64615, "lng": -62.41655, "population": 10959}, {"name": "Bernardo de Irigoyen", "lat": -26.25543, "lng": -53.64682, "population": 10889}, {"name": "El Trébol", "lat": -32.19857, "lng": -61.70208, "population": 10871}, {"name": "Campo Largo", "lat": -26.80031, "lng": -60.83903, "population": 10743}, {"name": "Basavilbaso", "lat": -32.37213, "lng": -58.87858, "population": 10597}, {"name": "Junín de los Andes", "lat": -39.94931, "lng": -71.07543, "population": 10592}, {"name": "Almafuerte", "lat": -32.19227, "lng": -64.25569, "population": 10534}, {"name": "Hernando", "lat": -32.42785, "lng": -63.7335, "population": 10486}, {"name": "Corzuela", "lat": -26.95135, "lng": -60.97036, "population": 10470}, {"name": "San Carlos Centro", "lat": -31.72864, "lng": -61.09192, "population": 10465}, {"name": "Ingeniero Guillermo N. Juárez", "lat": -23.89861, "lng": -61.85502, "population": 10357}, {"name": "Las Lomitas", "lat": -24.70818, "lng": -60.59239, "population": 10354}, {"name": "General Cabrera", "lat": -32.81048, "lng": -63.87213, "population": 10351}, {"name": "El Quebrachal", "lat": -25.28333, "lng": -64.06667, "population": 10243}, {"name": "Puerto Deseado", "lat": -47.75131, "lng": -65.89674, "population": 10237}, {"name": "Calchaquí", "lat": -29.88845, "lng": -60.28397, "population": 10221}, {"name": "Villa General San Martín", "lat": -31.43963, "lng": -68.5205, "population": 10140}, {"name": "Campo Ramón", "lat": -27.4549, "lng": -55.02122, "population": 10088}, {"name": "La Leonesa", "lat": -27.03751, "lng": -58.70498, "population": 10067}, {"name": "Leones", "lat": -32.65828, "lng": -62.29773, "population": 9971}, {"name": "Corral de Bustos", "lat": -33.28377, "lng": -62.18581, "population": 9882}, {"name": "Eduardo Castex", "lat": -35.91606, "lng": -64.29558, "population": 9861}, {"name": "Choele Choel", "lat": -39.28941, "lng": -65.6606, "population": 9791}, {"name": "El Carril", "lat": -25.07185, "lng": -65.49302, "population": 9780}, {"name": "Puerto Tirol", "lat": -27.37382, "lng": -59.08927, "population": 9767}, {"name": "Justo Daract", "lat": -33.86056, "lng": -65.18224, "population": 9680}, {"name": "Totoras", "lat": -32.58472, "lng": -61.16762, "population": 9587}, {"name": "Santa Rosa de Calamuchita", "lat": -32.06439, "lng": -64.53961, "population": 9504}, {"name": "Abra Pampa", "lat": -22.72273, "lng": -65.69693, "population": 9425}, {"name": "Malagueño", "lat": -31.46737, "lng": -64.35903, "population": 9364}, {"name": "Villa Elisa", "lat": -32.1632, "lng": -58.40082, "population": 9334}, {"name": "Villa Cañás", "lat": -34.00406, "lng": -61.60685, "population": 9328}, {"name": "Las Heras", "lat": -46.54131, "lng": -68.93227, "population": 9303}, {"name": "Campo Viera", "lat": -27.33271, "lng": -55.05651, "population": 9228}, {"name": "Las Lajitas", "lat": -24.72762, "lng": -64.19335, "population": 9151}, {"name": "Coronel Du Graty", "lat": -27.68216, "lng": -60.90443, "population": 9140}, {"name": "Capilla del Monte", "lat": -30.8607, "lng": -64.52531, "population": 9085}, {"name": "Clodomira", "lat": -27.5766, "lng": -64.13201, "population": 9043}, {"name": "Santa Sylvina", "lat": -27.83154, "lng": -61.13601, "population": 9040}, {"name": "Mburucuyá", "lat": -28.04532, "lng": -58.22835, "population": 9012}, {"name": "Vicuña Mackenna", "lat": -33.91823, "lng": -64.39066, "population": 8994}, {"name": "Viale", "lat": -31.86819, "lng": -60.00755, "population": 8939}, {"name": "Ibarreta", "lat": -25.2144, "lng": -59.8582, "population": 8687}, {"name": "Huinca Renancó", "lat": -34.84131, "lng": -64.3746, "population": 8637}, {"name": "Malvinas Argentinas", "lat": -31.38194, "lng": -64.05545, "population": 8628}, {"name": "General Ramírez", "lat": -32.17718, "lng": -60.20172, "population": 8614}, {"name": "Apolinario Saravia", "lat": -24.43232, "lng": -63.9956, "population": 8595}, {"name": "La Cruz", "lat": -29.17625, "lng": -56.64262, "population": 8591}, {"name": "Puerto Piray", "lat": -26.46937, "lng": -54.70736, "population": 8557}, {"name": "Taco Pozo", "lat": -25.61557, "lng": -63.26708, "population": 8470}, {"name": "Chicoana", "lat": -25.10502, "lng": -65.53473, "population": 8468}, {"name": "Puerto Vilelas", "lat": -27.51083, "lng": -58.94179, "population": 8455}, {"name": "Colonia Aurora", "lat": -27.4737, "lng": -54.52416, "population": 8407}, {"name": "El Galpón", "lat": -25.38062, "lng": -64.65162, "population": 8357}, {"name": "Canals", "lat": -33.56224, "lng": -62.88509, "population": 8343}, {"name": "Santa Rosa", "lat": -28.26572, "lng": -58.12053, "population": 8330}, {"name": "Sarmiento", "lat": -45.58687, "lng": -69.06894, "population": 8292}, {"name": "Garuhapé", "lat": -26.82116, "lng": -54.95774, "population": 8259}, {"name": "Brinkmann", "lat": -30.86651, "lng": -62.04311, "population": 8237}, {"name": "Pampa del Infierno", "lat": -26.50353, "lng": -61.17654, "population": 8176}, {"name": "Calingasta", "lat": -31.33394, "lng": -69.4208, "population": 8176}, {"name": "Coronel Moldes", "lat": -33.622, "lng": -64.59702, "population": 8104}, {"name": "Fiambalá", "lat": -27.67225, "lng": -67.6187, "population": 8061}, {"name": "El Calafate", "lat": -50.34075, "lng": -72.27682, "population": 8000}, {"name": "Urdinarrain", "lat": -32.69104, "lng": -58.88842, "population": 7992}, {"name": "Bovril", "lat": -31.34358, "lng": -59.44652, "population": 7977}, {"name": "Simoca", "lat": -27.2629, "lng": -65.35792, "population": 7939}, {"name": "Alvear", "lat": -29.09689, "lng": -56.55038, "population": 7917}, {"name": "Itatí", "lat": -27.26915, "lng": -58.24249, "population": 7902}, {"name": "Lamarque", "lat": -39.42515, "lng": -65.70215, "population": 7819}, {"name": "Huillapima", "lat": -28.72602, "lng": -65.97879, "population": 7779}, {"name": "Yuto", "lat": -23.64281, "lng": -64.47162, "population": 7732}, {"name": "Nueve de Julio", "lat": -31.6692, "lng": -68.39013, "population": 7652}, {"name": "Nuestra Señora del Rosario de Caá Catí", "lat": -27.75215, "lng": -57.622, "population": 7573}, {"name": "Villa La Angostura", "lat": -40.76173, "lng": -71.64631, "population": 7526}, {"name": "Hermoso Campo", "lat": -27.61005, "lng": -61.34421, "population": 7435}, {"name": "Justiniano Posse", "lat": -32.88344, "lng": -62.67965, "population": 7406}, {"name": "Concepción de la Sierra", "lat": -27.98225, "lng": -55.5208, "population": 7398}, {"name": "San Miguel", "lat": -27.99833, "lng": -57.58735, "population": 7396}, {"name": "Río Primero", "lat": -31.3339, "lng": -63.61856, "population": 7389}, {"name": "Villa de Soto", "lat": -30.85524, "lng": -64.98496, "population": 7303}, {"name": "Sampacho", "lat": -33.38452, "lng": -64.72274, "population": 7238}, {"name": "La Cumbre", "lat": -30.98225, "lng": -64.49074, "population": 7235}, {"name": "Realicó", "lat": -35.03821, "lng": -64.24631, "population": 7151}, {"name": "Laguna Larga", "lat": -31.77569, "lng": -63.80038, "population": 7137}, {"name": "Villa del Totoral", "lat": -30.81667, "lng": -63.71667, "population": 7110}, {"name": "María Grande", "lat": -31.66503, "lng": -59.89969, "population": 7101}, {"name": "La Cocha", "lat": -27.76927, "lng": -65.58711, "population": 7066}, {"name": "Malabrigo", "lat": -29.34835, "lng": -59.96935, "population": 7026}, {"name": "Intendente Alvear", "lat": -35.23468, "lng": -63.59209, "population": 6990}, {"name": "Sierra Grande", "lat": -41.60546, "lng": -65.35702, "population": 6978}, {"name": "Veinticinco de Mayo", "lat": -37.77491, "lng": -67.71354, "population": 6962}, {"name": "Arias", "lat": -33.64037, "lng": -62.40272, "population": 6928}, {"name": "Monte Maíz", "lat": -33.20424, "lng": -62.60052, "population": 6920}, {"name": "Montecristo", "lat": -31.34136, "lng": -63.94535, "population": 6914}, {"name": "Villa San Agustín", "lat": -30.63464, "lng": -67.4679, "population": 6864}, {"name": "Cruz Alta", "lat": -33.00796, "lng": -61.8083, "population": 6862}, {"name": "Icaño", "lat": -28.91946, "lng": -65.33023, "population": 6857}, {"name": "Mina Clavero", "lat": -31.72945, "lng": -65.00501, "population": 6855}, {"name": "Avia Terai", "lat": -26.68665, "lng": -60.72803, "population": 6821}, {"name": "General Fernández Oro", "lat": -38.95297, "lng": -67.92489, "population": 6813}, {"name": "Santa Rosa de Río Primero", "lat": -31.15353, "lng": -63.39938, "population": 6788}, {"name": "San Benito", "lat": -31.78283, "lng": -60.43949, "population": 6771}, {"name": "La Toma", "lat": -33.05353, "lng": -65.62254, "population": 6663}, {"name": "Trancas", "lat": -26.23136, "lng": -65.28093, "population": 6658}, {"name": "Alba Posse", "lat": -27.56942, "lng": -54.68383, "population": 6652}, {"name": "Yacimientos Río Turbio", "lat": -51.53642, "lng": -72.33786, "population": 6650}, {"name": "Río Turbio", "lat": -51.53587, "lng": -72.33673, "population": 6650}, {"name": "Los Frentones", "lat": -26.40706, "lng": -61.41284, "population": 6610}, {"name": "Tapalqué", "lat": -36.35624, "lng": -60.02511, "population": 6605}, {"name": "Victorica", "lat": -36.21654, "lng": -65.43709, "population": 6565}, {"name": "Ingeniero Luis A. Huergo", "lat": -39.07146, "lng": -67.2379, "population": 6483}, {"name": "San José", "lat": -27.76916, "lng": -55.78033, "population": 6452}, {"name": "Berrotarán", "lat": -32.44961, "lng": -64.38798, "population": 6446}, {"name": "Adelia María", "lat": -33.63217, "lng": -64.02103, "population": 6434}, {"name": "Los Altos", "lat": -28.04501, "lng": -65.49764, "population": 6421}, {"name": "Salsipuedes", "lat": -31.13789, "lng": -64.29277, "population": 6411}, {"name": "Fray Luis Beltrán", "lat": -39.31369, "lng": -65.76002, "population": 6401}, {"name": "Trevelin", "lat": -43.0858, "lng": -71.46386, "population": 6395}, {"name": "Senillosa", "lat": -39.01412, "lng": -68.43281, "population": 6394}, {"name": "Capayán", "lat": -28.77436, "lng": -66.04749, "population": 6358}, {"name": "Gobernador Roca", "lat": -27.19057, "lng": -55.46927, "population": 6315}, {"name": "Rada Tilly", "lat": -45.92462, "lng": -67.55424, "population": 6208}, {"name": "Larroque", "lat": -33.03511, "lng": -58.99982, "population": 6200}, {"name": "Puerto Libertad", "lat": -25.91958, "lng": -54.58229, "population": 6143}, {"name": "Puerto San Julián", "lat": -49.30696, "lng": -67.7298, "population": 6143}, {"name": "Mocoretá", "lat": -30.61798, "lng": -57.96705, "population": 6088}, {"name": "Suncho Corral", "lat": -27.93195, "lng": -63.43021, "population": 6087}, {"name": "Panambí", "lat": -27.72199, "lng": -54.91486, "population": 5970}, {"name": "Villa General Belgrano", "lat": -31.97828, "lng": -64.55627, "population": 5888}, {"name": "Capioví", "lat": -26.92936, "lng": -55.05773, "population": 5860}, {"name": "Villa Ojo de Agua", "lat": -29.50281, "lng": -63.69497, "population": 5832}, {"name": "Concepción del Bermejo", "lat": -26.60036, "lng": -60.94624, "population": 5830}, {"name": "Paso de la Patria", "lat": -27.31738, "lng": -58.57264, "population": 5818}, {"name": "Maciá", "lat": -32.17254, "lng": -59.4006, "population": 5806}, {"name": "Ingeniero Jacobacci", "lat": -41.3292, "lng": -69.55015, "population": 5785}, {"name": "Gaiman", "lat": -43.2909, "lng": -65.4977, "population": 5753}, {"name": "Perugorría", "lat": -29.34077, "lng": -58.60826, "population": 5685}, {"name": "Comandante Fontana", "lat": -25.3354, "lng": -59.6825, "population": 5655}, {"name": "Despeñaderos", "lat": -31.81431, "lng": -64.29491, "population": 5645}, {"name": "Tilcara", "lat": -23.57817, "lng": -65.39516, "population": 5640}, {"name": "Chañar Ladeado", "lat": -33.32522, "lng": -62.03722, "population": 5639}, {"name": "Huerta Grande", "lat": -31.0752, "lng": -64.49063, "population": 5630}, {"name": "Devoto", "lat": -31.40167, "lng": -62.30622, "population": 5597}, {"name": "General Conesa", "lat": -40.10408, "lng": -64.45592, "population": 5595}, {"name": "Balnearia", "lat": -31.01285, "lng": -62.66536, "population": 5585}, {"name": "Margarita Belén", "lat": -27.25902, "lng": -58.97157, "population": 5547}, {"name": "Sastre", "lat": -31.76672, "lng": -61.82872, "population": 5521}, {"name": "Monte Buey", "lat": -32.91649, "lng": -62.4564, "population": 5497}, {"name": "Laborde", "lat": -33.15481, "lng": -62.85741, "population": 5492}, {"name": "General Levalle", "lat": -34.00719, "lng": -63.92334, "population": 5492}, {"name": "Valle Hermoso", "lat": -31.11205, "lng": -64.48114, "population": 5486}, {"name": "Tilisarao", "lat": -32.73125, "lng": -65.29138, "population": 5478}, {"name": "Campo Gallo", "lat": -26.58395, "lng": -62.84705, "population": 5455}, {"name": "Santo Pipó", "lat": -27.14147, "lng": -55.40945, "population": 5447}, {"name": "Pozo del Molle", "lat": -32.02127, "lng": -62.91931, "population": 5429}, {"name": "Caimancito", "lat": -23.74084, "lng": -64.59316, "population": 5403}, {"name": "Villa Hernandarias", "lat": -31.23097, "lng": -59.98464, "population": 5375}, {"name": "Palo Santo", "lat": -25.56461, "lng": -59.3378, "population": 5324}, {"name": "Cerro Azul", "lat": -27.63363, "lng": -55.49746, "population": 5323}, {"name": "Beltrán", "lat": -27.82696, "lng": -64.05846, "population": 5321}, {"name": "Palma Sola", "lat": -23.97771, "lng": -64.30311, "population": 5318}, {"name": "Las Higueras", "lat": -33.09386, "lng": -64.28824, "population": 5282}, {"name": "Guatraché", "lat": -37.67073, "lng": -63.53576, "population": 5271}, {"name": "Graneros", "lat": -27.6489, "lng": -65.44004, "population": 5263}, {"name": "Estación Camet", "lat": -37.88876, "lng": -57.60563, "population": 5241}, {"name": "Tancacha", "lat": -32.23751, "lng": -63.97983, "population": 5184}, {"name": "Calilegua", "lat": -23.77441, "lng": -64.77003, "population": 5174}, {"name": "Cervantes", "lat": -39.05444, "lng": -67.39426, "population": 5173}, {"name": "Villa Huidobro", "lat": -34.83826, "lng": -64.58686, "population": 5155}, {"name": "El Alcázar", "lat": -26.71377, "lng": -54.81482, "population": 5127}, {"name": "Open Door", "lat": -34.49113, "lng": -59.07531, "population": 5014}, {"name": "La Esperanza", "lat": -24.2247, "lng": -64.83807, "population": 5002}, {"name": "Campo Quijano", "lat": -24.90872, "lng": -65.6402, "population": 5000}, {"name": "Villa Berna", "lat": -31.91419, "lng": -64.73249, "population": 5000}, {"name": "Makallé", "lat": -27.20573, "lng": -59.28709, "population": 4994}, {"name": "Presidencia Roca", "lat": -26.14199, "lng": -59.59595, "population": 4987}, {"name": "Camilo Aldao", "lat": -33.12666, "lng": -62.09467, "population": 4895}, {"name": "Santa Clara", "lat": -24.30957, "lng": -64.66135, "population": 4883}, {"name": "Sumampa", "lat": -29.38243, "lng": -63.47683, "population": 4812}, {"name": "Concepción", "lat": -28.3932, "lng": -57.88679, "population": 4800}, {"name": "Macachín", "lat": -37.13698, "lng": -63.66674, "population": 4768}, {"name": "Ucacha", "lat": -33.03175, "lng": -63.50667, "population": 4747}, {"name": "Alejandro Roca", "lat": -33.35275, "lng": -63.71676, "population": 4724}, {"name": "Villa Cura Brochero", "lat": -31.70642, "lng": -65.01864, "population": 4707}, {"name": "28 de Noviembre", "lat": -51.5839, "lng": -72.21382, "population": 4686}, {"name": "Villa Giardino", "lat": -31.0503, "lng": -64.49678, "population": 4679}, {"name": "Las Lajas", "lat": -38.52447, "lng": -70.36516, "population": 4673}, {"name": "Ingeniero Luiggi", "lat": -35.38847, "lng": -64.46737, "population": 4671}, {"name": "Porteña", "lat": -31.01409, "lng": -62.06204, "population": 4624}, {"name": "Las Perdices", "lat": -32.69898, "lng": -63.70473, "population": 4615}, {"name": "Colonia Elisa", "lat": -26.93166, "lng": -59.51882, "population": 4570}, {"name": "James Craik", "lat": -32.16145, "lng": -63.4679, "population": 4560}, {"name": "Quilino", "lat": -30.21417, "lng": -64.49937, "population": 4534}, {"name": "Guaraní", "lat": -27.52323, "lng": -55.16077, "population": 4530}, {"name": "Concarán", "lat": -32.56081, "lng": -65.24452, "population": 4530}, {"name": "Noetinger", "lat": -32.36604, "lng": -62.30723, "population": 4508}, {"name": "La Tigra", "lat": -27.11054, "lng": -60.58785, "population": 4505}, {"name": "Santa Rosa del Conlara", "lat": -32.3428, "lng": -65.20506, "population": 4489}, {"name": "Puerto Ibicuy", "lat": -33.75305, "lng": -59.17762, "population": 4477}, {"name": "Lucas González", "lat": -32.38436, "lng": -59.53086, "population": 4466}, {"name": "San Cosme", "lat": -27.37137, "lng": -58.51112, "population": 4429}, {"name": "Hasenkamp", "lat": -31.51212, "lng": -59.83537, "population": 4413}, {"name": "Pampa de los Guanacos", "lat": -26.23002, "lng": -61.83774, "population": 4393}, {"name": "San Francisco de Laishi", "lat": -26.24399, "lng": -58.62962, "population": 4384}, {"name": "Loncopué", "lat": -38.07309, "lng": -70.61445, "population": 4323}, {"name": "Castro Barros", "lat": -30.58017, "lng": -65.72629, "population": 4322}, {"name": "San Antonio", "lat": -28.01009, "lng": -65.70874, "population": 4290}, {"name": "Isla Verde", "lat": -33.23888, "lng": -62.40343, "population": 4245}, {"name": "Las Garcitas", "lat": -26.61802, "lng": -59.80135, "population": 4244}, {"name": "Mendiolaza", "lat": -31.26406, "lng": -64.30913, "population": 4204}, {"name": "Comandante Luis Piedrabuena", "lat": -49.98521, "lng": -68.91508, "population": 4176}, {"name": "General Galarza", "lat": -32.72039, "lng": -59.39587, "population": 4150}, {"name": "Itá Ibaté", "lat": -27.42589, "lng": -57.33826, "population": 4115}, {"name": "Colonias Unidas", "lat": -26.69831, "lng": -59.63029, "population": 4093}, {"name": "Chichinales", "lat": -39.11475, "lng": -66.94225, "population": 4060}, {"name": "Jovita", "lat": -34.51886, "lng": -63.94404, "population": 4059}, {"name": "Estanislao del Campo", "lat": -25.05358, "lng": -60.09066, "population": 4055}, {"name": "Lago Puelo", "lat": -42.06684, "lng": -71.60384, "population": 4046}, {"name": "Villa Basilio Nievas", "lat": -31.55, "lng": -68.73333, "population": 4038}, {"name": "Tafí del Valle", "lat": -26.85195, "lng": -65.71069, "population": 4028}, {"name": "San Antonio de los Cobres", "lat": -24.22131, "lng": -66.32025, "population": 4000}, {"name": "Villa General Guemes", "lat": -24.7553, "lng": -59.4894, "population": 4000}, {"name": "Villa Paranacito", "lat": -33.71381, "lng": -58.65844, "population": 3988}, {"name": "Pueblo Libertador", "lat": -30.22009, "lng": -59.38978, "population": 3973}, {"name": "La Escondida", "lat": -27.10554, "lng": -59.44603, "population": 3948}, {"name": "Pozo del Tigre", "lat": -24.89755, "lng": -60.32391, "population": 3948}, {"name": "Chimpay", "lat": -39.1654, "lng": -66.14642, "population": 3905}, {"name": "Tintina", "lat": -27.02687, "lng": -62.70643, "population": 3868}, {"name": "Quemú Quemú", "lat": -36.05483, "lng": -63.56594, "population": 3851}, {"name": "General Enrique Godoy", "lat": -39.07891, "lng": -67.15807, "population": 3823}, {"name": "La Eduvigis", "lat": -26.83607, "lng": -59.06211, "population": 3816}, {"name": "La Mendieta", "lat": -24.31391, "lng": -64.96651, "population": 3812}, {"name": "Etruria", "lat": -32.93941, "lng": -63.24743, "population": 3788}, {"name": "El Maitén", "lat": -42.05032, "lng": -71.16779, "population": 3782}, {"name": "Inriville", "lat": -32.94413, "lng": -62.22983, "population": 3778}, {"name": "Catriló", "lat": -36.40668, "lng": -63.42334, "population": 3743}, {"name": "Gancedo", "lat": -27.48875, "lng": -61.67541, "population": 3737}, {"name": "Aluminé", "lat": -39.23659, "lng": -70.91963, "population": 3720}, {"name": "San Antonio", "lat": -26.05993, "lng": -53.73578, "population": 3700}, {"name": "Rancul", "lat": -35.06777, "lng": -64.68422, "population": 3699}, {"name": "Parera", "lat": -35.14676, "lng": -64.50231, "population": 3675}, {"name": "Riachuelo", "lat": -27.58191, "lng": -58.74497, "population": 3668}, {"name": "El Aguilar", "lat": -23.21572, "lng": -65.68005, "population": 3655}, {"name": "Basail", "lat": -27.88539, "lng": -59.28245, "population": 3652}, {"name": "Seguí", "lat": -31.95647, "lng": -60.12784, "population": 3646}, {"name": "La Clotilde", "lat": -27.17775, "lng": -60.63038, "population": 3625}, {"name": "Los Helechos", "lat": -27.557, "lng": -55.076, "population": 3616}, {"name": "Villa General Mitre", "lat": -29.14175, "lng": -62.65455, "population": 3605}, {"name": "Valcheta", "lat": -40.67989, "lng": -66.16283, "population": 3596}, {"name": "Perito Moreno", "lat": -46.5905, "lng": -70.92574, "population": 3588}, {"name": "Colonia Benítez", "lat": -27.33026, "lng": -58.94579, "population": 3584}, {"name": "Riacho He-He", "lat": -25.36097, "lng": -58.27731, "population": 3566}, {"name": "Gobernador Juan E. Martínez", "lat": -28.91161, "lng": -58.93594, "population": 3529}, {"name": "General Vedia", "lat": -26.93243, "lng": -58.65919, "population": 3513}, {"name": "La Francia", "lat": -31.40644, "lng": -62.63327, "population": 3503}, {"name": "Villa del Rosario", "lat": -30.7957, "lng": -57.91234, "population": 3488}, {"name": "Azara", "lat": -28.06067, "lng": -55.67709, "population": 3484}, {"name": "Trenel", "lat": -35.69833, "lng": -64.13329, "population": 3426}, {"name": "Los Charrúas", "lat": -31.17038, "lng": -58.18569, "population": 3414}, {"name": "Puerto Santa Cruz", "lat": -50.01922, "lng": -68.52378, "population": 3397}, {"name": "Pomán", "lat": -28.39528, "lng": -66.21829, "population": 3387}, {"name": "Ruiz de Montoya", "lat": -26.97088, "lng": -55.05067, "population": 3374}, {"name": "Piedra del Águila", "lat": -40.04848, "lng": -70.07502, "population": 3372}, {"name": "San Marcos Sierra", "lat": -30.78339, "lng": -64.64083, "population": 3355}, {"name": "San Carlos", "lat": -27.74706, "lng": -55.89639, "population": 3350}, {"name": "Colonia Barón", "lat": -36.15361, "lng": -63.8552, "population": 3317}, {"name": "Alejo Ledesma", "lat": -33.60514, "lng": -62.62388, "population": 3310}, {"name": "San Francisco del Monte de Oro", "lat": -32.60029, "lng": -66.12713, "population": 3295}, {"name": "Caraguatay", "lat": -26.60587, "lng": -54.78093, "population": 3287}, {"name": "San José de la Dormida", "lat": -30.35628, "lng": -63.95038, "population": 3272}, {"name": "Morrison", "lat": -32.5948, "lng": -62.83455, "population": 3245}, {"name": "Picún Leufú", "lat": -39.51614, "lng": -69.28765, "population": 3222}, {"name": "Los Juríes", "lat": -28.46293, "lng": -62.11024, "population": 3212}, {"name": "Cuesta Blanca", "lat": -31.48658, "lng": -64.5715, "population": 3200}, {"name": "Naschel", "lat": -32.91656, "lng": -65.37535, "population": 3157}, {"name": "Del Campillo", "lat": -34.37591, "lng": -64.49649, "population": 3155}, {"name": "Ancasti", "lat": -28.81264, "lng": -65.50069, "population": 3082}, {"name": "Dos Arroyos", "lat": -27.69946, "lng": -55.25207, "population": 3079}, {"name": "Tacuarendí", "lat": -28.41265, "lng": -59.26, "population": 3067}, {"name": "Napenay", "lat": -26.72992, "lng": -60.61737, "population": 3056}, {"name": "Toledo", "lat": -31.55378, "lng": -64.00742, "population": 3046}, {"name": "La Para", "lat": -30.89226, "lng": -62.99883, "population": 3021}, {"name": "Hersilia", "lat": -30.00376, "lng": -61.83867, "population": 3000}, {"name": "Tolhuin", "lat": -54.51083, "lng": -67.1955, "population": 3000}, {"name": "La Verde", "lat": -27.12894, "lng": -59.37546, "population": 2995}, {"name": "Tres Algarrobos", "lat": -35.1956, "lng": -62.77423, "population": 2993}, {"name": "General Campos", "lat": -31.52341, "lng": -58.4058, "population": 2982}, {"name": "Villa Trinidad", "lat": -30.21522, "lng": -61.87634, "population": 2945}, {"name": "Río Mayo", "lat": -45.68618, "lng": -70.25664, "population": 2939}, {"name": "Dolavón", "lat": -43.30684, "lng": -65.70651, "population": 2929}, {"name": "Winifreda", "lat": -36.22643, "lng": -64.23388, "population": 2902}, {"name": "Sauce de Luna", "lat": -31.23955, "lng": -59.21753, "population": 2901}, {"name": "San Basilio", "lat": -33.49791, "lng": -64.31481, "population": 2882}, {"name": "San Agustín", "lat": -31.97681, "lng": -64.374, "population": 2870}, {"name": "Vista Alegre Norte", "lat": -38.73425, "lng": -68.17115, "population": 2857}, {"name": "Loreto", "lat": -27.76835, "lng": -57.2753, "population": 2856}, {"name": "General San Martín", "lat": -37.97888, "lng": -63.60349, "population": 2846}, {"name": "Vinchina", "lat": -28.75964, "lng": -68.20692, "population": 2834}, {"name": "Villa del Dique", "lat": -32.17628, "lng": -64.45694, "population": 2829}, {"name": "Elena", "lat": -32.57159, "lng": -64.39475, "population": 2815}, {"name": "Los Surgentes", "lat": -32.98472, "lng": -62.02199, "population": 2804}, {"name": "Sacanta", "lat": -31.66344, "lng": -63.04791, "population": 2791}, {"name": "Villa Mugueta", "lat": -33.31129, "lng": -61.05515, "population": 2789}, {"name": "Contralmirante Cordero", "lat": -38.75595, "lng": -68.09954, "population": 2782}, {"name": "Sachayoj", "lat": -26.67573, "lng": -61.81383, "population": 2777}, {"name": "Jacinto Aráuz", "lat": -38.08545, "lng": -63.43027, "population": 2773}, {"name": "Laguna Yema", "lat": -24.25573, "lng": -61.24451, "population": 2744}, {"name": "Arroyo Cabral", "lat": -32.49144, "lng": -63.40037, "population": 2727}, {"name": "Los Cóndores", "lat": -32.32003, "lng": -64.27859, "population": 2720}, {"name": "Los Menucos", "lat": -40.84402, "lng": -68.08718, "population": 2689}, {"name": "Villa Atamisqui", "lat": -28.49644, "lng": -63.81733, "population": 2683}, {"name": "Nueve de Julio", "lat": -28.84081, "lng": -58.83019, "population": 2671}, {"name": "Serrano", "lat": -34.47156, "lng": -63.53822, "population": 2670}, {"name": "Mainqué", "lat": -39.06424, "lng": -67.30564, "population": 2658}, {"name": "Londres", "lat": -27.71257, "lng": -67.13551, "population": 2627}, {"name": "Andacollo", "lat": -37.17974, "lng": -70.66996, "population": 2627}, {"name": "General Roca", "lat": -32.7309, "lng": -61.91583, "population": 2597}, {"name": "Pascanas", "lat": -33.12458, "lng": -63.04022, "population": 2567}, {"name": "Oro Verde", "lat": -31.82462, "lng": -60.51633, "population": 2548}, {"name": "Charadai", "lat": -27.65503, "lng": -59.86291, "population": 2538}, {"name": "Villa de las Rosas", "lat": -31.94714, "lng": -65.05213, "population": 2535}, {"name": "Buena Esperanza", "lat": -34.75787, "lng": -65.25362, "population": 2531}, {"name": "Villa Valeria", "lat": -34.34141, "lng": -64.92068, "population": 2525}, {"name": "Guatimozín", "lat": -33.46371, "lng": -62.43822, "population": 2524}, {"name": "El Hoyo", "lat": -42.06414, "lng": -71.51925, "population": 2498}, {"name": "Santa Isabel", "lat": -36.2302, "lng": -66.93897, "population": 2493}, {"name": "Maimará", "lat": -23.62454, "lng": -65.40913, "population": 2470}, {"name": "Nono", "lat": -31.79723, "lng": -65.00256, "population": 2408}, {"name": "La Granja", "lat": -31.00865, "lng": -64.26789, "population": 2406}, {"name": "Colonia Dora", "lat": -28.60036, "lng": -62.95238, "population": 2406}, {"name": "Caleufú", "lat": -35.59449, "lng": -64.55868, "population": 2396}, {"name": "Miguel Riglos", "lat": -36.8537, "lng": -63.68857, "population": 2385}, {"name": "Tío Pujio", "lat": -32.28752, "lng": -63.3549, "population": 2383}, {"name": "La Playosa", "lat": -32.09934, "lng": -63.03182, "population": 2376}, {"name": "Santiago Temple", "lat": -31.38597, "lng": -63.4196, "population": 2358}, {"name": "Unión", "lat": -35.15378, "lng": -65.94619, "population": 2341}, {"name": "Chavarría", "lat": -28.95525, "lng": -58.5718, "population": 2337}, {"name": "Ubajay", "lat": -31.79514, "lng": -58.31509, "population": 2334}, {"name": "Herradura", "lat": -26.48983, "lng": -58.31172, "population": 2333}, {"name": "Puerto Leoni", "lat": -26.98762, "lng": -55.16569, "population": 2329}, {"name": "Ordoñez", "lat": -32.84114, "lng": -62.86595, "population": 2328}, {"name": "Saturnino María Laspiur", "lat": -31.70349, "lng": -62.48346, "population": 2316}, {"name": "Hualfín", "lat": -27.22534, "lng": -66.83322, "population": 2304}, {"name": "Serrezuela", "lat": -30.63955, "lng": -65.38697, "population": 2291}, {"name": "Candelaria", "lat": -32.06124, "lng": -65.82482, "population": 2269}, {"name": "Gobernador Mansilla", "lat": -32.54548, "lng": -59.3566, "population": 2264}, {"name": "Gobernador López", "lat": -27.66628, "lng": -55.21352, "population": 2256}, {"name": "Mojón Grande", "lat": -27.71202, "lng": -55.15743, "population": 2233}, {"name": "Mariano Moreno", "lat": -38.76272, "lng": -70.03731, "population": 2225}, {"name": "Samuhú", "lat": -27.51908, "lng": -60.39409, "population": 2223}, {"name": "Buta Ranquil", "lat": -37.05222, "lng": -69.87713, "population": 2221}, {"name": "Maquinchao", "lat": -41.24912, "lng": -68.70321, "population": 2195}, {"name": "Arrufo", "lat": -30.23306, "lng": -61.72841, "population": 2190}, {"name": "Cachi", "lat": -25.12083, "lng": -66.1627, "population": 2189}, {"name": "Gobernador Costa", "lat": -44.04992, "lng": -70.59798, "population": 2185}, {"name": "Santa Eufemia", "lat": -33.17622, "lng": -63.28288, "population": 2179}, {"name": "Bonpland", "lat": -27.48347, "lng": -55.47784, "population": 2173}, {"name": "Achiras", "lat": -33.17685, "lng": -64.99442, "population": 2173}, {"name": "Villa Bustos", "lat": -29.28636, "lng": -67.02067, "population": 2165}, {"name": "El Hoyo", "lat": -27.01507, "lng": -63.23357, "population": 2162}, {"name": "Arroyo del Medio", "lat": -27.69748, "lng": -55.40376, "population": 2142}, {"name": "Alpachiri", "lat": -37.37683, "lng": -63.77323, "population": 2138}, {"name": "General Baldissera", "lat": -33.12196, "lng": -62.30356, "population": 2133}, {"name": "Yapeyú", "lat": -29.46907, "lng": -56.81837, "population": 2124}, {"name": "Capitán Solari", "lat": -26.80247, "lng": -59.55724, "population": 2123}, {"name": "Las Acequias", "lat": -33.28057, "lng": -63.97608, "population": 2116}, {"name": "Laguna Naick-Neck", "lat": -25.22183, "lng": -58.12066, "population": 2115}, {"name": "Yatayti Calle", "lat": -29.02831, "lng": -58.9123, "population": 2114}, {"name": "Caseros", "lat": -32.465, "lng": -58.47742, "population": 2109}, {"name": "Saldán", "lat": -31.315, "lng": -64.312, "population": 2099}, {"name": "Villa Ascasubi", "lat": -32.16274, "lng": -63.89237, "population": 2081}, {"name": "San Francisco del Chañar", "lat": -29.7883, "lng": -63.94411, "population": 2067}, {"name": "Santa Ana", "lat": -30.90069, "lng": -57.93194, "population": 2059}, {"name": "Pedro R. Fernández", "lat": -28.75115, "lng": -58.6549, "population": 2058}, {"name": "Los Antiguos", "lat": -46.54892, "lng": -71.6312, "population": 2047}, {"name": "Sebastián Elcano", "lat": -30.1604, "lng": -63.59245, "population": 2042}, {"name": "Villa Burruyacú", "lat": -26.50047, "lng": -64.74367, "population": 2037}, {"name": "Los Telares", "lat": -28.98507, "lng": -63.4504, "population": 2032}, {"name": "Mariano I. Loza", "lat": -29.37683, "lng": -58.19227, "population": 2015}, {"name": "Santa Rosa de Tastil", "lat": -24.45078, "lng": -65.95183, "population": 2000}, {"name": "La Adela", "lat": -38.98333, "lng": -64.08333, "population": 2000}, {"name": "Florentino Ameghino", "lat": -27.63335, "lng": -55.08372, "population": 1979}, {"name": "Miramar", "lat": -30.91508, "lng": -62.67504, "population": 1979}, {"name": "Anguil", "lat": -36.52583, "lng": -64.01007, "population": 1977}, {"name": "Felipe Yofré", "lat": -29.10339, "lng": -58.34124, "population": 1947}, {"name": "Villa Domínguez", "lat": -31.98629, "lng": -58.96163, "population": 1925}, {"name": "Villa Rumipal", "lat": -32.18941, "lng": -64.4792, "population": 1922}, {"name": "Obispo Trejo", "lat": -30.78119, "lng": -63.41012, "population": 1911}, {"name": "Los Varela", "lat": -27.93003, "lng": -65.87153, "population": 1908}, {"name": "Luján", "lat": -32.36674, "lng": -65.93642, "population": 1896}, {"name": "Ticino", "lat": -32.69328, "lng": -63.43646, "population": 1895}, {"name": "Corralito", "lat": -32.02369, "lng": -64.19201, "population": 1873}, {"name": "Doblas", "lat": -37.15047, "lng": -64.01153, "population": 1860}, {"name": "Alfredo Demarchi", "lat": -35.29238, "lng": -61.40573, "population": 1853}, {"name": "La Criolla", "lat": -31.26909, "lng": -58.10892, "population": 1852}, {"name": "Coronel Belisle", "lat": -39.18688, "lng": -65.95422, "population": 1841}, {"name": "Puerto Bermejo", "lat": -26.92739, "lng": -58.50917, "population": 1832}, {"name": "Hernández", "lat": -32.33748, "lng": -60.031, "population": 1801}, {"name": "Bernasconi", "lat": -37.90225, "lng": -63.74295, "population": 1781}, {"name": "Cruz de los Milagros", "lat": -28.83611, "lng": -59.00599, "population": 1768}, {"name": "Marull", "lat": -30.99391, "lng": -62.82537, "population": 1765}, {"name": "Hipólito Bouchard", "lat": -34.72387, "lng": -63.50733, "population": 1756}, {"name": "Pampa Almirón", "lat": -26.70039, "lng": -59.12331, "population": 1747}, {"name": "Añelo", "lat": -38.35426, "lng": -68.78754, "population": 1742}, {"name": "San Pedro de Guasayán", "lat": -27.95386, "lng": -65.16651, "population": 1715}, {"name": "Piedras Blancas", "lat": -31.18592, "lng": -59.95181, "population": 1714}, {"name": "Mattaldi", "lat": -34.48198, "lng": -64.17194, "population": 1714}, {"name": "Alto Río Senguer", "lat": -45.04188, "lng": -70.82338, "population": 1700}, {"name": "Santa María", "lat": -27.9349, "lng": -55.40742, "population": 1687}, {"name": "Palmar Grande", "lat": -27.94127, "lng": -57.90102, "population": 1672}, {"name": "Lonquimay", "lat": -36.46641, "lng": -63.62362, "population": 1672}, {"name": "Cote Lai", "lat": -27.53022, "lng": -59.57346, "population": 1650}, {"name": "Puerta de Corral Quemado", "lat": -27.22761, "lng": -66.93282, "population": 1634}, {"name": "Colonia Elía", "lat": -32.67144, "lng": -58.32538, "population": 1620}, {"name": "Bernardo Larroudé", "lat": -35.02646, "lng": -63.582, "population": 1619}, {"name": "Santa Catalina - Dique Lujan", "lat": -34.38375, "lng": -58.70673, "population": 1600}, {"name": "Viamonte", "lat": -33.74614, "lng": -63.09737, "population": 1598}, {"name": "Laguna Limpia", "lat": -26.49545, "lng": -59.68118, "population": 1594}, {"name": "Herrera", "lat": -32.43401, "lng": -58.63177, "population": 1587}, {"name": "Villa Concepción del Tío", "lat": -31.32212, "lng": -62.81399, "population": 1585}, {"name": "Aranguren", "lat": -32.24314, "lng": -60.16068, "population": 1581}, {"name": "Carnerillo", "lat": -32.9147, "lng": -64.02369, "population": 1575}, {"name": "Idiazabal", "lat": -32.81258, "lng": -63.03246, "population": 1567}, {"name": "Villa Urquiza", "lat": -31.64757, "lng": -60.37516, "population": 1566}, {"name": "Agua de Oro", "lat": -31.06224, "lng": -64.30064, "population": 1553}, {"name": "Cariló", "lat": -37.16524, "lng": -56.89133, "population": 1553}, {"name": "Wenceslao Escalante", "lat": -33.17166, "lng": -62.76931, "population": 1549}, {"name": "Telén", "lat": -36.26396, "lng": -65.51035, "population": 1549}, {"name": "Puerto Yeruá", "lat": -31.53328, "lng": -58.015, "population": 1541}, {"name": "Las Junturas", "lat": -31.83158, "lng": -63.45061, "population": 1541}, {"name": "Villa Mantero", "lat": -32.39837, "lng": -58.74607, "population": 1526}, {"name": "Carrilobo", "lat": -31.87353, "lng": -63.11747, "population": 1522}, {"name": "Los Laureles", "lat": -29.36847, "lng": -59.73634, "population": 1519}, {"name": "Altos de Chipión", "lat": -30.95722, "lng": -62.3384, "population": 1512}, {"name": "El Tío", "lat": -31.38543, "lng": -62.82821, "population": 1510}, {"name": "Juan Pujol", "lat": -30.41934, "lng": -57.85598, "population": 1487}, {"name": "Alta Italia", "lat": -35.33442, "lng": -64.11714, "population": 1481}, {"name": "Villa San Justo", "lat": -32.44569, "lng": -58.43541, "population": 1473}, {"name": "Villa Reducción", "lat": -33.20105, "lng": -63.86234, "population": 1467}, {"name": "Pilcaniyeu", "lat": -41.12288, "lng": -70.72152, "population": 1467}, {"name": "Conscripto Bernardi", "lat": -31.04686, "lng": -59.08404, "population": 1464}, {"name": "José de San Martín", "lat": -44.05139, "lng": -70.46955, "population": 1453}, {"name": "Lapachito", "lat": -27.16011, "lng": -59.38644, "population": 1448}, {"name": "Chorotis", "lat": -27.91626, "lng": -61.40331, "population": 1445}, {"name": "Colonia Libertad", "lat": -30.04328, "lng": -57.82175, "population": 1438}, {"name": "General Alvear", "lat": -27.42611, "lng": -55.16916, "population": 1431}, {"name": "Lomas de Vallejos", "lat": -27.73767, "lng": -57.91981, "population": 1415}, {"name": "Gato Colorado", "lat": -28.02219, "lng": -61.18663, "population": 1412}, {"name": "Ceibas", "lat": -33.49911, "lng": -58.80015, "population": 1405}, {"name": "El Huecú", "lat": -37.64491, "lng": -70.58102, "population": 1399}, {"name": "El Arañado", "lat": -31.74295, "lng": -62.88966, "population": 1395}, {"name": "La Maruja", "lat": -35.67383, "lng": -64.94017, "population": 1389}, {"name": "Río Pico", "lat": -44.17905, "lng": -71.36847, "population": 1386}, {"name": "Sierra Colorada", "lat": -40.58575, "lng": -67.75725, "population": 1374}, {"name": "Dalmacio Vélez", "lat": -32.60858, "lng": -63.58344, "population": 1344}, {"name": "Coronel Baigorria", "lat": -32.84861, "lng": -64.35967, "population": 1334}, {"name": "Tabossi", "lat": -31.80231, "lng": -59.93557, "population": 1333}, {"name": "Las Ovejas", "lat": -36.98897, "lng": -70.74952, "population": 1312}, {"name": "San Gustavo", "lat": -30.68979, "lng": -59.39881, "population": 1307}, {"name": "Comallo", "lat": -41.03005, "lng": -70.26932, "population": 1306}, {"name": "Pronunciamiento", "lat": -32.3448, "lng": -58.44268, "population": 1301}, {"name": "Embajador Martini", "lat": -35.38735, "lng": -64.28277, "population": 1298}, {"name": "Costasacate", "lat": -31.64816, "lng": -63.75963, "population": 1288}, {"name": "General Mosconi", "lat": -23.18454, "lng": -62.307, "population": 1279}, {"name": "Villa Escolar", "lat": -26.62272, "lng": -58.66983, "population": 1261}, {"name": "Santa Anita", "lat": -32.17387, "lng": -58.78526, "population": 1254}, {"name": "San Antonio de Litín", "lat": -32.21355, "lng": -62.63133, "population": 1240}, {"name": "Tres Capones", "lat": -28.00431, "lng": -55.60935, "population": 1234}, {"name": "San Carlos Minas", "lat": -31.1764, "lng": -65.10248, "population": 1215}, {"name": "Los Conquistadores", "lat": -30.59017, "lng": -58.46865, "population": 1214}, {"name": "Mutquin", "lat": -28.31539, "lng": -66.14787, "population": 1207}, {"name": "Salsacate", "lat": -31.31842, "lng": -65.09003, "population": 1205}, {"name": "Arata", "lat": -35.63895, "lng": -64.35621, "population": 1202}, {"name": "Loreto", "lat": -27.33177, "lng": -55.52499, "population": 1201}, {"name": "Uriburu", "lat": -36.50701, "lng": -63.86207, "population": 1200}, {"name": "Piquillín", "lat": -31.30077, "lng": -63.75849, "population": 1170}, {"name": "Herlitzka", "lat": -27.56606, "lng": -58.25935, "population": 1166}, {"name": "Villa Tulumba", "lat": -30.39546, "lng": -64.12232, "population": 1161}, {"name": "Cerro Corá", "lat": -27.51377, "lng": -55.60895, "population": 1153}, {"name": "Garruchos", "lat": -28.17208, "lng": -55.65406, "population": 1152}, {"name": "Cavanagh", "lat": -33.47763, "lng": -62.3391, "population": 1150}, {"name": "Susques", "lat": -23.39858, "lng": -66.36753, "population": 1140}, {"name": "La Cesira", "lat": -33.95357, "lng": -62.97738, "population": 1140}, {"name": "Italó", "lat": -34.79204, "lng": -63.78134, "population": 1139}, {"name": "La Tordilla", "lat": -31.23653, "lng": -63.06109, "population": 1138}, {"name": "Mártires", "lat": -27.42265, "lng": -55.37659, "population": 1135}, {"name": "Aldea San Antonio", "lat": -32.62317, "lng": -58.70512, "population": 1127}, {"name": "Colonia San Bartolomé", "lat": -31.52794, "lng": -62.72371, "population": 1104}, {"name": "Bella Italia", "lat": -31.28182, "lng": -61.41092, "population": 1100}, {"name": "Barrancas", "lat": -36.82344, "lng": -69.91564, "population": 1098}, {"name": "El Rodeo", "lat": -28.2127, "lng": -65.87649, "population": 1083}, {"name": "Camarones", "lat": -44.79845, "lng": -65.71033, "population": 1079}, {"name": "Puerta de San José", "lat": -27.54759, "lng": -67.00563, "population": 1073}, {"name": "Pasco", "lat": -32.74683, "lng": -63.34162, "population": 1072}, {"name": "Bonpland", "lat": -29.81708, "lng": -57.42974, "population": 1063}, {"name": "Ciervo Petiso", "lat": -26.58016, "lng": -59.63006, "population": 1055}, {"name": "Cintra", "lat": -32.30636, "lng": -62.65168, "population": 1054}, {"name": "Cañada de Luque", "lat": -30.73524, "lng": -63.72404, "population": 1054}, {"name": "Darwin", "lat": -39.20334, "lng": -65.73952, "population": 1052}, {"name": "Los Cocos", "lat": -30.92548, "lng": -64.50251, "population": 1035}, {"name": "Almafuerte", "lat": -27.50825, "lng": -55.40258, "population": 1022}, {"name": "Huanchillas", "lat": -33.66661, "lng": -63.63646, "population": 1020}, {"name": "Las Varas", "lat": -31.80251, "lng": -62.61669, "population": 1017}, {"name": "General Manuel J. Campos", "lat": -37.46145, "lng": -63.58576, "population": 1016}, {"name": "Chazón", "lat": -33.07876, "lng": -63.27638, "population": 1010}, {"name": "Charras", "lat": -33.02374, "lng": -64.04577, "population": 1001}, {"name": "Antofagasta de la Sierra", "lat": -26.05954, "lng": -67.40648, "population": 500}, {"name": "Villa General Roca", "lat": -32.66589, "lng": -66.4508, "population": 196}, {"name": "Verónica", "lat": -35.38732, "lng": -57.33839, "population": 0}, {"name": "Suipacha", "lat": -34.76881, "lng": -59.68683, "population": 0}, {"name": "Sauce", "lat": -30.08552, "lng": -58.78733, "population": 0}, {"name": "San Vicente", "lat": -35.0249, "lng": -58.42409, "population": 0}, {"name": "Santa Ana", "lat": -27.36924, "lng": -55.58167, "population": 0}, {"name": "San Roque", "lat": -28.57385, "lng": -58.7095, "population": 0}, {"name": "San Miguel del Monte", "lat": -35.43922, "lng": -58.80741, "population": 0}, {"name": "San Javier", "lat": -27.87398, "lng": -55.13485, "population": 0}, {"name": "San Ignacio", "lat": -27.25865, "lng": -55.53897, "population": 0}, {"name": "San Cayetano", "lat": -38.34677, "lng": -59.60938, "population": 0}, {"name": "San Antonio de Areco", "lat": -34.25083, "lng": -59.46944, "population": 0}, {"name": "San Andrés de Giles", "lat": -34.44738, "lng": -59.44442, "population": 0}, {"name": "Roque Pérez", "lat": -35.40058, "lng": -59.33483, "population": 0}, {"name": "Rauch", "lat": -36.77441, "lng": -59.08829, "population": 0}, {"name": "Ranchos", "lat": -35.51601, "lng": -58.3188, "population": 0}, {"name": "Pinamar", "lat": -37.11108, "lng": -56.86523, "population": 0}, {"name": "Pila", "lat": -36.00418, "lng": -58.14107, "population": 0}, {"name": "Olivos", "lat": -34.50872, "lng": -58.48026, "population": 0}, {"name": "Navarro", "lat": -35.00587, "lng": -59.27828, "population": 0}, {"name": "Miramar", "lat": -38.27161, "lng": -57.8389, "population": 0}, {"name": "Mar del Tuyú", "lat": -36.57429, "lng": -56.6939, "population": 0}, {"name": "Marcos Paz", "lat": -34.78233, "lng": -58.83777, "population": 0}, {"name": "Maipú", "lat": -36.86296, "lng": -57.88312, "population": 0}, {"name": "Magdalena", "lat": -35.07997, "lng": -57.51368, "population": 0}, {"name": "Lobos", "lat": -35.18537, "lng": -59.09788, "population": 0}, {"name": "Lobería", "lat": -38.16338, "lng": -58.78185, "population": 0}, {"name": "Leandro N. Alem", "lat": -27.60376, "lng": -55.32365, "population": 0}, {"name": "Las Flores", "lat": -36.01427, "lng": -59.09986, "population": 0}, {"name": "Lanús", "lat": -34.70757, "lng": -58.39132, "population": 0}, {"name": "Ituzaingó", "lat": -34.66041, "lng": -58.66624, "population": 0}, {"name": "Ciudad del Libertador General San Martín", "lat": -34.57789, "lng": -58.53864, "population": 0}, {"name": "General Rodríguez", "lat": -34.60658, "lng": -58.95221, "population": 0}, {"name": "General Lavalle", "lat": -36.40809, "lng": -56.94336, "population": 0}, {"name": "General Las Heras", "lat": -34.92682, "lng": -58.94667, "population": 0}, {"name": "General Juan Madariaga", "lat": -37.00196, "lng": -57.13584, "population": 0}, {"name": "General Guido", "lat": -36.64168, "lng": -57.79213, "population": 0}, {"name": "General Conesa", "lat": -36.52086, "lng": -57.32494, "population": 0}, {"name": "General Belgrano", "lat": -35.76842, "lng": -58.49444, "population": 0}, {"name": "San Juan Bautista", "lat": -34.80896, "lng": -58.27623, "population": 0}, {"name": "Ezeiza", "lat": -34.8544, "lng": -58.52474, "population": 0}, {"name": "El Espinillo", "lat": -24.98148, "lng": -58.55256, "population": 0}, {"name": "Ensenada", "lat": -34.86074, "lng": -57.91238, "population": 0}, {"name": "Empedrado", "lat": -27.95178, "lng": -58.80584, "population": 0}, {"name": "Eldorado", "lat": -26.40453, "lng": -54.61847, "population": 0}, {"name": "Coronel Vidal", "lat": -37.44652, "lng": -57.72939, "population": 0}, {"name": "Castelli", "lat": -36.09092, "lng": -57.80748, "population": 0}, {"name": "Caseros", "lat": -34.60688, "lng": -58.56392, "population": 0}, {"name": "Carmen de Areco", "lat": -34.3766, "lng": -59.82272, "population": 0}, {"name": "Capitán Sarmiento", "lat": -34.1713, "lng": -59.79146, "population": 0}, {"name": "Capilla del Señor", "lat": -34.29169, "lng": -59.10126, "population": 0}, {"name": "Cañuelas", "lat": -35.05379, "lng": -58.76205, "population": 0}, {"name": "Coronel Brandsen", "lat": -35.16799, "lng": -58.23742, "population": 0}, {"name": "Berón de Astrada", "lat": -27.55144, "lng": -57.53043, "population": 0}, {"name": "Berisso", "lat": -34.8715, "lng": -57.88328, "population": 0}, {"name": "Benito Juárez", "lat": -37.67188, "lng": -59.80653, "population": 0}, {"name": "Bella Vista", "lat": -28.50752, "lng": -59.04149, "population": 0}, {"name": "Belén de Escobar", "lat": -34.34602, "lng": -58.79442, "population": 0}, {"name": "Baradero", "lat": -33.81199, "lng": -59.50467, "population": 0}, {"name": "Guernica", "lat": -34.9162, "lng": -58.38111, "population": 0}, {"name": "Villa Unión", "lat": -29.41362, "lng": -62.7904, "population": 0}, {"name": "Villa Unión", "lat": -29.31654, "lng": -68.22745, "population": 0}, {"name": "Villa Santa Rosa", "lat": -31.74484, "lng": -68.31435, "population": 0}, {"name": "Villa Media Agua", "lat": -31.9831, "lng": -68.42499, "population": 0}, {"name": "Villa Krause", "lat": -31.56667, "lng": -68.53333, "population": 0}, {"name": "Villa de María", "lat": -29.90651, "lng": -63.7226, "population": 0}, {"name": "Villa El Salvador", "lat": -31.45328, "lng": -68.40392, "population": 0}, {"name": "Villa del Rosario", "lat": -31.55416, "lng": -63.53562, "population": 0}, {"name": "Villa Castelli", "lat": -29.01447, "lng": -68.22339, "population": 0}, {"name": "Villa Aberastain", "lat": -31.65805, "lng": -68.57953, "population": 0}, {"name": "Vedia", "lat": -34.49791, "lng": -61.54231, "population": 0}, {"name": "Valle Grande", "lat": -23.47604, "lng": -64.94822, "population": 0}, {"name": "Ulapes", "lat": -31.57323, "lng": -66.23709, "population": 0}, {"name": "Tupungato", "lat": -33.36926, "lng": -69.14781, "population": 0}, {"name": "Tunuyán", "lat": -33.58125, "lng": -69.01537, "population": 0}, {"name": "Tumbaya", "lat": -23.85814, "lng": -65.46704, "population": 0}, {"name": "Tres Lomas", "lat": -36.45912, "lng": -62.86243, "population": 0}, {"name": "Trenque Lauquen", "lat": -35.97334, "lng": -62.73275, "population": 0}, {"name": "Tornquist", "lat": -38.10128, "lng": -62.22295, "population": 0}, {"name": "Toay", "lat": -36.6739, "lng": -64.37979, "population": 0}, {"name": "Telsen", "lat": -42.43553, "lng": -66.94321, "population": 0}, {"name": "Tecka", "lat": -43.49287, "lng": -70.81078, "population": 0}, {"name": "Tamberías", "lat": -31.45868, "lng": -69.422, "population": 0}, {"name": "Tama", "lat": -30.50726, "lng": -66.52954, "population": 0}, {"name": "Selva", "lat": -29.76825, "lng": -62.04753, "population": 0}, {"name": "Saujil", "lat": -28.17471, "lng": -66.21604, "population": 0}, {"name": "Santa Victoria", "lat": -22.25124, "lng": -64.96549, "population": 0}, {"name": "Santa Rosa", "lat": -33.25407, "lng": -68.15066, "population": 0}, {"name": "Santa María", "lat": -26.69456, "lng": -66.04805, "population": 0}, {"name": "Santa Catalina", "lat": -21.94567, "lng": -66.05188, "population": 0}, {"name": "Sañogasta", "lat": -29.0952, "lng": -67.11586, "population": 0}, {"name": "San Lorenzo", "lat": -32.74341, "lng": -60.73613, "population": 0}, {"name": "San José", "lat": -28.38756, "lng": -65.70087, "population": 0}, {"name": "San Isidro", "lat": -28.45775, "lng": -65.72498, "population": 0}, {"name": "San Carlos de Bolívar", "lat": -36.23071, "lng": -61.1157, "population": 0}, {"name": "San Carlos", "lat": -25.89317, "lng": -65.92906, "population": 0}, {"name": "San Blas", "lat": -28.4078, "lng": -67.09189, "population": 0}, {"name": "San Antonio", "lat": -24.36841, "lng": -65.33409, "population": 0}, {"name": "Salliqueló", "lat": -36.75151, "lng": -62.95913, "population": 0}, {"name": "Rosario de Lerma", "lat": -24.98583, "lng": -65.5784, "population": 0}, {"name": "Rosario de la Frontera", "lat": -25.79856, "lng": -64.97386, "population": 0}, {"name": "Rojas", "lat": -34.19774, "lng": -60.7337, "population": 0}, {"name": "Rodeo", "lat": -30.21014, "lng": -69.13262, "population": 0}, {"name": "Rivadavia", "lat": -33.19097, "lng": -68.4622, "population": 0}, {"name": "Rivadavia", "lat": -31.53245, "lng": -68.59731, "population": 0}, {"name": "Rivadavia", "lat": -24.18552, "lng": -62.88535, "population": 0}, {"name": "Rinconada", "lat": -22.44084, "lng": -66.16724, "population": 0}, {"name": "Ramallo", "lat": -33.48508, "lng": -60.00629, "population": 0}, {"name": "Puelches", "lat": -38.1463, "lng": -65.91404, "population": 0}, {"name": "Puán", "lat": -37.5481, "lng": -62.76834, "population": 0}, {"name": "Pozo Hondo", "lat": -27.16707, "lng": -64.49076, "population": 0}, {"name": "Pigüé", "lat": -37.60255, "lng": -62.40836, "population": 0}, {"name": "Pellegrini", "lat": -36.26725, "lng": -63.16518, "population": 0}, {"name": "Patquía", "lat": -30.04728, "lng": -66.87999, "population": 0}, {"name": "Paso de Indios", "lat": -43.86439, "lng": -69.04659, "population": 0}, {"name": "Olta", "lat": -30.63024, "lng": -66.26671, "population": 0}, {"name": "Nueva Esperanza", "lat": -26.19907, "lng": -64.23792, "population": 0}, {"name": "Ñorquincó", "lat": -41.85029, "lng": -70.90194, "population": 0}, {"name": "Monte Quemado", "lat": -25.80357, "lng": -62.83013, "population": 0}, {"name": "Monte Hermoso", "lat": -38.9825, "lng": -61.29472, "population": 0}, {"name": "Molinos", "lat": -25.43935, "lng": -66.29412, "population": 0}, {"name": "Milagro", "lat": -31.00831, "lng": -65.99103, "population": 0}, {"name": "San José de Metán", "lat": -25.49711, "lng": -64.97106, "population": 0}, {"name": "Melincué", "lat": -33.66087, "lng": -61.45654, "population": 0}, {"name": "Médanos", "lat": -38.82923, "lng": -62.69348, "population": 0}, {"name": "Malargüe", "lat": -35.47791, "lng": -69.58521, "population": 0}, {"name": "Malanzán", "lat": -30.80476, "lng": -66.60394, "population": 0}, {"name": "Maipú", "lat": -32.98462, "lng": -68.78821, "population": 0}, {"name": "Lules", "lat": -26.9282, "lng": -65.33852, "population": 0}, {"name": "Luján de Cuyo", "lat": -33.03917, "lng": -68.87955, "population": 0}, {"name": "Limay Mahuida", "lat": -37.15966, "lng": -66.67436, "population": 0}, {"name": "San Martín", "lat": -32.41065, "lng": -65.67569, "population": 0}, {"name": "Leleque", "lat": -42.41295, "lng": -71.07115, "population": 0}, {"name": "La Viña", "lat": -25.46744, "lng": -65.56691, "population": 0}, {"name": "Las Plumas", "lat": -43.72163, "lng": -67.28424, "population": 0}, {"name": "Las Heras", "lat": -32.85034, "lng": -68.84052, "population": 0}, {"name": "Las Coloradas", "lat": -39.55641, "lng": -70.59415, "population": 0}, {"name": "La Puerta", "lat": -28.15635, "lng": -65.79387, "population": 0}, {"name": "Laprida", "lat": -37.54423, "lng": -60.80103, "population": 0}, {"name": "La Poma", "lat": -24.72256, "lng": -66.20058, "population": 0}, {"name": "La Paz", "lat": -33.4617, "lng": -67.55228, "population": 0}, {"name": "La Merced", "lat": -28.15441, "lng": -65.65944, "population": 0}, {"name": "La Consulta", "lat": -33.73385, "lng": -69.11988, "population": 0}, {"name": "La Candelaria", "lat": -26.12734, "lng": -65.05132, "population": 0}, {"name": "La Cañada", "lat": -27.70951, "lng": -63.77255, "population": 0}, {"name": "La Caldera", "lat": -24.60477, "lng": -65.38181, "population": 0}, {"name": "La Banda", "lat": -27.73044, "lng": -64.24383, "population": 0}, {"name": "Junín", "lat": -33.14653, "lng": -68.48727, "population": 0}, {"name": "Iruya", "lat": -22.79189, "lng": -65.21703, "population": 0}, {"name": "Herrera", "lat": -28.48291, "lng": -63.06624, "population": 0}, {"name": "Henderson", "lat": -36.29818, "lng": -61.71856, "population": 0}, {"name": "Helvecia", "lat": -31.10066, "lng": -60.08805, "population": 0}, {"name": "Guaminí", "lat": -37.01381, "lng": -62.41858, "population": 0}, {"name": "Guachipas", "lat": -25.52247, "lng": -65.50932, "population": 0}, {"name": "Godoy Cruz", "lat": -32.92533, "lng": -68.84428, "population": 0}, {"name": "Gobernador Gregores", "lat": -48.75057, "lng": -70.24741, "population": 0}, {"name": "Los Toldos", "lat": -34.99997, "lng": -61.03874, "population": 0}, {"name": "General Pinto", "lat": -34.76431, "lng": -61.89154, "population": 0}, {"name": "General Güemes", "lat": -24.67445, "lng": -65.0466, "population": 0}, {"name": "Villa Tulumaya", "lat": -32.72145, "lng": -68.59578, "population": 0}, {"name": "General La Madrid", "lat": -37.24675, "lng": -61.26312, "population": 0}, {"name": "General Arenales", "lat": -34.30337, "lng": -61.30708, "population": 0}, {"name": "General Alvear", "lat": -36.02174, "lng": -60.0145, "population": 0}, {"name": "General Alvear", "lat": -34.97747, "lng": -67.69618, "population": 0}, {"name": "Gastre", "lat": -42.26186, "lng": -69.22112, "population": 0}, {"name": "Garza", "lat": -28.15294, "lng": -63.53887, "population": 0}, {"name": "Frías", "lat": -28.63754, "lng": -65.12873, "population": 0}, {"name": "Fernández", "lat": -27.92532, "lng": -63.89459, "population": 0}, {"name": "Famatina", "lat": -28.92264, "lng": -67.52016, "population": 0}, {"name": "El Simbolar", "lat": -27.97167, "lng": -64.89544, "population": 0}, {"name": "El Cuy", "lat": -39.92609, "lng": -68.34275, "population": 0}, {"name": "El Carmen", "lat": -24.38934, "lng": -65.26164, "population": 0}, {"name": "El Alto", "lat": -28.31061, "lng": -65.36444, "population": 0}, {"name": "Daireaux", "lat": -36.60023, "lng": -61.74997, "population": 0}, {"name": "Cuchillo Có", "lat": -38.33368, "lng": -64.64225, "population": 0}, {"name": "Coronel Pringles", "lat": -37.98567, "lng": -61.3504, "population": 0}, {"name": "Concepción", "lat": -27.34127, "lng": -65.59636, "population": 0}, {"name": "Colón", "lat": -33.89713, "lng": -61.09942, "population": 0}, {"name": "Chumbicha", "lat": -28.85319, "lng": -66.23756, "population": 0}, {"name": "Chepes", "lat": -31.34363, "lng": -66.58894, "population": 0}, {"name": "Cerrillos", "lat": -24.89715, "lng": -65.48445, "population": 0}, {"name": "Carlos Tejedor", "lat": -35.39155, "lng": -62.41982, "population": 0}, {"name": "Carlos Casares", "lat": -35.62247, "lng": -61.3655, "population": 0}, {"name": "Carhué", "lat": -37.17948, "lng": -62.75999, "population": 0}, {"name": "Brea Pozo", "lat": -28.24385, "lng": -63.95334, "population": 0}, {"name": "Bragado", "lat": -35.11557, "lng": -60.48965, "population": 0}, {"name": "Belén", "lat": -27.64953, "lng": -67.02632, "population": 0}, {"name": "Bandera", "lat": -28.88809, "lng": -62.26902, "population": 0}, {"name": "Banda del Río Salí", "lat": -26.84031, "lng": -65.16285, "population": 0}, {"name": "Bañado de Ovanta", "lat": -28.10566, "lng": -65.31793, "population": 0}, {"name": "Árraga", "lat": -28.05129, "lng": -64.22379, "population": 0}, {"name": "Aminga", "lat": -28.84771, "lng": -66.93024, "population": 0}, {"name": "Florentino Ameghino", "lat": -34.84405, "lng": -62.46701, "population": 0}, {"name": "Algarrobo del Águila", "lat": -36.40053, "lng": -67.14457, "population": 0}, {"name": "Alberti", "lat": -35.03157, "lng": -60.28029, "population": 0}, {"name": "Adolfo Gonzáles Chaves", "lat": -38.03241, "lng": -60.09941, "population": 0}, {"name": "Avellaneda", "lat": -34.66018, "lng": -58.36744, "population": 0}, {"name": "Rincón de Los Sauces", "lat": -37.39844, "lng": -68.92874, "population": 0}, {"name": "La Colonia", "lat": -33.09894, "lng": -68.4805, "population": 0}]