[{"name": "Vienna", "lat": 48.20849, "lng": 16.37208, "population": 1691468}, {"name": "Graz", "lat": 47.06733, "lng": 15.44197, "population": 303270}, {"name": "Linz", "lat": 48.30639, "lng": 14.28611, "population": 204846}, {"name": "Favoriten", "lat": 48.16116, "lng": 16.38233, "population": 201882}, {"name": "Donaustadt", "lat": 48.2333, "lng": 16.46002, "population": 187007}, {"name": "Floridsdorf", "lat": 48.25, "lng": 16.4, "population": 162779}, {"name": "Salzburg", "lat": 47.79941, "lng": 13.04399, "population": 157245}, {"name": "Innsbruck", "lat": 47.26266, "lng": 11.39454, "population": 132493}, {"name": "Ottakring", "lat": 48.21667, "lng": 16.3, "population": 104627}, {"name": "Simmering", "lat": 48.18333, "lng": 16.43333, "population": 101420}, {"name": "Klagenfurt am Wörthersee", "lat": 46.62472, "lng": 14.30528, "population": 100316}, {"name": "Landstraße", "lat": 48.2019, "lng": 16.38792, "population": 98389}, {"name": "Penzing", "lat": 48.2, "lng": 16.26667, "population": 98176}, {"name": "Meidling", "lat": 48.16667, "lng": 16.33333, "population": 97624}, {"name": "Brigittenau", "lat": 48.24275, "lng": 16.37551, "population": 86967}, {"name": "Fünfhaus", "lat": 48.19596, "lng": 16.3183, "population": 76396}, {"name": "Döbling", "lat": 48.25, "lng": 16.33333, "population": 75418}, {"name": "Villach", "lat": 46.61028, "lng": 13.85583, "population": 58882}, {"name": "Hernals", "lat": 48.22544, "lng": 16.30871, "population": 57546}, {"name": "Margareten", "lat": 48.1855, "lng": 16.35373, "population": 54412}, {"name": "Hietzing", "lat": 48.18623, "lng": 16.2965, "population": 54265}, {"name": "Währing", "lat": 48.22611, "lng": 16.34484, "population": 51402}, {"name": "Aspern", "lat": 48.21806, "lng": 16.48306, "population": 50687}, {"name": "Dornbirn", "lat": 47.41427, "lng": 9.74195, "population": 49278}, {"name": "Wiener Neustadt", "lat": 47.80485, "lng": 16.23196, "population": 44820}, {"name": "Alsergrund", "lat": 48.22321, "lng": 16.35506, "population": 41645}, {"name": "Steyr", "lat": 48.04274, "lng": 14.42127, "population": 38331}, {"name": "Hötting", "lat": 47.26815, "lng": 11.36868, "population": 35043}, {"name": "Feldkirch", "lat": 47.23306, "lng": 9.6, "population": 33420}, {"name": "Jakomini", "lat": 47.05441, "lng": 15.44984, "population": 32912}, {"name": "Pradl", "lat": 47.26539, "lng": 11.4152, "population": 32588}, {"name": "Neubau", "lat": 48.20172, "lng": 16.34715, "population": 31521}, {"name": "Mariahilf", "lat": 48.19571, "lng": 16.35215, "population": 31381}, {"name": "Lend", "lat": 47.08256, "lng": 15.41589, "population": 31147}, {"name": "Bregenz", "lat": 47.50311, "lng": 9.7471, "population": 29806}, {"name": "Gries", "lat": 47.06236, "lng": 15.42421, "population": 29363}, {"name": "Baden", "lat": 48.00543, "lng": 16.23264, "population": 26286}, {"name": "Traun", "lat": 48.22086, "lng": 14.23833, "population": 25345}, {"name": "Wolfsberg", "lat": 46.84056, "lng": 14.84417, "population": 25035}, {"name": "Geidorf", "lat": 47.08393, "lng": 15.444, "population": 24767}, {"name": "Josefstadt", "lat": 48.21243, "lng": 16.34549, "population": 24499}, {"name": "Lustenau", "lat": 47.42642, "lng": 9.65851, "population": 22821}, {"name": "Sankt Pölten", "lat": 48.20762, "lng": 15.63725, "population": 21911}, {"name": "Essling", "lat": 48.21289, "lng": 16.52442, "population": 21200}, {"name": "Mödling", "lat": 48.08605, "lng": 16.28921, "population": 20555}, {"name": "Eggenberg", "lat": 47.07, "lng": 15.39871, "population": 20511}, {"name": "Sankt Peter", "lat": 46.62978, "lng": 14.34016, "population": 20320}, {"name": "Sankt Martin", "lat": 46.61667, "lng": 14.28333, "population": 20000}, {"name": "Andritz", "lat": 47.11387, "lng": 15.42348, "population": 19020}, {"name": "Wilten", "lat": 47.25829, "lng": 11.38808, "population": 18142}, {"name": "Wels", "lat": 48.16667, "lng": 14.03333, "population": 16857}, {"name": "Saalfelden am Steinernen Meer", "lat": 47.42681, "lng": 12.848, "population": 16790}, {"name": "Innere Stadt", "lat": 48.20906, "lng": 16.37135, "population": 16450}, {"name": "Hohenems", "lat": 47.36121, "lng": 9.68694, "population": 16317}, {"name": "Stockerau", "lat": 48.38333, "lng": 16.21667, "population": 16292}, {"name": "Straßgang", "lat": 47.03333, "lng": 15.4, "population": 16268}, {"name": "Sankt Leonhard", "lat": 47.06924, "lng": 15.45784, "population": 15853}, {"name": "Wetzelsdorf", "lat": 47.05293, "lng": 15.39923, "population": 15687}, {"name": "Klosterneuburg", "lat": 48.30521, "lng": 16.32522, "population": 15614}, {"name": "Amstetten", "lat": 48.1229, "lng": 14.87206, "population": 15559}, {"name": "Telfs", "lat": 47.30707, "lng": 11.06817, "population": 15229}, {"name": "Sankt Peter", "lat": 47.05, "lng": 15.46667, "population": 15187}, {"name": "Bludenz", "lat": 47.15476, "lng": 9.82255, "population": 15102}, {"name": "Perchtoldsdorf", "lat": 48.11935, "lng": 16.26607, "population": 15047}, {"name": "Krems an der Donau", "lat": 48.40921, "lng": 15.61415, "population": 14473}, {"name": "Liebenau", "lat": 47.03333, "lng": 15.46667, "population": 14447}, {"name": "Wörgl", "lat": 47.48906, "lng": 12.06174, "population": 13811}, {"name": "Schwaz", "lat": 47.35169, "lng": 11.71014, "population": 13728}, {"name": "Hard", "lat": 47.48306, "lng": 9.68306, "population": 13495}, {"name": "Hall in Tirol", "lat": 47.28333, "lng": 11.51667, "population": 13334}, {"name": "Gmunden", "lat": 47.91839, "lng": 13.79933, "population": 13191}, {"name": "Korneuburg", "lat": 48.35, "lng": 16.33333, "population": 12986}, {"name": "Spittal an der Drau", "lat": 46.8, "lng": 13.5, "population": 12880}, {"name": "Tulln", "lat": 48.32829, "lng": 16.05858, "population": 12421}, {"name": "Schwechat", "lat": 48.13333, "lng": 16.46667, "population": 12351}, {"name": "Waltendorf", "lat": 47.06667, "lng": 15.46667, "population": 11960}, {"name": "Ried im Innkreis", "lat": 48.21123, "lng": 13.48855, "population": 11903}, {"name": "Brunn am Gebirge", "lat": 48.10697, "lng": 16.28466, "population": 11864}, {"name": "Rankweil", "lat": 47.27108, "lng": 9.64308, "population": 11855}, {"name": "Lienz", "lat": 46.8289, "lng": 12.76903, "population": 11572}, {"name": "Knittelfeld", "lat": 47.21667, "lng": 14.81667, "population": 11521}, {"name": "Götzis", "lat": 47.33306, "lng": 9.63306, "population": 11473}, {"name": "Neunkirchen", "lat": 47.72096, "lng": 16.08107, "population": 11461}, {"name": "Gänserndorf", "lat": 48.33925, "lng": 16.72016, "population": 11404}, {"name": "Annabichl", "lat": 46.65, "lng": 14.31667, "population": 11374}, {"name": "Gösting", "lat": 47.09788, "lng": 15.39777, "population": 11255}, {"name": "Arzl", "lat": 47.28333, "lng": 11.43333, "population": 11082}, {"name": "Sankt Veit an der Glan", "lat": 46.76806, "lng": 14.36028, "population": 10841}, {"name": "Imst", "lat": 47.24504, "lng": 10.73974, "population": 10504}, {"name": "Lauterach", "lat": 47.47572, "lng": 9.72941, "population": 10267}, {"name": "Strasshof an der Nordbahn", "lat": 48.31667, "lng": 16.66667, "population": 10009}, {"name": "Laakirchen", "lat": 47.98188, "lng": 13.82166, "population": 9861}, {"name": "Kufstein", "lat": 47.58333, "lng": 12.16667, "population": 9848}, {"name": "Enns", "lat": 48.21346, "lng": 14.47612, "population": 9812}, {"name": "Purkersdorf", "lat": 48.20769, "lng": 16.17539, "population": 9701}, {"name": "Mariatrost", "lat": 47.09641, "lng": 15.46537, "population": 9631}, {"name": "Gerasdorf bei Wien", "lat": 48.29447, "lng": 16.46765, "population": 9442}, {"name": "Sankt Johann in Tirol", "lat": 47.5233, "lng": 12.4232, "population": 9428}, {"name": "Viktring", "lat": 46.59194, "lng": 14.26917, "population": 9407}, {"name": "Wiener Neudorf", "lat": 48.08278, "lng": 16.31384, "population": 9405}, {"name": "Voitsberg", "lat": 47.04445, "lng": 15.15313, "population": 9403}, {"name": "Sankt Valentin", "lat": 48.16667, "lng": 14.51667, "population": 9340}, {"name": "Weiz", "lat": 47.21667, "lng": 15.61667, "population": 9221}, {"name": "Eisenstadt", "lat": 47.84565, "lng": 16.52327, "population": 9217}, {"name": "Rum", "lat": 47.28333, "lng": 11.45, "population": 9190}, {"name": "Guntramsdorf", "lat": 48.04687, "lng": 16.31384, "population": 9179}, {"name": "Bruck an der Mur", "lat": 47.41667, "lng": 15.28333, "population": 9093}, {"name": "Neu-Guntramsdorf", "lat": 48.0642, "lng": 16.31573, "population": 9071}, {"name": "Berndorf", "lat": 47.94567, "lng": 16.10973, "population": 9064}, {"name": "Attnang-Puchheim", "lat": 48.00833, "lng": 13.71667, "population": 8908}, {"name": "Maria Enzersdorf", "lat": 48.1, "lng": 16.28333, "population": 8829}, {"name": "Puntigam", "lat": 47.03333, "lng": 15.43333, "population": 8647}, {"name": "Leibnitz", "lat": 46.78161, "lng": 15.53836, "population": 8533}, {"name": "Judenburg", "lat": 47.16667, "lng": 14.66667, "population": 8481}, {"name": "Wolfurt", "lat": 47.46667, "lng": 9.75, "population": 8446}, {"name": "Deutschlandsberg", "lat": 46.81528, "lng": 15.22222, "population": 8429}, {"name": "Villacher Vorstadt", "lat": 46.62368, "lng": 14.28892, "population": 8421}, {"name": "Finkenstein am Faaker See", "lat": 46.56081, "lng": 13.87115, "population": 8406}, {"name": "Marchtrenk", "lat": 48.19022, "lng": 14.10908, "population": 8394}, {"name": "Kitzbühel", "lat": 47.44637, "lng": 12.39215, "population": 8272}, {"name": "Leoben", "lat": 47.3765, "lng": 15.09144, "population": 8264}, {"name": "Neusiedl am See", "lat": 47.94901, "lng": 16.8417, "population": 8235}, {"name": "Villach-Innere Stadt", "lat": 46.61275, "lng": 13.84638, "population": 8189}, {"name": "Zirl", "lat": 47.2741, "lng": 11.23961, "population": 8162}, {"name": "Langenzersdorf", "lat": 48.30432, "lng": 16.36143, "population": 8137}, {"name": "Höchst", "lat": 47.45934, "lng": 9.6405, "population": 7995}, {"name": "Wattens", "lat": 47.29419, "lng": 11.5907, "population": 7881}, {"name": "Trofaiach", "lat": 47.42524, "lng": 15.00681, "population": 7728}, {"name": "Seiersberg", "lat": 47.0, "lng": 15.4, "population": 7728}, {"name": "Landeck", "lat": 47.13988, "lng": 10.56593, "population": 7725}, {"name": "Zell am See", "lat": 47.32306, "lng": 12.79839, "population": 7619}, {"name": "Vorchdorf", "lat": 48.00388, "lng": 13.92122, "population": 7475}, {"name": "Bad Vöslau", "lat": 47.96533, "lng": 16.21359, "population": 7469}, {"name": "Bischofshofen", "lat": 47.41667, "lng": 13.21667, "population": 7457}, {"name": "Sankt Ruprecht", "lat": 46.6, "lng": 14.31667, "population": 7442}, {"name": "Haid", "lat": 48.20477, "lng": 14.25107, "population": 7424}, {"name": "Kottingbrunn", "lat": 47.95096, "lng": 16.22715, "population": 7417}, {"name": "Freistadt", "lat": 48.51103, "lng": 14.50453, "population": 7397}, {"name": "Ternitz", "lat": 47.71565, "lng": 16.03575, "population": 7378}, {"name": "Mattersburg", "lat": 47.73333, "lng": 16.4, "population": 7349}, {"name": "Oberwart", "lat": 47.28971, "lng": 16.20595, "population": 7288}, {"name": "Hallein", "lat": 47.68333, "lng": 13.1, "population": 7208}, {"name": "Jenbach", "lat": 47.39173, "lng": 11.77245, "population": 7120}, {"name": "Absam", "lat": 47.29572, "lng": 11.50593, "population": 7112}, {"name": "Vösendorf", "lat": 48.12107, "lng": 16.34036, "population": 6990}, {"name": "Sankt Martin", "lat": 48.23091, "lng": 14.26781, "population": 6984}, {"name": "Hollabrunn", "lat": 48.55, "lng": 16.08333, "population": 6882}, {"name": "Bruck an der Leitha", "lat": 48.0242, "lng": 16.7757, "population": 6882}, {"name": "Gratkorn", "lat": 47.13333, "lng": 15.35, "population": 6806}, {"name": "Völs", "lat": 47.25, "lng": 11.33333, "population": 6738}, {"name": "Reutte", "lat": 47.48333, "lng": 10.71667, "population": 6704}, {"name": "Altach", "lat": 47.35438, "lng": 9.65207, "population": 6624}, {"name": "Groß-Enzersdorf", "lat": 48.20278, "lng": 16.55083, "population": 6616}, {"name": "Traiskirchen", "lat": 48.01485, "lng": 16.29324, "population": 6608}, {"name": "Liezen", "lat": 47.56667, "lng": 14.23333, "population": 6587}, {"name": "Kremsmünster", "lat": 48.0529, "lng": 14.12919, "population": 6585}, {"name": "Hainburg an der Donau", "lat": 48.14627, "lng": 16.94504, "population": 6570}, {"name": "Auen", "lat": 46.59963, "lng": 13.84389, "population": 6563}, {"name": "Wilhelmsburg", "lat": 48.10571, "lng": 15.60539, "population": 6557}, {"name": "Mattighofen", "lat": 48.10732, "lng": 13.15081, "population": 6524}, {"name": "Hafendorf", "lat": 47.45653, "lng": 15.31837, "population": 6506}, {"name": "Gallneukirchen", "lat": 48.35363, "lng": 14.41604, "population": 6492}, {"name": "Mistelbach", "lat": 48.57, "lng": 16.57667, "population": 6463}, {"name": "Frastanz", "lat": 47.21735, "lng": 9.62995, "population": 6434}, {"name": "Gleisdorf", "lat": 47.10559, "lng": 15.71011, "population": 6418}, {"name": "Spratzern", "lat": 48.17044, "lng": 15.61844, "population": 6376}, {"name": "Hörbranz", "lat": 47.55, "lng": 9.75, "population": 6346}, {"name": "Fürstenfeld", "lat": 47.05, "lng": 16.08333, "population": 6327}, {"name": "Neuhofen an der Krems", "lat": 48.13866, "lng": 14.22764, "population": 6269}, {"name": "Pressbaum", "lat": 48.18333, "lng": 16.08333, "population": 6237}, {"name": "Lichtenegg", "lat": 48.15, "lng": 14.0, "population": 6163}, {"name": "Pöllau", "lat": 47.3, "lng": 15.83333, "population": 6014}, {"name": "Mürzzuschlag", "lat": 47.6066, "lng": 15.67226, "population": 5975}, {"name": "Kirchbichl", "lat": 47.51743, "lng": 12.09629, "population": 5855}, {"name": "Micheldorf in Oberösterreich", "lat": 47.87764, "lng": 14.13357, "population": 5854}, {"name": "Breitenfurt bei Wien", "lat": 48.13333, "lng": 16.15, "population": 5853}, {"name": "Ries", "lat": 47.08315, "lng": 15.485, "population": 5819}, {"name": "Perg", "lat": 48.25, "lng": 14.63333, "population": 5812}, {"name": "Oberndorf bei Salzburg", "lat": 47.93911, "lng": 12.95108, "population": 5794}, {"name": "Kirchenviertel", "lat": 47.13124, "lng": 15.34764, "population": 5791}, {"name": "Amras", "lat": 47.25, "lng": 11.41667, "population": 5771}, {"name": "Wimpassing", "lat": 48.16667, "lng": 13.98333, "population": 5748}, {"name": "Lochau", "lat": 47.53333, "lng": 9.75, "population": 5747}, {"name": "Fischamend", "lat": 48.11843, "lng": 16.61211, "population": 5708}, {"name": "Hart", "lat": 48.26526, "lng": 14.25691, "population": 5610}, {"name": "Deuchendorf", "lat": 47.46593, "lng": 15.32172, "population": 5507}, {"name": "Horn", "lat": 48.66274, "lng": 15.65663, "population": 5494}, {"name": "Judendorf", "lat": 47.4, "lng": 15.1, "population": 5475}, {"name": "Völkendorf", "lat": 46.60806, "lng": 13.83153, "population": 5474}, {"name": "Pinkafeld", "lat": 47.3709, "lng": 16.1241, "population": 5438}, {"name": "Mühlau", "lat": 47.28333, "lng": 11.4, "population": 5435}, {"name": "Neuzeug", "lat": 48.05, "lng": 14.33333, "population": 5346}, {"name": "Himberg", "lat": 48.08333, "lng": 16.43333, "population": 5331}, {"name": "Wölfnitz", "lat": 46.66639, "lng": 14.25806, "population": 5316}, {"name": "Bad Hall", "lat": 48.03832, "lng": 14.20773, "population": 5296}, {"name": "Haag", "lat": 48.27063, "lng": 14.26875, "population": 5273}, {"name": "Schärding", "lat": 48.45294, "lng": 13.43722, "population": 5253}, {"name": "Lind", "lat": 46.62244, "lng": 13.84715, "population": 5252}, {"name": "Kirchberg in Tirol", "lat": 47.44539, "lng": 12.31602, "population": 5245}, {"name": "Ebreichsdorf", "lat": 47.95579, "lng": 16.40705, "population": 5236}, {"name": "Kindberg", "lat": 47.5, "lng": 15.45, "population": 5197}, {"name": "Kalsdorf bei Graz", "lat": 46.96528, "lng": 15.48028, "population": 5171}, {"name": "Axams", "lat": 47.23111, "lng": 11.27892, "population": 5130}, {"name": "Oberhaid", "lat": 48.17593, "lng": 14.01495, "population": 5100}, {"name": "Leopoldsdorf", "lat": 48.11557, "lng": 16.39126, "population": 5078}, {"name": "Sollenau", "lat": 47.89834, "lng": 16.24833, "population": 5038}, {"name": "WÖS", "lat": 48.16553, "lng": 14.03651, "population": 5000}, {"name": "Hart bei Graz", "lat": 47.04311, "lng": 15.51527, "population": 4972}, {"name": "Gablitz", "lat": 48.22856, "lng": 16.15437, "population": 4968}, {"name": "Nüziders", "lat": 47.16667, "lng": 9.8, "population": 4962}, {"name": "Henndorf am Wallersee", "lat": 47.9, "lng": 13.18333, "population": 4947}, {"name": "Leobersdorf", "lat": 47.92796, "lng": 16.21651, "population": 4915}, {"name": "Bürmoos", "lat": 47.98343, "lng": 12.91786, "population": 4899}, {"name": "Laahen", "lat": 48.17192, "lng": 14.00637, "population": 4836}, {"name": "Feldbach", "lat": 46.95306, "lng": 15.88833, "population": 4829}, {"name": "Pottschach", "lat": 47.69856, "lng": 16.00725, "population": 4826}, {"name": "Eggendorf", "lat": 47.85809, "lng": 16.32182, "population": 4794}, {"name": "Langenlois", "lat": 48.46667, "lng": 15.66667, "population": 4777}, {"name": "Laa an der Thaya", "lat": 48.71667, "lng": 16.38333, "population": 4777}, {"name": "Neustift im Stubaital", "lat": 47.11667, "lng": 11.31667, "population": 4747}, {"name": "Gloggnitz", "lat": 47.67487, "lng": 15.93893, "population": 4730}, {"name": "Sankt Johann im Pongau", "lat": 47.35, "lng": 13.2, "population": 4690}, {"name": "Parndorf", "lat": 47.99963, "lng": 16.86049, "population": 4689}, {"name": "Fischamend-Markt", "lat": 48.11667, "lng": 16.6, "population": 4688}, {"name": "Gmünd", "lat": 48.7683, "lng": 14.9808, "population": 4674}, {"name": "Leonding", "lat": 48.27965, "lng": 14.2533, "population": 4657}, {"name": "Völkermarkt", "lat": 46.66222, "lng": 14.63444, "population": 4653}, {"name": "Deutsch-Wagram", "lat": 48.29972, "lng": 16.56667, "population": 4632}, {"name": "Oberwaltersdorf", "lat": 47.97567, "lng": 16.32191, "population": 4618}, {"name": "Längenfeld", "lat": 47.07398, "lng": 10.96951, "population": 4611}, {"name": "Möllersdorf", "lat": 48.02575, "lng": 16.30508, "population": 4587}, {"name": "Koblach", "lat": 47.33306, "lng": 9.6, "population": 4577}, {"name": "Vasoldsberg", "lat": 47.01634, "lng": 15.55835, "population": 4572}, {"name": "Neudörfl", "lat": 47.79655, "lng": 16.2977, "population": 4564}, {"name": "Grieskirchen", "lat": 48.23333, "lng": 13.83333, "population": 4515}, {"name": "Völkermarkter Vorstadt", "lat": 46.62418, "lng": 14.32081, "population": 4511}, {"name": "Pottendorf", "lat": 47.9, "lng": 16.38333, "population": 4508}, {"name": "Viehofen", "lat": 48.21667, "lng": 15.61667, "population": 4507}, {"name": "Kirchdorf an der Krems", "lat": 47.90558, "lng": 14.12228, "population": 4502}, {"name": "Altmünster", "lat": 47.90219, "lng": 13.76415, "population": 4496}, {"name": "Zeltweg", "lat": 47.18333, "lng": 14.75, "population": 4463}, {"name": "Neumarkt am Wallersee", "lat": 47.95, "lng": 13.23333, "population": 4456}, {"name": "Mils bei Solbad Hall", "lat": 47.28333, "lng": 11.53333, "population": 4377}, {"name": "Köflach", "lat": 47.06667, "lng": 15.08333, "population": 4375}, {"name": "Nenzing", "lat": 47.18436, "lng": 9.70539, "population": 4357}, {"name": "Kössen", "lat": 47.6699, "lng": 12.40545, "population": 4346}, {"name": "Ferlach", "lat": 46.52694, "lng": 14.30194, "population": 4342}, {"name": "Ybbs an der Donau", "lat": 48.16667, "lng": 15.08333, "population": 4310}, {"name": "Landskron", "lat": 46.62907, "lng": 13.88434, "population": 4304}, {"name": "Bernardin", "lat": 48.16042, "lng": 14.00834, "population": 4300}, {"name": "Thalheim bei Wels", "lat": 48.15, "lng": 14.03333, "population": 4294}, {"name": "Felixdorf", "lat": 47.88159, "lng": 16.24208, "population": 4292}, {"name": "Fieberbrunn", "lat": 47.47626, "lng": 12.54347, "population": 4287}, {"name": "Waidhofen an der Thaya", "lat": 48.81667, "lng": 15.28333, "population": 4280}, {"name": "Schwanenstadt", "lat": 48.05537, "lng": 13.77505, "population": 4264}, {"name": "Spielberg bei Knittelfeld", "lat": 47.21667, "lng": 14.78333, "population": 4228}, {"name": "Altenmarkt im Pongau", "lat": 47.38333, "lng": 13.41667, "population": 4218}, {"name": "Scheibbs", "lat": 48.00474, "lng": 15.16817, "population": 4196}, {"name": "Altheim", "lat": 48.25154, "lng": 13.23406, "population": 4195}, {"name": "Braunau am Inn", "lat": 48.25628, "lng": 13.04343, "population": 4194}, {"name": "Bärnbach", "lat": 47.07141, "lng": 15.12792, "population": 4178}, {"name": "Hartberg", "lat": 47.28333, "lng": 15.96667, "population": 4170}, {"name": "Wieselburg", "lat": 48.13333, "lng": 15.13333, "population": 4143}, {"name": "Oberwagram", "lat": 48.20157, "lng": 15.64917, "population": 4135}, {"name": "Ebensee", "lat": 47.80716, "lng": 13.779, "population": 4125}, {"name": "Oberalm", "lat": 47.7, "lng": 13.1, "population": 4117}, {"name": "Wolkersdorf im Weinviertel", "lat": 48.38333, "lng": 16.51667, "population": 4115}, {"name": "Bisamberg", "lat": 48.33125, "lng": 16.3609, "population": 4110}, {"name": "Eferding", "lat": 48.30866, "lng": 14.02233, "population": 4100}, {"name": "Walding", "lat": 48.35209, "lng": 14.1576, "population": 4095}, {"name": "Puch bei Hallein", "lat": 47.71536, "lng": 13.09296, "population": 4065}, {"name": "Götzens", "lat": 47.23606, "lng": 11.31154, "population": 4062}, {"name": "Eisenerz", "lat": 47.53333, "lng": 14.88333, "population": 4048}, {"name": "Mäder", "lat": 47.35, "lng": 9.61667, "population": 4031}, {"name": "Bad Schallerbach", "lat": 48.22999, "lng": 13.91925, "population": 4028}, {"name": "Sierning", "lat": 48.04343, "lng": 14.30935, "population": 4025}, {"name": "Bad Gastein", "lat": 47.11547, "lng": 13.13467, "population": 3980}, {"name": "Thaur", "lat": 47.29476, "lng": 11.47529, "population": 3979}, {"name": "Obertrum am See", "lat": 47.93722, "lng": 13.07722, "population": 3966}, {"name": "Schwarzach", "lat": 47.44904, "lng": 9.76213, "population": 3949}, {"name": "Seebach", "lat": 46.61667, "lng": 13.86667, "population": 3938}, {"name": "Sankt Stefan im Rosental", "lat": 46.90389, "lng": 15.71, "population": 3929}, {"name": "Gainfarn", "lat": 47.9628, "lng": 16.19368, "population": 3926}, {"name": "Zwettl Stadt", "lat": 48.60726, "lng": 15.16714, "population": 3900}, {"name": "Gumpoldskirchen", "lat": 48.04538, "lng": 16.2771, "population": 3899}, {"name": "Schwertberg", "lat": 48.2734, "lng": 14.58474, "population": 3895}, {"name": "Fußach", "lat": 47.47933, "lng": 9.66278, "population": 3871}, {"name": "Gols", "lat": 47.89689, "lng": 16.91113, "population": 3835}, {"name": "Grossarl", "lat": 47.23333, "lng": 13.2, "population": 3825}, {"name": "Grünburg", "lat": 47.97234, "lng": 14.26472, "population": 3824}, {"name": "Schruns", "lat": 47.08028, "lng": 9.91917, "population": 3818}, {"name": "Innere Stadt", "lat": 47.0665, "lng": 15.44051, "population": 3818}, {"name": "Waidhofen an der Ybbs", "lat": 47.96004, "lng": 14.77361, "population": 3811}, {"name": "Vöcklabruck", "lat": 48.00279, "lng": 13.65652, "population": 3789}, {"name": "Sankt Veit im Pongau", "lat": 47.33333, "lng": 13.15, "population": 3788}, {"name": "Melk", "lat": 48.22737, "lng": 15.33186, "population": 3788}, {"name": "Sankt Georgen an der Gusen", "lat": 48.27183, "lng": 14.44951, "population": 3779}, {"name": "Gunskirchen", "lat": 48.13333, "lng": 13.95, "population": 3778}, {"name": "Kundl", "lat": 47.46667, "lng": 11.98333, "population": 3771}, {"name": "Strasswalchen", "lat": 47.97947, "lng": 13.25535, "population": 3765}, {"name": "Volders", "lat": 47.28333, "lng": 11.56667, "population": 3754}, {"name": "Göss", "lat": 47.35871, "lng": 15.10015, "population": 3752}, {"name": "Grödig", "lat": 47.73833, "lng": 13.0373, "population": 3751}, {"name": "Mondsee", "lat": 47.85648, "lng": 13.34908, "population": 3734}, {"name": "Gratwein", "lat": 47.11667, "lng": 15.31667, "population": 3729}, {"name": "Taxach", "lat": 47.7261, "lng": 13.07184, "population": 3724}, {"name": "Mayrhofen", "lat": 47.16667, "lng": 11.86667, "population": 3720}, {"name": "St. Veiter Vorstadt", "lat": 46.6317, "lng": 14.30579, "population": 3674}, {"name": "Haidershofen", "lat": 48.07579, "lng": 14.46131, "population": 3670}, {"name": "Westendorf", "lat": 47.43208, "lng": 12.21406, "population": 3652}, {"name": "Stadl-Traun", "lat": 48.07963, "lng": 13.8614, "population": 3643}, {"name": "Trumau", "lat": 47.99348, "lng": 16.34268, "population": 3640}, {"name": "Söll", "lat": 47.50378, "lng": 12.19221, "population": 3631}, {"name": "Wals", "lat": 47.78333, "lng": 12.96667, "population": 3626}, {"name": "Langholzfeld", "lat": 48.24297, "lng": 14.24772, "population": 3622}, {"name": "Neualm", "lat": 47.69336, "lng": 13.08758, "population": 3602}, {"name": "Seekirchen am Wallersee", "lat": 47.9, "lng": 13.13333, "population": 3579}, {"name": "Inzing", "lat": 47.2737, "lng": 11.19751, "population": 3566}, {"name": "Pichling bei Köflach", "lat": 47.04785, "lng": 15.07098, "population": 3562}, {"name": "Hof bei Salzburg", "lat": 47.81929, "lng": 13.21488, "population": 3562}, {"name": "Donawitz", "lat": 47.36667, "lng": 15.06667, "population": 3536}, {"name": "Murau", "lat": 47.11056, "lng": 14.16944, "population": 3534}, {"name": "Tribuswinkel", "lat": 48.00623, "lng": 16.27075, "population": 3533}, {"name": "Grosspetersdorf", "lat": 47.23895, "lng": 16.31783, "population": 3531}, {"name": "Althofen", "lat": 46.87298, "lng": 14.47449, "population": 3531}, {"name": "Schwarzach im Pongau", "lat": 47.32048, "lng": 13.15171, "population": 3515}, {"name": "Pöchlarn", "lat": 48.2, "lng": 15.2, "population": 3515}, {"name": "Wördern", "lat": 48.334, "lng": 16.21016, "population": 3509}, {"name": "Tamsweg", "lat": 47.12808, "lng": 13.81102, "population": 3509}, {"name": "Theresienfeld", "lat": 47.85, "lng": 16.23333, "population": 3485}, {"name": "Hinterbrühl", "lat": 48.08611, "lng": 16.24809, "population": 3466}, {"name": "Gramatneusiedl", "lat": 48.0304, "lng": 16.48936, "population": 3461}, {"name": "Pfaffstätten", "lat": 48.01737, "lng": 16.26354, "population": 3458}, {"name": "Traisen", "lat": 48.03333, "lng": 15.6, "population": 3453}, {"name": "Schladming", "lat": 47.39289, "lng": 13.68699, "population": 3452}, {"name": "Seefeld in Tirol", "lat": 47.33016, "lng": 11.18786, "population": 3440}, {"name": "Viktringer Vorstadt", "lat": 46.61773, "lng": 14.30931, "population": 3436}, {"name": "Neufeld an der Leitha", "lat": 47.86558, "lng": 16.37856, "population": 3418}, {"name": "Seitenstetten Markt", "lat": 48.03333, "lng": 14.65, "population": 3394}, {"name": "Voldöpp", "lat": 47.44469, "lng": 11.88343, "population": 3386}, {"name": "Ludesch", "lat": 47.2, "lng": 9.78306, "population": 3371}, {"name": "Ternberg", "lat": 47.94518, "lng": 14.3587, "population": 3367}, {"name": "Burgfried", "lat": 47.68004, "lng": 13.11175, "population": 3358}, {"name": "Mauerbach", "lat": 48.24514, "lng": 16.16793, "population": 3339}, {"name": "Attnang", "lat": 48.01667, "lng": 13.71667, "population": 3339}, {"name": "Mannersdorf am Leithagebirge", "lat": 47.96667, "lng": 16.6, "population": 3328}, {"name": "Münster", "lat": 47.42164, "lng": 11.83356, "population": 3317}, {"name": "Göfis", "lat": 47.23356, "lng": 9.63458, "population": 3312}, {"name": "Untere Fellach", "lat": 46.62504, "lng": 13.82681, "population": 3307}, {"name": "Weyer", "lat": 47.85717, "lng": 14.66409, "population": 3296}, {"name": "Kapfenberg", "lat": 47.44458, "lng": 15.29331, "population": 3296}, {"name": "Vomp", "lat": 47.33333, "lng": 11.68333, "population": 3287}, {"name": "Lambach", "lat": 48.09276, "lng": 13.87453, "population": 3279}, {"name": "Kaltenleutgeben", "lat": 48.11646, "lng": 16.19956, "population": 3276}, {"name": "Bürs", "lat": 47.14972, "lng": 9.8, "population": 3275}, {"name": "Krumpendorf", "lat": 46.62526, "lng": 14.21664, "population": 3264}, {"name": "Mattsee", "lat": 47.96667, "lng": 13.1, "population": 3263}, {"name": "Schrems", "lat": 48.78333, "lng": 15.06667, "population": 3248}, {"name": "Alberschwende", "lat": 47.45025, "lng": 9.83152, "population": 3247}, {"name": "Schärding Vorstadt", "lat": 48.45195, "lng": 13.43946, "population": 3246}, {"name": "Kierling", "lat": 48.30997, "lng": 16.27616, "population": 3243}, {"name": "St. Agathen und Perau", "lat": 46.60627, "lng": 13.85615, "population": 3230}, {"name": "Ottensheim", "lat": 48.33246, "lng": 14.17425, "population": 3228}, {"name": "Ober-Grafendorf", "lat": 48.1504, "lng": 15.54531, "population": 3228}, {"name": "Asten", "lat": 48.21941, "lng": 14.41784, "population": 3214}, {"name": "Weidling", "lat": 48.291, "lng": 16.30865, "population": 3212}, {"name": "Sankt Florian", "lat": 48.20568, "lng": 14.37836, "population": 3209}, {"name": "Kaprun", "lat": 47.27239, "lng": 12.75985, "population": 3177}, {"name": "Lieboch", "lat": 46.97417, "lng": 15.3375, "population": 3175}, {"name": "Kittsee", "lat": 48.0925, "lng": 17.06389, "population": 3162}, {"name": "Laab", "lat": 48.2611, "lng": 13.05418, "population": 3150}, {"name": "Zams", "lat": 47.15844, "lng": 10.5897, "population": 3148}, {"name": "Rannersdorf", "lat": 48.12772, "lng": 16.46379, "population": 3144}, {"name": "Doppl", "lat": 48.24811, "lng": 14.25416, "population": 3136}, {"name": "Leitring", "lat": 46.77957, "lng": 15.55915, "population": 3132}, {"name": "Seeboden", "lat": 46.81909, "lng": 13.5143, "population": 3123}, {"name": "Langenwang", "lat": 47.56667, "lng": 15.61667, "population": 3119}, {"name": "Fernitz", "lat": 46.97389, "lng": 15.50111, "population": 3119}, {"name": "Klaus", "lat": 47.36333, "lng": 9.87778, "population": 3118}, {"name": "Klaus", "lat": 47.30913, "lng": 9.64678, "population": 3118}, {"name": "Katzelsdorf", "lat": 47.78055, "lng": 16.26985, "population": 3112}, {"name": "Frohnleiten", "lat": 47.26667, "lng": 15.31667, "population": 3106}, {"name": "Eggenburg", "lat": 48.63892, "lng": 15.81903, "population": 3096}, {"name": "Ebergassing", "lat": 48.04567, "lng": 16.51709, "population": 3090}, {"name": "Loosdorf", "lat": 48.2, "lng": 15.4, "population": 3064}, {"name": "Krieglach", "lat": 47.54728, "lng": 15.56248, "population": 3062}, {"name": "Timelkam", "lat": 48.00394, "lng": 13.6076, "population": 3061}, {"name": "Rechnitz", "lat": 47.30467, "lng": 16.44095, "population": 3054}, {"name": "Ebbs", "lat": 47.63333, "lng": 12.21667, "population": 3050}, {"name": "Oedt", "lat": 48.21335, "lng": 14.21013, "population": 3046}, {"name": "Oberperfuss", "lat": 47.24451, "lng": 11.24755, "population": 3043}, {"name": "Fulpmes", "lat": 47.15202, "lng": 11.34922, "population": 3038}, {"name": "Priel", "lat": 46.82758, "lng": 14.8333, "population": 3034}, {"name": "Ennsdorf", "lat": 48.21181, "lng": 14.5029, "population": 3031}, {"name": "Fliess", "lat": 47.11667, "lng": 10.61667, "population": 3019}, {"name": "Gröbming", "lat": 47.44272, "lng": 13.90122, "population": 3013}, {"name": "Sankt Dionysen", "lat": 48.22439, "lng": 14.25485, "population": 3012}, {"name": "Hornstein", "lat": 47.88049, "lng": 16.44447, "population": 3012}, {"name": "Münchendorf", "lat": 48.03333, "lng": 16.38333, "population": 2992}, {"name": "Biedermannsdorf", "lat": 48.08393, "lng": 16.34542, "population": 2988}, {"name": "Steyregg", "lat": 48.28513, "lng": 14.36995, "population": 2987}, {"name": "Sankt Georgen im Attergau", "lat": 47.93595, "lng": 13.48306, "population": 2986}, {"name": "Lenzing", "lat": 47.97326, "lng": 13.60846, "population": 2981}, {"name": "Wienersdorf", "lat": 48.00819, "lng": 16.29169, "population": 2971}, {"name": "Brandln", "lat": 48.1451, "lng": 13.99504, "population": 2964}, {"name": "Siegendorf im Burgenland", "lat": 47.78098, "lng": 16.54232, "population": 2963}, {"name": "Elixhausen", "lat": 47.86667, "lng": 13.06667, "population": 2963}, {"name": "Siezenheim", "lat": 47.81529, "lng": 12.99039, "population": 2951}, {"name": "Herzogenburg", "lat": 48.28137, "lng": 15.69431, "population": 2951}, {"name": "Bad Hofgastein", "lat": 47.17274, "lng": 13.09871, "population": 2951}, {"name": "Pöttsching", "lat": 47.80445, "lng": 16.37109, "population": 2950}, {"name": "Fohnsdorf", "lat": 47.20798, "lng": 14.67586, "population": 2947}, {"name": "Hausmannstätten", "lat": 46.99111, "lng": 15.51139, "population": 2934}, {"name": "Mautern", "lat": 48.39319, "lng": 15.57793, "population": 2917}, {"name": "Reding", "lat": 46.81667, "lng": 14.85, "population": 2914}, {"name": "Puchheim", "lat": 48.0, "lng": 13.71667, "population": 2904}, {"name": "Purbach am Neusiedler See", "lat": 47.91289, "lng": 16.69561, "population": 2901}, {"name": "Kleinhöflein im Burgenland", "lat": 47.84151, "lng": 16.50413, "population": 2868}, {"name": "Haselbach", "lat": 48.25308, "lng": 13.05614, "population": 2862}, {"name": "Frauenkirchen", "lat": 47.83678, "lng": 16.92581, "population": 2862}, {"name": "Andorf", "lat": 48.3713, "lng": 13.57412, "population": 2851}, {"name": "Pregarten", "lat": 48.35488, "lng": 14.53217, "population": 2846}, {"name": "Feldkirchen in Kärnten", "lat": 46.72368, "lng": 14.0958, "population": 2831}, {"name": "Unterwaltersdorf", "lat": 47.95, "lng": 16.41667, "population": 2829}, {"name": "Laxenburg", "lat": 48.06833, "lng": 16.35607, "population": 2828}, {"name": "Ellmau", "lat": 47.51378, "lng": 12.29937, "population": 2828}, {"name": "Strassengel", "lat": 47.11573, "lng": 15.33288, "population": 2822}, {"name": "Kematen in Tirol", "lat": 47.25, "lng": 11.26667, "population": 2822}, {"name": "Lassnitzhöhe", "lat": 47.06667, "lng": 15.58333, "population": 2817}, {"name": "Ramsau am Dachstein", "lat": 47.4215, "lng": 13.65545, "population": 2812}, {"name": "Leobendorf", "lat": 48.38333, "lng": 16.31667, "population": 2802}, {"name": "Forchtenstein", "lat": 47.71161, "lng": 16.34525, "population": 2796}, {"name": "Kirchdorf in Tirol", "lat": 47.55626, "lng": 12.44511, "population": 2795}, {"name": "Sankt Wolfgang im Salzkammergut", "lat": 47.73932, "lng": 13.44666, "population": 2794}, {"name": "Zistersdorf", "lat": 48.54252, "lng": 16.76136, "population": 2792}, {"name": "Deutschkreutz", "lat": 47.6, "lng": 16.63333, "population": 2791}, {"name": "Seewalchen", "lat": 47.95246, "lng": 13.58382, "population": 2780}, {"name": "Bad Häring", "lat": 47.51071, "lng": 12.11912, "population": 2777}, {"name": "Haag", "lat": 48.11362, "lng": 14.56753, "population": 2777}, {"name": "Bergheim", "lat": 47.8472, "lng": 13.02914, "population": 2777}, {"name": "Pörtschach am Wörthersee", "lat": 46.63639, "lng": 14.14639, "population": 2751}, {"name": "Traismauer", "lat": 48.35, "lng": 15.73333, "population": 2750}, {"name": "Dürnau", "lat": 47.9971, "lng": 13.64459, "population": 2747}, {"name": "Hohenau an der March", "lat": 48.6042, "lng": 16.9047, "population": 2738}, {"name": "Niederndorf", "lat": 47.65, "lng": 12.21667, "population": 2736}, {"name": "Lichtenwörth", "lat": 47.82756, "lng": 16.29873, "population": 2727}, {"name": "Bruckneudorf", "lat": 48.0197, "lng": 16.778, "population": 2721}, {"name": "Güssing", "lat": 47.05936, "lng": 16.32431, "population": 2719}, {"name": "Steinach am Brenner", "lat": 47.08333, "lng": 11.46667, "population": 2716}, {"name": "Blindenmarkt", "lat": 48.12749, "lng": 14.98647, "population": 2712}, {"name": "Rohrbach bei Mattersburg", "lat": 47.7052, "lng": 16.43005, "population": 2707}, {"name": "Satteins", "lat": 47.21667, "lng": 9.66667, "population": 2703}, {"name": "Wiesen", "lat": 47.73776, "lng": 16.33798, "population": 2691}, {"name": "Mitterndorf an der Fischa", "lat": 47.99739, "lng": 16.47357, "population": 2685}, {"name": "Aldrans", "lat": 47.25, "lng": 11.45, "population": 2684}, {"name": "Puchberg am Schneeberg", "lat": 47.78709, "lng": 15.91352, "population": 2683}, {"name": "Weigelsdorf", "lat": 47.95, "lng": 16.4, "population": 2680}, {"name": "Puchenau", "lat": 48.31214, "lng": 14.23614, "population": 2663}, {"name": "Stegersbach", "lat": 47.16667, "lng": 16.16667, "population": 2658}, {"name": "Wildon", "lat": 46.88333, "lng": 15.51667, "population": 2652}, {"name": "Bad Erlach", "lat": 47.72722, "lng": 16.21444, "population": 2651}, {"name": "Hopfgarten im Brixental", "lat": 47.4498, "lng": 12.15659, "population": 2646}, {"name": "Euratsfeld", "lat": 48.08181, "lng": 14.93154, "population": 2639}, {"name": "Brixen im Thale", "lat": 47.45, "lng": 12.25, "population": 2639}, {"name": "Sankt Margarethen im Burgenland", "lat": 47.80335, "lng": 16.60875, "population": 2636}, {"name": "Vandans", "lat": 47.09569, "lng": 9.86525, "population": 2636}, {"name": "Kematen an der Ybbs", "lat": 48.02541, "lng": 14.76468, "population": 2625}, {"name": "Poysdorf", "lat": 48.66667, "lng": 16.63333, "population": 2620}, {"name": "Fügen", "lat": 47.347, "lng": 11.84939, "population": 2617}, {"name": "Böheimkirchen", "lat": 48.19779, "lng": 15.76178, "population": 2617}, {"name": "Grossgmain", "lat": 47.72416, "lng": 12.90851, "population": 2615}, {"name": "Steinbrunn", "lat": 47.83333, "lng": 16.41667, "population": 2614}, {"name": "Purgstall", "lat": 48.05841, "lng": 15.13478, "population": 2605}, {"name": "Pfunds", "lat": 46.96667, "lng": 10.55, "population": 2602}, {"name": "Heidenreichstein", "lat": 48.86667, "lng": 15.11667, "population": 2593}, {"name": "Ehrwald", "lat": 47.4, "lng": 10.91667, "population": 2593}, {"name": "Elsbethen", "lat": 47.76464, "lng": 13.08104, "population": 2587}, {"name": "Hirtenberg", "lat": 47.93095, "lng": 16.17908, "population": 2586}, {"name": "Leitendorf", "lat": 47.36667, "lng": 15.08333, "population": 2568}, {"name": "Wöllersdorf", "lat": 47.865, "lng": 16.17119, "population": 2567}, {"name": "Andelsbuch", "lat": 47.41167, "lng": 9.89326, "population": 2565}, {"name": "Ebenfurth", "lat": 47.87738, "lng": 16.36731, "population": 2564}, {"name": "Alpbach", "lat": 47.39878, "lng": 11.94373, "population": 2561}, {"name": "Neukirchen", "lat": 47.87502, "lng": 13.71111, "population": 2555}, {"name": "Zell", "lat": 47.58333, "lng": 12.15, "population": 2551}, {"name": "Buch in Tirol", "lat": 47.37447, "lng": 11.754, "population": 2548}, {"name": "Eugendorf", "lat": 47.86765, "lng": 13.12609, "population": 2544}, {"name": "Gössendorf", "lat": 46.99826, "lng": 15.48556, "population": 2539}, {"name": "Silz", "lat": 47.26667, "lng": 10.93333, "population": 2536}, {"name": "Sulz", "lat": 47.28721, "lng": 9.65183, "population": 2527}, {"name": "Berndorf", "lat": 47.41667, "lng": 15.26667, "population": 2522}, {"name": "Schwoich", "lat": 47.546, "lng": 12.14049, "population": 2515}, {"name": "Niklasdorf", "lat": 47.38333, "lng": 15.15, "population": 2515}, {"name": "Radfeld", "lat": 47.44806, "lng": 11.91424, "population": 2495}, {"name": "Pottenstein", "lat": 47.9582, "lng": 16.0948, "population": 2495}, {"name": "Retz", "lat": 48.75712, "lng": 15.95485, "population": 2493}, {"name": "Matrei in Osttirol", "lat": 47.0, "lng": 12.53333, "population": 2482}, {"name": "Weerberg", "lat": 47.29841, "lng": 11.66592, "population": 2482}, {"name": "Reiterndorf", "lat": 47.70364, "lng": 13.62914, "population": 2481}, {"name": "Haus im Ennstal", "lat": 47.41058, "lng": 13.76759, "population": 2475}, {"name": "Maurach", "lat": 47.42124, "lng": 11.75305, "population": 2458}, {"name": "Sankt Lorenzen im Mürztal", "lat": 47.48333, "lng": 15.36667, "population": 2457}, {"name": "Kritzendorf", "lat": 48.32932, "lng": 16.30011, "population": 2457}, {"name": "Igls", "lat": 47.23127, "lng": 11.41018, "population": 2444}, {"name": "Debant", "lat": 46.83333, "lng": 12.81667, "population": 2441}, {"name": "Hörtendorf", "lat": 46.63333, "lng": 14.4, "population": 2437}, {"name": "Molln", "lat": 47.88723, "lng": 14.25819, "population": 2434}, {"name": "Rohrbach in Oberösterreich", "lat": 48.57275, "lng": 13.98834, "population": 2432}, {"name": "Kaindorf an der Sulm", "lat": 46.79248, "lng": 15.53879, "population": 2432}, {"name": "Haiming", "lat": 47.25, "lng": 10.88333, "population": 2428}, {"name": "Weiden am See", "lat": 47.92532, "lng": 16.86899, "population": 2426}, {"name": "Thalgau", "lat": 47.84142, "lng": 13.25325, "population": 2424}, {"name": "Egg", "lat": 47.43154, "lng": 9.89762, "population": 2422}, {"name": "Sankt Martin", "lat": 47.44667, "lng": 15.2849, "population": 2417}, {"name": "Sankt Martin", "lat": 46.61721, "lng": 13.82879, "population": 2416}, {"name": "Endach", "lat": 47.56796, "lng": 12.15603, "population": 2415}, {"name": "Radstadt", "lat": 47.38333, "lng": 13.45, "population": 2410}, {"name": "Pasching", "lat": 48.25931, "lng": 14.20369, "population": 2409}, {"name": "Trieben", "lat": 47.48574, "lng": 14.48744, "population": 2408}, {"name": "Königstetten", "lat": 48.30198, "lng": 16.14492, "population": 2406}, {"name": "Schlins", "lat": 47.2, "lng": 9.7, "population": 2404}, {"name": "Oetz", "lat": 47.2, "lng": 10.9, "population": 2402}, {"name": "Windischgarsten", "lat": 47.72223, "lng": 14.32755, "population": 2392}, {"name": "Sankt Georgen am Leithagebirge", "lat": 47.85, "lng": 16.55, "population": 2391}, {"name": "Leopoldsdorf im Marchfelde", "lat": 48.22261, "lng": 16.68858, "population": 2391}, {"name": "Pottenbrunn", "lat": 48.23333, "lng": 15.7, "population": 2390}, {"name": "Gralla", "lat": 46.81404, "lng": 15.5551, "population": 2390}, {"name": "Bludesch", "lat": 47.2, "lng": 9.73306, "population": 2386}, {"name": "Illmitz", "lat": 47.76148, "lng": 16.80024, "population": 2385}, {"name": "Mauerkirchen", "lat": 48.19173, "lng": 13.13338, "population": 2384}, {"name": "Leutasch", "lat": 47.3689, "lng": 11.14404, "population": 2380}, {"name": "Schattendorf", "lat": 47.70973, "lng": 16.50979, "population": 2379}, {"name": "Lassee", "lat": 48.22479, "lng": 16.8223, "population": 2379}, {"name": "Wolfern", "lat": 48.08278, "lng": 14.37201, "population": 2374}, {"name": "Werndorf", "lat": 46.92417, "lng": 15.49083, "population": 2365}, {"name": "Jennersdorf", "lat": 46.93848, "lng": 16.14158, "population": 2358}, {"name": "Pernitz", "lat": 47.89759, "lng": 15.96022, "population": 2356}, {"name": "Bartholomäberg", "lat": 47.09245, "lng": 9.90813, "population": 2341}, {"name": "Gießhübl", "lat": 48.0978, "lng": 16.23479, "population": 2335}, {"name": "Velden am Wörther See", "lat": 46.61301, "lng": 14.0413, "population": 2325}, {"name": "Freindorf", "lat": 48.2257, "lng": 14.2951, "population": 2320}, {"name": "Ranshofen", "lat": 48.23308, "lng": 13.01571, "population": 2319}, {"name": "Krumbach Markt", "lat": 47.52183, "lng": 16.19419, "population": 2316}, {"name": "Rietz", "lat": 47.28593, "lng": 11.03075, "population": 2313}, {"name": "Warmbad-Judendorf", "lat": 46.60126, "lng": 13.82241, "population": 2302}, {"name": "Deutschfeistritz", "lat": 47.19852, "lng": 15.33623, "population": 2297}, {"name": "Markt Piesting", "lat": 47.87358, "lng": 16.1251, "population": 2294}, {"name": "Wagnitz", "lat": 46.98333, "lng": 15.46667, "population": 2286}, {"name": "Andau", "lat": 47.77441, "lng": 17.03293, "population": 2285}, {"name": "Garsten", "lat": 48.0224, "lng": 14.40747, "population": 2284}, {"name": "Unterwagram", "lat": 48.21243, "lng": 15.64951, "population": 2283}, {"name": "Mauer bei Amstetten", "lat": 48.09643, "lng": 14.8006, "population": 2278}, {"name": "Wagna", "lat": 46.76682, "lng": 15.55906, "population": 2277}, {"name": "Biberbach", "lat": 48.03006, "lng": 14.70795, "population": 2270}, {"name": "Mörbisch am See", "lat": 47.75, "lng": 16.66667, "population": 2261}, {"name": "Thal", "lat": 47.07644, "lng": 15.36052, "population": 2261}, {"name": "Sistrans", "lat": 47.23333, "lng": 11.45, "population": 2255}, {"name": "Reinbach", "lat": 47.34673, "lng": 13.19072, "population": 2253}, {"name": "Zurndorf", "lat": 47.98314, "lng": 17.00315, "population": 2247}, {"name": "Meiningen", "lat": 47.29891, "lng": 9.57862, "population": 2245}, {"name": "Dietersdorf", "lat": 47.20795, "lng": 14.66333, "population": 2240}, {"name": "Mönchhof", "lat": 47.8802, "lng": 16.94126, "population": 2236}, {"name": "Ernsthofen", "lat": 48.12915, "lng": 14.48058, "population": 2230}, {"name": "Thüringen", "lat": 47.2, "lng": 9.76667, "population": 2222}, {"name": "Spillern", "lat": 48.38333, "lng": 16.25, "population": 2222}, {"name": "Bad Sauerbrunn", "lat": 47.77439, "lng": 16.32841, "population": 2219}, {"name": "Weistrach", "lat": 48.05, "lng": 14.58333, "population": 2216}, {"name": "Pirka", "lat": 47.0, "lng": 15.38333, "population": 2213}, {"name": "Rottenmann", "lat": 47.52529, "lng": 14.35747, "population": 2209}, {"name": "Sölden", "lat": 46.96667, "lng": 11.0, "population": 2205}, {"name": "Schafwiesen", "lat": 48.17194, "lng": 14.07067, "population": 2200}, {"name": "Marchegg", "lat": 48.26217, "lng": 16.91045, "population": 2199}, {"name": "Unterpremstätten", "lat": 46.96472, "lng": 15.40417, "population": 2196}, {"name": "Tschagguns", "lat": 47.07391, "lng": 9.90267, "population": 2195}, {"name": "Raaba", "lat": 47.03333, "lng": 15.5, "population": 2194}, {"name": "Oberndorf in Tirol", "lat": 47.5, "lng": 12.38333, "population": 2194}, {"name": "Frankenmarkt", "lat": 47.98333, "lng": 13.41667, "population": 2185}, {"name": "Achenkirch", "lat": 47.52659, "lng": 11.70559, "population": 2185}, {"name": "Reith im Alpbachtal", "lat": 47.41694, "lng": 11.87785, "population": 2181}, {"name": "Schwadorf", "lat": 48.06936, "lng": 16.57957, "population": 2180}, {"name": "Hörsching", "lat": 48.22627, "lng": 14.17786, "population": 2155}, {"name": "Ostermiething", "lat": 48.04636, "lng": 12.82937, "population": 2154}, {"name": "Glanegg", "lat": 47.75, "lng": 13.0, "population": 2154}, {"name": "Oberndorf in der Ebene", "lat": 48.2704, "lng": 15.68985, "population": 2151}, {"name": "Fritzens", "lat": 47.30535, "lng": 11.5895, "population": 2148}, {"name": "Breitenbach am Inn", "lat": 47.47829, "lng": 11.97372, "population": 2143}, {"name": "Viehhausen", "lat": 47.78333, "lng": 12.98333, "population": 2136}, {"name": "Admont", "lat": 47.57537, "lng": 14.46075, "population": 2136}, {"name": "Podersdorf am See", "lat": 47.85412, "lng": 16.83706, "population": 2135}, {"name": "Maria Lanzendorf", "lat": 48.09923, "lng": 16.41984, "population": 2129}, {"name": "Gföhl", "lat": 48.51667, "lng": 15.48333, "population": 2125}, {"name": "Frankenburg", "lat": 48.06844, "lng": 13.49065, "population": 2122}, {"name": "Nassereith", "lat": 47.31667, "lng": 10.83333, "population": 2119}, {"name": "Bad Fischau", "lat": 47.83137, "lng": 16.16707, "population": 2116}, {"name": "Vöcklamarkt", "lat": 48.0025, "lng": 13.48383, "population": 2112}, {"name": "Lechaschau", "lat": 47.48804, "lng": 10.70652, "population": 2108}, {"name": "Kappl", "lat": 47.06667, "lng": 10.38333, "population": 2102}, {"name": "Bramberg am Wildkogel", "lat": 47.26979, "lng": 12.3385, "population": 2096}, {"name": "Rohrendorf bei Krems", "lat": 48.41935, "lng": 15.65772, "population": 2091}, {"name": "Bad Vigaun", "lat": 47.66667, "lng": 13.13333, "population": 2089}, {"name": "Absdorf", "lat": 48.40021, "lng": 15.97874, "population": 2087}, {"name": "Orth an der Donau", "lat": 48.14524, "lng": 16.70089, "population": 2086}, {"name": "Gaming", "lat": 47.929, "lng": 15.08818, "population": 2082}, {"name": "Arnoldstein", "lat": 46.54611, "lng": 13.71, "population": 2080}, {"name": "Lerchenfeld", "lat": 48.41234, "lng": 15.63183, "population": 2080}, {"name": "Weiler", "lat": 47.29972, "lng": 9.65, "population": 2075}, {"name": "Burgfried", "lat": 48.5199, "lng": 14.2957, "population": 2075}, {"name": "Marz", "lat": 47.71667, "lng": 16.41667, "population": 2073}, {"name": "Grein", "lat": 48.22862, "lng": 14.85884, "population": 2068}, {"name": "Trausdorf an der Wulka", "lat": 47.8135, "lng": 16.5576, "population": 2064}, {"name": "Grünau im Almtal", "lat": 47.85493, "lng": 13.95573, "population": 2064}, {"name": "Piesendorf", "lat": 47.29077, "lng": 12.71839, "population": 2062}, {"name": "Sankt Michael im Lungau", "lat": 47.1, "lng": 13.63333, "population": 2059}, {"name": "Oberau", "lat": 47.44336, "lng": 12.04891, "population": 2054}, {"name": "Grosshöflein", "lat": 47.83586, "lng": 16.48035, "population": 2048}, {"name": "Weissach", "lat": 47.57091, "lng": 12.16255, "population": 2047}, {"name": "Wenns", "lat": 47.16667, "lng": 10.73333, "population": 2044}, {"name": "Hausmening", "lat": 48.07074, "lng": 14.81438, "population": 2043}, {"name": "Sieghartskirchen", "lat": 48.25531, "lng": 16.01223, "population": 2042}, {"name": "Sankt Peter in der Au Markt", "lat": 48.044, "lng": 14.62182, "population": 2040}, {"name": "Fisching", "lat": 48.22301, "lng": 14.42771, "population": 2033}, {"name": "Mühldorf bei Feldbach", "lat": 46.93861, "lng": 15.9075, "population": 2026}, {"name": "Stein an der Donau", "lat": 48.40163, "lng": 15.58102, "population": 2024}, {"name": "Mank", "lat": 48.11024, "lng": 15.33915, "population": 2021}, {"name": "Natters", "lat": 47.23414, "lng": 11.37342, "population": 2020}, {"name": "Waidring", "lat": 47.58333, "lng": 12.56667, "population": 2019}, {"name": "Oberpullendorf", "lat": 47.50352, "lng": 16.50447, "population": 2019}, {"name": "Enzersdorf an der Fischa", "lat": 48.08502, "lng": 16.60832, "population": 2018}, {"name": "Golling an der Salzach", "lat": 47.6, "lng": 13.16667, "population": 2014}, {"name": "Wolfsbach", "lat": 48.07893, "lng": 14.67029, "population": 2011}, {"name": "Oberhausen", "lat": 48.1769, "lng": 16.58506, "population": 2007}, {"name": "Wallsee", "lat": 48.16667, "lng": 14.71667, "population": 2006}, {"name": "Bezau", "lat": 47.38478, "lng": 9.90139, "population": 2003}, {"name": "Riezlern", "lat": 47.35778, "lng": 10.18759, "population": 1998}, {"name": "Groß-Siegharts", "lat": 48.7918, "lng": 15.40429, "population": 1992}, {"name": "Bad Goisern", "lat": 47.64252, "lng": 13.61609, "population": 1987}, {"name": "Diemlach", "lat": 47.4361, "lng": 15.2746, "population": 1976}, {"name": "Wispl", "lat": 48.16488, "lng": 13.99753, "population": 1967}, {"name": "Wallern an der Trattnach", "lat": 48.23296, "lng": 13.9462, "population": 1965}, {"name": "Unterlangkampfen", "lat": 47.55, "lng": 12.1, "population": 1965}, {"name": "Stattersdorf", "lat": 48.18333, "lng": 15.63333, "population": 1963}, {"name": "Schönkirchen-Reyersdorf", "lat": 48.35477, "lng": 16.69115, "population": 1963}, {"name": "Wartberg", "lat": 47.52717, "lng": 15.48095, "population": 1958}, {"name": "Pitten", "lat": 47.71667, "lng": 16.18333, "population": 1956}, {"name": "Friesach", "lat": 46.95528, "lng": 14.40583, "population": 1950}, {"name": "Peggau", "lat": 47.2, "lng": 15.35, "population": 1949}, {"name": "Mannswörth", "lat": 48.14547, "lng": 16.51374, "population": 1948}, {"name": "Sommerein", "lat": 47.98333, "lng": 16.65, "population": 1947}, {"name": "Wulkaprodersdorf", "lat": 47.79753, "lng": 16.50447, "population": 1944}, {"name": "Kennelbach", "lat": 47.48306, "lng": 9.76667, "population": 1944}, {"name": "Ansfelden", "lat": 48.20969, "lng": 14.29004, "population": 1944}, {"name": "Röthis", "lat": 47.29332, "lng": 9.65484, "population": 1942}, {"name": "Tux", "lat": 47.15559, "lng": 11.72872, "population": 1941}, {"name": "Bad Sankt Leonhard im Lavanttal", "lat": 46.96278, "lng": 14.79167, "population": 1940}, {"name": "Breitenbrunn", "lat": 47.94452, "lng": 16.73149, "population": 1938}, {"name": "Mitterndorf", "lat": 47.57728, "lng": 12.16968, "population": 1938}, {"name": "Mitterdorf im Mürztal", "lat": 47.53333, "lng": 15.51667, "population": 1935}, {"name": "Aschach an der Donau", "lat": 48.36458, "lng": 14.02044, "population": 1933}, {"name": "Auersthal", "lat": 48.37373, "lng": 16.63596, "population": 1932}, {"name": "Haidl", "lat": 48.17267, "lng": 14.05297, "population": 1931}, {"name": "Stans", "lat": 47.36667, "lng": 11.71667, "population": 1928}, {"name": "Hainfeld", "lat": 48.0339, "lng": 15.77414, "population": 1926}, {"name": "Rust", "lat": 47.80122, "lng": 16.67158, "population": 1921}, {"name": "Bad Ischl", "lat": 47.71109, "lng": 13.61893, "population": 1914}, {"name": "Maishofen", "lat": 47.36667, "lng": 12.8, "population": 1909}, {"name": "Bergland", "lat": 48.15595, "lng": 15.18553, "population": 1909}, {"name": "Gars am Kamp", "lat": 48.59769, "lng": 15.66073, "population": 1907}, {"name": "Steinabrückl", "lat": 47.87053, "lng": 16.20277, "population": 1906}, {"name": "Penz", "lat": 48.03333, "lng": 14.48333, "population": 1905}, {"name": "Halbturn", "lat": 47.87019, "lng": 16.97542, "population": 1901}, {"name": "Arzl im Pitztal", "lat": 47.20712, "lng": 10.76261, "population": 1896}, {"name": "Tarrenz", "lat": 47.26667, "lng": 10.76667, "population": 1894}, {"name": "Stainach", "lat": 47.53343, "lng": 14.10872, "population": 1893}, {"name": "Brixlegg", "lat": 47.42942, "lng": 11.87794, "population": 1892}, {"name": "Mittersill", "lat": 47.28333, "lng": 12.48333, "population": 1888}, {"name": "Lanzendorf", "lat": 48.11056, "lng": 16.445, "population": 1886}, {"name": "Stumm", "lat": 47.29052, "lng": 11.88755, "population": 1885}, {"name": "Gallspach", "lat": 48.20992, "lng": 13.80981, "population": 1885}, {"name": "Kuchl", "lat": 47.62647, "lng": 13.1448, "population": 1883}, {"name": "Strassham", "lat": 48.28348, "lng": 14.14524, "population": 1877}, {"name": "Rinn", "lat": 47.25, "lng": 11.5, "population": 1877}, {"name": "Hagenbrunn", "lat": 48.33333, "lng": 16.4, "population": 1875}, {"name": "Lamprechtshausen", "lat": 47.99098, "lng": 12.95481, "population": 1866}, {"name": "Zeillern", "lat": 48.13029, "lng": 14.8076, "population": 1865}, {"name": "Münzkirchen", "lat": 48.48333, "lng": 13.56667, "population": 1865}, {"name": "Au an der Traun", "lat": 48.1802, "lng": 14.11248, "population": 1864}, {"name": "Mieders", "lat": 47.16667, "lng": 11.38333, "population": 1861}, {"name": "Oberhofen im Inntal", "lat": 47.29823, "lng": 11.08611, "population": 1857}, {"name": "Schwarzenberg", "lat": 47.41415, "lng": 9.85154, "population": 1850}, {"name": "Radenthein", "lat": 46.80056, "lng": 13.71167, "population": 1846}, {"name": "Umhausen", "lat": 47.13503, "lng": 10.92826, "population": 1840}, {"name": "Kleinedling", "lat": 46.81417, "lng": 14.82778, "population": 1840}, {"name": "Aschau im Zillertal", "lat": 47.26613, "lng": 11.89536, "population": 1840}, {"name": "Gaißau", "lat": 47.46667, "lng": 9.6, "population": 1827}, {"name": "Ampass", "lat": 47.26251, "lng": 11.46226, "population": 1827}, {"name": "Prutz", "lat": 47.08333, "lng": 10.66667, "population": 1825}, {"name": "Liesingtal", "lat": 47.34597, "lng": 15.01352, "population": 1824}, {"name": "Braunau Neustadt", "lat": 48.24606, "lng": 13.03583, "population": 1823}, {"name": "Teesdorf", "lat": 47.95, "lng": 16.28333, "population": 1822}, {"name": "Kirchberg am Wechsel", "lat": 47.60738, "lng": 15.99103, "population": 1821}, {"name": "Sankt Ulrich am Pillersee", "lat": 47.5274, "lng": 12.57239, "population": 1819}, {"name": "Aspang Markt", "lat": 47.55, "lng": 16.08333, "population": 1816}, {"name": "Großweikersdorf", "lat": 48.47123, "lng": 15.98251, "population": 1814}, {"name": "Anif", "lat": 47.75, "lng": 13.06667, "population": 1814}, {"name": "Donnerskirchen", "lat": 47.89425, "lng": 16.64635, "population": 1810}, {"name": "Georgenberg", "lat": 47.63333, "lng": 13.15, "population": 1809}, {"name": "Eggersdorf bei Graz", "lat": 47.12338, "lng": 15.60084, "population": 1808}, {"name": "Lunz am See", "lat": 47.8612, "lng": 15.02998, "population": 1806}, {"name": "Adlwang", "lat": 47.99245, "lng": 14.21742, "population": 1806}, {"name": "Roppen", "lat": 47.21667, "lng": 10.81667, "population": 1800}, {"name": "Matzen", "lat": 48.4, "lng": 16.7, "population": 1796}, {"name": "Gosau", "lat": 47.58417, "lng": 13.53447, "population": 1792}, {"name": "Uttendorf", "lat": 47.28333, "lng": 12.56667, "population": 1789}, {"name": "Sankt Leonhard", "lat": 46.62528, "lng": 13.85865, "population": 1789}, {"name": "Hönigsberg", "lat": 47.58038, "lng": 15.64808, "population": 1789}, {"name": "Gschwandt", "lat": 47.93515, "lng": 13.84569, "population": 1782}, {"name": "Grambach", "lat": 47.01473, "lng": 15.50407, "population": 1778}, {"name": "Aigen im Mühlkreis", "lat": 48.64578, "lng": 13.97109, "population": 1778}, {"name": "Moosbrunn", "lat": 48.01667, "lng": 16.45, "population": 1777}, {"name": "Schlierbach", "lat": 47.93636, "lng": 14.12018, "population": 1773}, {"name": "Nickelsdorf", "lat": 47.94056, "lng": 17.06944, "population": 1772}, {"name": "Ferschnitz", "lat": 48.09419, "lng": 14.98454, "population": 1770}, {"name": "Eben im Pongau", "lat": 47.4, "lng": 13.4, "population": 1768}, {"name": "Rehberg", "lat": 48.43114, "lng": 15.58702, "population": 1766}, {"name": "Bad Deutsch-Altenburg", "lat": 48.13425, "lng": 16.90624, "population": 1765}, {"name": "St Anton am Arlberg", "lat": 47.1275, "lng": 10.26372, "population": 1763}, {"name": "Apetlon", "lat": 47.74394, "lng": 16.8302, "population": 1760}, {"name": "Zell am Ziller", "lat": 47.23333, "lng": 11.88333, "population": 1758}, {"name": "Saalbach", "lat": 47.39138, "lng": 12.63642, "population": 1755}, {"name": "Pucking", "lat": 48.18886, "lng": 14.18824, "population": 1751}, {"name": "Leonstein", "lat": 47.89666, "lng": 14.23124, "population": 1751}, {"name": "Dürnkrut", "lat": 48.47315, "lng": 16.85062, "population": 1750}, {"name": "Windhag", "lat": 47.97906, "lng": 14.80245, "population": 1748}, {"name": "Sankt Pantaleon", "lat": 48.21058, "lng": 14.56804, "population": 1745}, {"name": "Zwölfaxing", "lat": 48.1099, "lng": 16.46267, "population": 1744}, {"name": "Sankt Stefan", "lat": 46.8075, "lng": 14.85167, "population": 1743}, {"name": "Maria Lankowitz", "lat": 47.0622, "lng": 15.06525, "population": 1740}, {"name": "Oggau", "lat": 47.83333, "lng": 16.66667, "population": 1739}, {"name": "Untersiebenbrunn", "lat": 48.25674, "lng": 16.74526, "population": 1736}, {"name": "Hall bei Admont", "lat": 47.587, "lng": 14.46372, "population": 1736}, {"name": "Sankt Paul im Lavanttal", "lat": 46.70056, "lng": 14.87556, "population": 1735}, {"name": "Matzendorf", "lat": 47.89137, "lng": 16.21393, "population": 1734}, {"name": "Schwendau", "lat": 47.19753, "lng": 11.85897, "population": 1725}, {"name": "Plankenau", "lat": 47.32673, "lng": 13.19282, "population": 1722}, {"name": "Ybbsitz", "lat": 47.94745, "lng": 14.8918, "population": 1721}, {"name": "Esch", "lat": 47.8403, "lng": 13.09223, "population": 1721}, {"name": "Feistritz an der Drau", "lat": 46.70157, "lng": 13.66479, "population": 1720}, {"name": "Seyring", "lat": 48.33333, "lng": 16.48333, "population": 1713}, {"name": "Obersiebenbrunn", "lat": 48.26537, "lng": 16.71076, "population": 1708}, {"name": "Kumberg", "lat": 47.16422, "lng": 15.53261, "population": 1707}, {"name": "Günselsdorf", "lat": 47.94395, "lng": 16.26062, "population": 1707}, {"name": "Aschbach Markt", "lat": 48.07234, "lng": 14.75395, "population": 1703}, {"name": "Wallern im Burgenland", "lat": 47.72847, "lng": 16.93706, "population": 1702}, {"name": "Obersdorf", "lat": 48.36667, "lng": 16.51667, "population": 1702}, {"name": "Wolfsgraben", "lat": 48.1587, "lng": 16.12098, "population": 1700}, {"name": "Schönwies", "lat": 47.19665, "lng": 10.65742, "population": 1697}, {"name": "Gresten", "lat": 47.98521, "lng": 15.02552, "population": 1695}, {"name": "Sankt Andrä vor dem Hagenthale", "lat": 48.32202, "lng": 16.20724, "population": 1692}, {"name": "Reisenberg", "lat": 47.99406, "lng": 16.52018, "population": 1689}, {"name": "Rudersdorf", "lat": 47.0513, "lng": 16.12, "population": 1688}, {"name": "Haslach an der Mühl", "lat": 48.5757, "lng": 14.03984, "population": 1688}, {"name": "Hagenberg im Mühlkreis", "lat": 48.36788, "lng": 14.51689, "population": 1686}, {"name": "Klausen-Leopoldsdorf", "lat": 48.08771, "lng": 16.01686, "population": 1681}, {"name": "Schörfling", "lat": 47.94544, "lng": 13.60408, "population": 1680}, {"name": "Neumarkt in Steiermark", "lat": 47.07398, "lng": 14.42728, "population": 1678}, {"name": "Aschach an der Steyr", "lat": 48.01312, "lng": 14.33544, "population": 1678}, {"name": "Rosental an der Kainach", "lat": 47.05192, "lng": 15.122, "population": 1678}, {"name": "Stainz", "lat": 46.89444, "lng": 15.26722, "population": 1677}, {"name": "Fehring", "lat": 46.94, "lng": 16.00806, "population": 1675}, {"name": "Neufurth", "lat": 48.07894, "lng": 14.8118, "population": 1667}, {"name": "Reith bei Kitzbühel", "lat": 47.46667, "lng": 12.35, "population": 1662}, {"name": "Gaweinstal", "lat": 48.48003, "lng": 16.5879, "population": 1660}, {"name": "Schöndorf", "lat": 48.00167, "lng": 13.6588, "population": 1654}, {"name": "Ziersdorf", "lat": 48.5303, "lng": 15.92691, "population": 1653}, {"name": "Hadersdorf am Kamp", "lat": 48.45848, "lng": 15.72051, "population": 1653}, {"name": "Ratzersdorf an der Traisen", "lat": 48.22639, "lng": 15.66629, "population": 1645}, {"name": "Birkfeld", "lat": 47.35, "lng": 15.68333, "population": 1634}, {"name": "Aschau", "lat": 47.26667, "lng": 11.9, "population": 1634}, {"name": "Obernberg am Inn", "lat": 48.32133, "lng": 13.33427, "population": 1633}, {"name": "Gaumberg", "lat": 48.28085, "lng": 14.26935, "population": 1628}, {"name": "Kolsass", "lat": 47.3, "lng": 11.63333, "population": 1626}, {"name": "Tullnerbach-Lawies", "lat": 48.18912, "lng": 16.09117, "population": 1625}, {"name": "Feldkirchen bei Graz", "lat": 47.01667, "lng": 15.45, "population": 1625}, {"name": "Traunkirchen", "lat": 47.84462, "lng": 13.78939, "population": 1624}, {"name": "Gaaden", "lat": 48.05364, "lng": 16.20003, "population": 1624}, {"name": "Pamhagen", "lat": 47.70092, "lng": 16.90779, "population": 1623}, {"name": "Riedlingsdorf", "lat": 47.35, "lng": 16.13333, "population": 1619}, {"name": "Schalchen", "lat": 48.11924, "lng": 13.15716, "population": 1618}, {"name": "Ramsau im Zillertal", "lat": 47.20383, "lng": 11.87545, "population": 1617}, {"name": "Kronstorf", "lat": 48.14324, "lng": 14.46307, "population": 1617}, {"name": "Wimpassing im Schwarzatale", "lat": 47.70295, "lng": 16.03334, "population": 1616}, {"name": "Muntlix", "lat": 47.28296, "lng": 9.65939, "population": 1615}, {"name": "Kematen an der Krems", "lat": 48.1115, "lng": 14.19391, "population": 1613}, {"name": "Mariapfarr", "lat": 47.15, "lng": 13.75, "population": 1612}, {"name": "Jois", "lat": 47.96165, "lng": 16.79604, "population": 1612}, {"name": "Mittelberg", "lat": 47.35127, "lng": 10.17197, "population": 1610}, {"name": "Glasenbach", "lat": 47.76667, "lng": 13.08333, "population": 1605}, {"name": "Sillian", "lat": 46.75278, "lng": 12.42111, "population": 1604}, {"name": "Losenstein", "lat": 47.92428, "lng": 14.43672, "population": 1604}, {"name": "Furth bei Göttweig", "lat": 48.37385, "lng": 15.61408, "population": 1604}, {"name": "Sautens", "lat": 47.20775, "lng": 10.86452, "population": 1601}, {"name": "Neulengbach", "lat": 48.19745, "lng": 15.90219, "population": 1601}, {"name": "Weitra", "lat": 48.7, "lng": 14.88333, "population": 1599}, {"name": "Anthering", "lat": 47.88333, "lng": 13.01667, "population": 1599}, {"name": "Maria Neustift", "lat": 47.93333, "lng": 14.6, "population": 1592}, {"name": "Judendorf", "lat": 47.11667, "lng": 15.35, "population": 1592}, {"name": "Gramastetten", "lat": 48.38028, "lng": 14.19185, "population": 1592}, {"name": "Mutters", "lat": 47.23333, "lng": 11.38333, "population": 1587}, {"name": "Tiefgraben", "lat": 47.87385, "lng": 13.30591, "population": 1585}, {"name": "Jochberg", "lat": 47.3792, "lng": 12.41807, "population": 1577}, {"name": "Breitenau", "lat": 47.73355, "lng": 16.14338, "population": 1576}, {"name": "Niederalm", "lat": 47.72872, "lng": 13.06223, "population": 1575}, {"name": "Gamlitz", "lat": 46.72028, "lng": 15.55333, "population": 1572}, {"name": "Fels am Wagram", "lat": 48.43333, "lng": 15.81667, "population": 1571}, {"name": "Werfen", "lat": 47.47585, "lng": 13.1902, "population": 1570}, {"name": "Hittisau", "lat": 47.45781, "lng": 9.95962, "population": 1569}, {"name": "Lech", "lat": 47.20797, "lng": 10.14184, "population": 1568}, {"name": "Ufer", "lat": 48.24842, "lng": 14.49977, "population": 1566}, {"name": "Naarn im Machlande", "lat": 48.22553, "lng": 14.60838, "population": 1563}, {"name": "Luftenberg an der Donau", "lat": 48.27462, "lng": 14.41303, "population": 1556}, {"name": "Haiden", "lat": 47.7179, "lng": 13.56906, "population": 1556}, {"name": "Sankt Lorenz", "lat": 47.8324, "lng": 13.34839, "population": 1554}, {"name": "Prinzersdorf", "lat": 48.2, "lng": 15.51667, "population": 1554}, {"name": "Kirchschlag in der Buckligen Welt", "lat": 47.5, "lng": 16.28333, "population": 1554}, {"name": "Straß in Steiermark", "lat": 46.72722, "lng": 15.62444, "population": 1552}, {"name": "Kainbach", "lat": 47.08333, "lng": 15.51667, "population": 1551}, {"name": "Hellmonsödt", "lat": 48.43333, "lng": 14.3, "population": 1551}, {"name": "Wimpassing an der Leitha", "lat": 47.91667, "lng": 16.43333, "population": 1549}, {"name": "Hof am Leithaberge", "lat": 47.95, "lng": 16.58333, "population": 1549}, {"name": "Pischelsdorf in der Steiermark", "lat": 47.17417, "lng": 15.80572, "population": 1545}, {"name": "Hochpoint", "lat": 48.16139, "lng": 14.03838, "population": 1545}, {"name": "Nauders", "lat": 46.88859, "lng": 10.50126, "population": 1542}, {"name": "Hennersdorf", "lat": 48.11173, "lng": 16.36311, "population": 1541}, {"name": "Weer", "lat": 47.30375, "lng": 11.64498, "population": 1539}, {"name": "Obdach", "lat": 47.06667, "lng": 14.68333, "population": 1537}, {"name": "Harland", "lat": 48.16162, "lng": 15.63835, "population": 1537}, {"name": "Ernstbrunn", "lat": 48.53333, "lng": 16.35, "population": 1536}, {"name": "Zell-Arzberg", "lat": 47.95191, "lng": 14.79322, "population": 1536}, {"name": "Vils", "lat": 47.55, "lng": 10.63333, "population": 1535}, {"name": "Hermagor", "lat": 46.62722, "lng": 13.36722, "population": 1535}, {"name": "Tragwein", "lat": 48.33314, "lng": 14.62237, "population": 1534}, {"name": "Ötztal-Bahnhof", "lat": 47.23333, "lng": 10.85, "population": 1534}, {"name": "Erpersdorf", "lat": 48.3421, "lng": 15.91747, "population": 1531}, {"name": "Mureck", "lat": 46.70806, "lng": 15.77472, "population": 1529}, {"name": "Neckenmarkt", "lat": 47.59964, "lng": 16.5467, "population": 1528}, {"name": "Kühnsdorf", "lat": 46.62194, "lng": 14.63639, "population": 1521}, {"name": "Götzendorf an der Leitha", "lat": 48.01667, "lng": 16.58333, "population": 1520}, {"name": "Fuschl am See", "lat": 47.8, "lng": 13.3, "population": 1520}, {"name": "Fürnitz", "lat": 46.56188, "lng": 13.81732, "population": 1520}, {"name": "Hartmannsdorf", "lat": 47.05461, "lng": 15.83941, "population": 1519}, {"name": "Brückl", "lat": 46.75167, "lng": 14.53667, "population": 1519}, {"name": "Kaltenbach", "lat": 47.70766, "lng": 13.6105, "population": 1516}, {"name": "Bad Gleichenberg", "lat": 46.87556, "lng": 15.90861, "population": 1516}, {"name": "Wiesmath", "lat": 47.61667, "lng": 16.28333, "population": 1509}, {"name": "Pettenbach", "lat": 47.96016, "lng": 14.01692, "population": 1506}, {"name": "Mühldorf", "lat": 47.89689, "lng": 13.95049, "population": 1505}, {"name": "Mariatal", "lat": 47.44788, "lng": 11.8721, "population": 1505}, {"name": "Sierndorf", "lat": 48.43024, "lng": 16.16658, "population": 1502}, {"name": "Nöstlbach", "lat": 48.1666, "lng": 14.24609, "population": 1499}, {"name": "Kötschach", "lat": 46.68167, "lng": 13.00694, "population": 1498}, {"name": "Stams", "lat": 47.27603, "lng": 10.98315, "population": 1495}, {"name": "Kemeten", "lat": 47.24859, "lng": 16.15213, "population": 1493}, {"name": "Berg", "lat": 48.29278, "lng": 14.24778, "population": 1491}, {"name": "Passail", "lat": 47.28333, "lng": 15.51667, "population": 1488}, {"name": "Hausleiten", "lat": 48.38333, "lng": 16.1, "population": 1488}, {"name": "Pöls", "lat": 47.21667, "lng": 14.58333, "population": 1485}, {"name": "Schlitters", "lat": 47.38045, "lng": 11.83888, "population": 1481}, {"name": "Sankt Marien", "lat": 48.14805, "lng": 14.27759, "population": 1481}, {"name": "Grünbach am Schneeberg", "lat": 47.79747, "lng": 15.98785, "population": 1480}, {"name": "Groß-Engersdorf", "lat": 48.35873, "lng": 16.5661, "population": 1478}, {"name": "Peuerbach", "lat": 48.3453, "lng": 13.77205, "population": 1475}, {"name": "Waldprechting", "lat": 47.9, "lng": 13.11667, "population": 1474}, {"name": "Alland", "lat": 48.05829, "lng": 16.07901, "population": 1470}, {"name": "Schönau an der Triesting", "lat": 47.93452, "lng": 16.25376, "population": 1467}, {"name": "Lingenau", "lat": 47.45033, "lng": 9.92166, "population": 1466}, {"name": "Sankt Gallenkirch", "lat": 47.02102, "lng": 9.97335, "population": 1465}, {"name": "Adnet", "lat": 47.69746, "lng": 13.13115, "population": 1464}, {"name": "Lengfelden", "lat": 47.85, "lng": 13.05, "population": 1463}, {"name": "Heiligenkreuz am Waasen", "lat": 46.95583, "lng": 15.58806, "population": 1462}, {"name": "Obermieming", "lat": 47.30851, "lng": 10.97435, "population": 1458}, {"name": "Schweinbach", "lat": 48.34033, "lng": 14.42247, "population": 1454}, {"name": "Sankt Oswald bei Freistadt", "lat": 48.5, "lng": 14.58333, "population": 1454}, {"name": "Sulzberg", "lat": 47.52178, "lng": 9.91353, "population": 1450}, {"name": "Scheffau am Wilden Kaiser", "lat": 47.52943, "lng": 12.25139, "population": 1449}, {"name": "Olbendorf", "lat": 47.18333, "lng": 16.2, "population": 1449}, {"name": "Schalchham", "lat": 47.99825, "lng": 13.67188, "population": 1448}, {"name": "Markersdorf an der Pielach", "lat": 48.18333, "lng": 15.5, "population": 1444}, {"name": "Türnitz", "lat": 47.93095, "lng": 15.49295, "population": 1439}, {"name": "Tattendorf", "lat": 47.95, "lng": 16.3, "population": 1439}, {"name": "Sankt Leonhard am Forst", "lat": 48.14232, "lng": 15.28464, "population": 1438}, {"name": "Tristach", "lat": 46.81611, "lng": 12.78972, "population": 1437}, {"name": "Wolfau", "lat": 47.25, "lng": 16.1, "population": 1436}, {"name": "Sankt Marein im Mürztal", "lat": 47.46667, "lng": 15.36667, "population": 1436}, {"name": "Prottes", "lat": 48.3868, "lng": 16.7389, "population": 1436}, {"name": "Spital am Pyhrn", "lat": 47.66487, "lng": 14.34014, "population": 1435}, {"name": "Abtissendorf", "lat": 46.99583, "lng": 15.45639, "population": 1433}, {"name": "Raab", "lat": 48.35243, "lng": 13.64691, "population": 1429}, {"name": "Wagrain", "lat": 48.00503, "lng": 13.67163, "population": 1429}, {"name": "Hutten", "lat": 48.17856, "lng": 15.98579, "population": 1428}, {"name": "Tillmitsch", "lat": 46.81195, "lng": 15.51679, "population": 1426}, {"name": "Maria-Anzbach", "lat": 48.19012, "lng": 15.93155, "population": 1424}, {"name": "Munderfing", "lat": 48.07039, "lng": 13.18162, "population": 1423}, {"name": "Eibiswald", "lat": 46.68667, "lng": 15.24722, "population": 1423}, {"name": "Breitenwang", "lat": 47.48713, "lng": 10.7342, "population": 1423}, {"name": "Litschau", "lat": 48.94409, "lng": 15.04483, "population": 1421}, {"name": "Birgitz", "lat": 47.23536, "lng": 11.29922, "population": 1419}, {"name": "Angern an der March", "lat": 48.37778, "lng": 16.82806, "population": 1418}, {"name": "Langenlebarn-Oberaigen", "lat": 48.33023, "lng": 16.11059, "population": 1418}, {"name": "Achau", "lat": 48.08026, "lng": 16.38611, "population": 1415}, {"name": "Lengenfeld", "lat": 48.47187, "lng": 15.5987, "population": 1412}, {"name": "Langen", "lat": 47.51667, "lng": 9.81667, "population": 1405}, {"name": "Scharnitz", "lat": 47.38899, "lng": 11.26455, "population": 1403}, {"name": "Finkenstein", "lat": 46.56155, "lng": 13.87086, "population": 1402}, {"name": "Neukirchen am Großvenediger", "lat": 47.25046, "lng": 12.27585, "population": 1400}, {"name": "Grinzens", "lat": 47.22927, "lng": 11.25318, "population": 1399}, {"name": "Grins", "lat": 47.14034, "lng": 10.51409, "population": 1398}, {"name": "Müllendorf", "lat": 47.83943, "lng": 16.46258, "population": 1397}, {"name": "Bleiburg/Pliberk", "lat": 46.59, "lng": 14.79889, "population": 1395}, {"name": "Strobl", "lat": 47.71667, "lng": 13.48333, "population": 1393}, {"name": "Semriach", "lat": 47.21667, "lng": 15.4, "population": 1392}, {"name": "Schützen am Gebirge", "lat": 47.85233, "lng": 16.62334, "population": 1392}, {"name": "Göllersdorf", "lat": 48.49357, "lng": 16.11943, "population": 1391}, {"name": "Dietach", "lat": 48.09018, "lng": 14.41647, "population": 1389}, {"name": "Stoob", "lat": 47.52845, "lng": 16.4776, "population": 1386}, {"name": "Horitschon", "lat": 47.58729, "lng": 16.54696, "population": 1385}, {"name": "Alkoven", "lat": 48.28753, "lng": 14.10748, "population": 1385}, {"name": "Allentsteig", "lat": 48.69725, "lng": 15.32756, "population": 1383}, {"name": "Wartberg an der Krems", "lat": 47.98909, "lng": 14.11863, "population": 1382}, {"name": "Anger", "lat": 47.15593, "lng": 13.10592, "population": 1380}, {"name": "Sankt Ulrich bei Steyr", "lat": 48.02116, "lng": 14.43685, "population": 1379}, {"name": "Bad Zell", "lat": 48.34906, "lng": 14.66945, "population": 1378}, {"name": "Neumarkt im Hausruckkreis", "lat": 48.2728, "lng": 13.72836, "population": 1377}, {"name": "Zeiselmauer", "lat": 48.32852, "lng": 16.17565, "population": 1376}, {"name": "Sankt Andrä am Zicksee", "lat": 47.7841, "lng": 16.94195, "population": 1371}, {"name": "Hippach", "lat": 47.20435, "lng": 11.86523, "population": 1371}, {"name": "Reith bei Seefeld", "lat": 47.3, "lng": 11.2, "population": 1370}, {"name": "Ried im Traunkreis", "lat": 48.02581, "lng": 14.07452, "population": 1368}, {"name": "Bad Radkersburg", "lat": 46.68806, "lng": 15.98806, "population": 1368}, {"name": "Mitterberghütten", "lat": 47.4, "lng": 13.21667, "population": 1368}, {"name": "Hatting", "lat": 47.2787, "lng": 11.16838, "population": 1368}, {"name": "Kremsdorf", "lat": 48.20031, "lng": 14.26249, "population": 1364}, {"name": "Schwanberg", "lat": 46.75833, "lng": 15.20833, "population": 1363}, {"name": "Niederstraß", "lat": 48.01398, "lng": 13.72956, "population": 1363}, {"name": "Uttendorf", "lat": 48.15887, "lng": 13.1218, "population": 1361}, {"name": "Gries am Brenner", "lat": 47.03849, "lng": 11.48131, "population": 1361}, {"name": "Rufling", "lat": 48.27839, "lng": 14.21674, "population": 1359}, {"name": "Sankt Magdalen", "lat": 46.61667, "lng": 13.88333, "population": 1358}, {"name": "Stetten", "lat": 48.36667, "lng": 16.38333, "population": 1357}, {"name": "Seeham", "lat": 47.96746, "lng": 13.07699, "population": 1354}, {"name": "Lembach im Mühlkreis", "lat": 48.49517, "lng": 13.89513, "population": 1354}, {"name": "Hirschegg", "lat": 47.34813, "lng": 10.17137, "population": 1354}, {"name": "Karlstetten", "lat": 48.2592, "lng": 15.56544, "population": 1353}, {"name": "Langenstein", "lat": 48.252, "lng": 14.47655, "population": 1351}, {"name": "Viechtwang", "lat": 47.91531, "lng": 13.96345, "population": 1349}, {"name": "Hallwang", "lat": 47.85, "lng": 13.08333, "population": 1348}, {"name": "Bockfließ", "lat": 48.36, "lng": 16.60389, "population": 1348}, {"name": "Schwarzau am Steinfeld", "lat": 47.73183, "lng": 16.17094, "population": 1345}, {"name": "Sankt Aegyd am Neuwalde", "lat": 47.85383, "lng": 15.56969, "population": 1341}, {"name": "Medraz", "lat": 47.14256, "lng": 11.34287, "population": 1340}, {"name": "Ladendorf", "lat": 48.53333, "lng": 16.48333, "population": 1339}, {"name": "Sankt Georgen am Ybbsfelde", "lat": 48.12892, "lng": 14.95364, "population": 1338}, {"name": "Pinggau", "lat": 47.44232, "lng": 16.06713, "population": 1338}, {"name": "Steinfeld", "lat": 46.75812, "lng": 13.24934, "population": 1337}, {"name": "Strass", "lat": 48.46667, "lng": 15.73333, "population": 1336}, {"name": "Lannach", "lat": 46.94611, "lng": 15.33722, "population": 1334}, {"name": "Au", "lat": 47.7, "lng": 13.06667, "population": 1334}, {"name": "Ebenthal", "lat": 46.60806, "lng": 14.36417, "population": 1333}, {"name": "Sellrain", "lat": 47.21667, "lng": 11.21667, "population": 1333}, {"name": "Gattendorf", "lat": 48.01667, "lng": 16.98333, "population": 1332}, {"name": "Brunn an der Schneebergbahn", "lat": 47.82376, "lng": 16.15934, "population": 1324}, {"name": "Winklarn", "lat": 48.09135, "lng": 14.84819, "population": 1323}, {"name": "Hinterleiten", "lat": 48.16513, "lng": 15.96654, "population": 1323}, {"name": "Vorau", "lat": 47.40548, "lng": 15.88754, "population": 1321}, {"name": "Langenrohr", "lat": 48.30489, "lng": 16.01034, "population": 1320}, {"name": "Mühlbach am Hochkönig", "lat": 47.37746, "lng": 13.12926, "population": 1318}, {"name": "Gmünd", "lat": 46.90722, "lng": 13.52944, "population": 1317}, {"name": "Sankt Lambrecht", "lat": 47.06667, "lng": 14.3, "population": 1316}, {"name": "Obsteig", "lat": 47.3, "lng": 10.93333, "population": 1316}, {"name": "Winden am See", "lat": 47.9501, "lng": 16.7556, "population": 1315}, {"name": "Kaltenbach", "lat": 47.28333, "lng": 11.86667, "population": 1313}, {"name": "Gaspoltshofen", "lat": 48.14324, "lng": 13.73643, "population": 1313}, {"name": "Grafenwörth", "lat": 48.4079, "lng": 15.77826, "population": 1312}, {"name": "Petzenkirchen", "lat": 48.14693, "lng": 15.15465, "population": 1311}, {"name": "Ried in der Riedmark", "lat": 48.27114, "lng": 14.52796, "population": 1306}, {"name": "Persenbeug", "lat": 48.18733, "lng": 15.08809, "population": 1303}, {"name": "Mellau", "lat": 47.35034, "lng": 9.88149, "population": 1301}, {"name": "Eching", "lat": 47.97263, "lng": 12.88786, "population": 1300}, {"name": "Waizenkirchen", "lat": 48.33018, "lng": 13.85754, "population": 1298}, {"name": "Velm", "lat": 48.03333, "lng": 16.43333, "population": 1295}, {"name": "Hof", "lat": 47.35, "lng": 13.31667, "population": 1295}, {"name": "Mittertreffling", "lat": 48.33868, "lng": 14.36505, "population": 1293}, {"name": "Obergäu", "lat": 47.58955, "lng": 13.17621, "population": 1292}, {"name": "Katsdorf", "lat": 48.31791, "lng": 14.47432, "population": 1289}, {"name": "Scharnstein", "lat": 47.90426, "lng": 13.96135, "population": 1287}, {"name": "Markt Allhau", "lat": 47.28333, "lng": 16.08333, "population": 1287}, {"name": "Flaurling", "lat": 47.29143, "lng": 11.12319, "population": 1285}, {"name": "Döbriach", "lat": 46.78049, "lng": 13.65738, "population": 1285}, {"name": "Stadl-Hausruck", "lat": 48.08255, "lng": 13.85213, "population": 1284}, {"name": "Berndorf bei Salzburg", "lat": 47.99532, "lng": 13.06146, "population": 1284}, {"name": "Baumkirchen", "lat": 47.3, "lng": 11.56667, "population": 1284}, {"name": "Winzendorf", "lat": 47.81154, "lng": 16.113, "population": 1282}, {"name": "Dietachdorf", "lat": 48.08364, "lng": 14.42874, "population": 1280}, {"name": "Ried im Zillertal", "lat": 47.3, "lng": 11.86667, "population": 1280}, {"name": "Weißkirchen in Steiermark", "lat": 47.15409, "lng": 14.73882, "population": 1279}, {"name": "Trins", "lat": 47.08333, "lng": 11.41667, "population": 1277}, {"name": "Neutillmitsch", "lat": 46.81667, "lng": 15.53333, "population": 1277}, {"name": "Kirchberg am Wagram", "lat": 48.43182, "lng": 15.89692, "population": 1277}, {"name": "Reichenau an der Rax", "lat": 47.69509, "lng": 15.84572, "population": 1276}, {"name": "Sankt Andrä", "lat": 46.76829, "lng": 14.81991, "population": 1271}, {"name": "Königswiesen", "lat": 48.40453, "lng": 14.83824, "population": 1271}, {"name": "Kirchberg an der Pielach", "lat": 48.0269, "lng": 15.42875, "population": 1271}, {"name": "Hohenweiler", "lat": 47.58449, "lng": 9.7795, "population": 1271}, {"name": "Spitz", "lat": 48.3656, "lng": 15.41416, "population": 1270}, {"name": "Hofkirchen im Traunkreis", "lat": 48.14312, "lng": 14.37776, "population": 1266}, {"name": "See", "lat": 47.08333, "lng": 10.46667, "population": 1265}, {"name": "Stinatz", "lat": 47.20266, "lng": 16.13312, "population": 1263}, {"name": "Vorderthiersee", "lat": 47.58333, "lng": 12.1, "population": 1262}, {"name": "Ried im Oberinntal", "lat": 47.05, "lng": 10.65, "population": 1261}, {"name": "Mauterndorf", "lat": 47.13451, "lng": 13.67884, "population": 1261}, {"name": "Straßburg-Stadt", "lat": 46.89444, "lng": 14.32861, "population": 1255}, {"name": "Sattledt", "lat": 48.07372, "lng": 14.05478, "population": 1255}, {"name": "Mariazell", "lat": 47.77306, "lng": 15.31639, "population": 1254}, {"name": "Ertl", "lat": 47.97704, "lng": 14.63134, "population": 1252}, {"name": "Sieggraben", "lat": 47.65128, "lng": 16.37993, "population": 1248}, {"name": "Neudau", "lat": 47.17554, "lng": 16.10184, "population": 1246}, {"name": "Petronell-Carnuntum", "lat": 48.11296, "lng": 16.86582, "population": 1245}, {"name": "Groß-Schweinbarth", "lat": 48.41472, "lng": 16.63194, "population": 1245}, {"name": "Vitis", "lat": 48.75964, "lng": 15.18259, "population": 1244}, {"name": "Oslip", "lat": 47.82906, "lng": 16.61957, "population": 1243}, {"name": "Oberpremstätten", "lat": 46.97444, "lng": 15.40444, "population": 1243}, {"name": "Pinsdorf", "lat": 47.9298, "lng": 13.77068, "population": 1240}, {"name": "Zillingdorf", "lat": 47.85, "lng": 16.33333, "population": 1239}, {"name": "Bad Pirawarth", "lat": 48.45194, "lng": 16.59833, "population": 1238}, {"name": "Plainfeld", "lat": 47.83333, "lng": 13.18333, "population": 1237}, {"name": "Niederschöckl", "lat": 47.15, "lng": 15.5, "population": 1237}, {"name": "Ortgraben", "lat": 47.45, "lng": 16.05, "population": 1236}, {"name": "Höflein", "lat": 48.06667, "lng": 16.78333, "population": 1234}, {"name": "Ischgl", "lat": 47.01257, "lng": 10.29179, "population": 1233}, {"name": "Weissenbach am Lech", "lat": 47.44162, "lng": 10.64071, "population": 1231}, {"name": "Stallhofen", "lat": 47.05, "lng": 15.21667, "population": 1231}, {"name": "Sankt Ruprecht an der Raab", "lat": 47.15336, "lng": 15.66256, "population": 1231}, {"name": "Pichl", "lat": 47.28333, "lng": 12.85, "population": 1230}, {"name": "Loipersbach im Burgenland", "lat": 47.69656, "lng": 16.47919, "population": 1229}, {"name": "Kilb", "lat": 48.10101, "lng": 15.4085, "population": 1229}, {"name": "Zell an der Pram", "lat": 48.31625, "lng": 13.62923, "population": 1228}, {"name": "Großlobming", "lat": 47.18333, "lng": 14.8, "population": 1228}, {"name": "Laussa", "lat": 47.95, "lng": 14.45, "population": 1227}, {"name": "Angerberg", "lat": 47.50672, "lng": 12.04033, "population": 1225}, {"name": "Finkenberg", "lat": 47.15279, "lng": 11.82212, "population": 1221}, {"name": "Mötz", "lat": 47.28333, "lng": 10.95, "population": 1219}, {"name": "Bergern", "lat": 48.16752, "lng": 14.11153, "population": 1214}, {"name": "Strengen", "lat": 47.12589, "lng": 10.46199, "population": 1213}, {"name": "Rosenau am Sonntagberg", "lat": 48.00778, "lng": 14.73927, "population": 1213}, {"name": "Krottendorf bei Ligist", "lat": 47.01667, "lng": 15.21667, "population": 1211}, {"name": "Neumarkt an der Ybbs", "lat": 48.14103, "lng": 15.05758, "population": 1207}, {"name": "Launsdorf", "lat": 46.77056, "lng": 14.45194, "population": 1207}, {"name": "Wartberg ob der Aist", "lat": 48.34792, "lng": 14.50796, "population": 1206}, {"name": "Pama", "lat": 48.0473, "lng": 17.0332, "population": 1204}, {"name": "Deutsch Kaltenbrunn", "lat": 47.0888, "lng": 16.1069, "population": 1203}, {"name": "Gries", "lat": 46.8316, "lng": 14.85103, "population": 1203}, {"name": "Utschtal", "lat": 47.4, "lng": 15.2, "population": 1202}, {"name": "Oehling", "lat": 48.1, "lng": 14.8, "population": 1200}, {"name": "Höfen", "lat": 47.46667, "lng": 10.68333, "population": 1200}, {"name": "Rohrbach an der Gölsen", "lat": 48.04699, "lng": 15.74169, "population": 1199}, {"name": "Drassburg", "lat": 47.74645, "lng": 16.48679, "population": 1199}, {"name": "Hochfilzen", "lat": 47.46667, "lng": 12.61667, "population": 1196}, {"name": "Taugl", "lat": 47.64747, "lng": 13.20282, "population": 1196}, {"name": "Dörfl", "lat": 48.01245, "lng": 13.65472, "population": 1195}, {"name": "Hart", "lat": 48.1532, "lng": 15.61569, "population": 1194}, {"name": "Leithaprodersdorf", "lat": 47.93348, "lng": 16.47915, "population": 1193}, {"name": "Ilz", "lat": 47.08649, "lng": 15.92676, "population": 1192}, {"name": "Eggendorf", "lat": 48.1313, "lng": 15.6196, "population": 1191}, {"name": "Schachen bei Vorau", "lat": 47.3801, "lng": 15.85816, "population": 1190}, {"name": "Mariahof", "lat": 47.1, "lng": 14.4, "population": 1188}, {"name": "Abtenau", "lat": 47.56373, "lng": 13.34599, "population": 1188}, {"name": "Hof", "lat": 47.86667, "lng": 13.31667, "population": 1187}, {"name": "Ampflwang", "lat": 48.08333, "lng": 13.56667, "population": 1187}, {"name": "Tadten", "lat": 47.7642, "lng": 16.9865, "population": 1186}, {"name": "Himmelreich", "lat": 47.79, "lng": 12.987, "population": 1186}, {"name": "Lofer", "lat": 47.58475, "lng": 12.69333, "population": 1185}, {"name": "Greinsfurth", "lat": 48.10846, "lng": 14.8439, "population": 1185}, {"name": "Mautern in Steiermark", "lat": 47.4, "lng": 14.83333, "population": 1184}, {"name": "Sigless", "lat": 47.77533, "lng": 16.39503, "population": 1183}, {"name": "Neubau", "lat": 48.21901, "lng": 14.19301, "population": 1182}, {"name": "Litzelsdorf", "lat": 47.20826, "lng": 16.1717, "population": 1181}, {"name": "Batschuns", "lat": 47.27642, "lng": 9.6717, "population": 1181}, {"name": "Pyhra", "lat": 48.1591, "lng": 15.68624, "population": 1179}, {"name": "Muckendorf an der Donau", "lat": 48.33183, "lng": 16.1554, "population": 1178}, {"name": "Neu-Feffernitz", "lat": 46.68772, "lng": 13.67914, "population": 1178}, {"name": "Göttelsberg", "lat": 47.21667, "lng": 15.6, "population": 1177}, {"name": "Möllbrücke", "lat": 46.83639, "lng": 13.37278, "population": 1176}, {"name": "Grosssulz", "lat": 46.94556, "lng": 15.49028, "population": 1176}, {"name": "Diesseits", "lat": 48.29216, "lng": 13.43546, "population": 1176}, {"name": "Pill", "lat": 47.32352, "lng": 11.68018, "population": 1174}, {"name": "Altlichtenberg", "lat": 48.36001, "lng": 14.25845, "population": 1174}, {"name": "Gugging", "lat": 48.31385, "lng": 16.24852, "population": 1173}, {"name": "Klingenbach", "lat": 47.75202, "lng": 16.54069, "population": 1172}, {"name": "Albersdorf", "lat": 47.12166, "lng": 15.69826, "population": 1172}, {"name": "Bergham", "lat": 48.28182, "lng": 14.23141, "population": 1171}, {"name": "Mitterpullendorf", "lat": 47.49325, "lng": 16.52129, "population": 1169}, {"name": "Wilfersdorf", "lat": 48.58333, "lng": 16.63333, "population": 1168}, {"name": "Neumarkt im Mühlkreis", "lat": 48.42818, "lng": 14.48444, "population": 1167}, {"name": "Lackenbach", "lat": 47.59042, "lng": 16.46533, "population": 1167}, {"name": "Prambachkirchen", "lat": 48.31711, "lng": 13.90449, "population": 1164}, {"name": "Wimsbach", "lat": 48.06667, "lng": 13.9, "population": 1164}, {"name": "Frohsdorf", "lat": 47.75076, "lng": 16.26383, "population": 1163}, {"name": "Altenfelden", "lat": 48.48555, "lng": 13.9698, "population": 1163}, {"name": "Oeynhausen", "lat": 47.98533, "lng": 16.29187, "population": 1159}, {"name": "Brandenberg", "lat": 47.49053, "lng": 11.89459, "population": 1158}, {"name": "Abwinden", "lat": 48.25903, "lng": 14.42625, "population": 1158}, {"name": "Pillichsdorf", "lat": 48.35, "lng": 16.53333, "population": 1157}, {"name": "Krumegg", "lat": 47.02111, "lng": 15.63139, "population": 1156}, {"name": "Reitberg", "lat": 47.85269, "lng": 13.1573, "population": 1156}, {"name": "Waldneukirchen", "lat": 47.99854, "lng": 14.25879, "population": 1154}, {"name": "Oberwölbling", "lat": 48.31719, "lng": 15.59166, "population": 1151}, {"name": "Gneixendorf", "lat": 48.43751, "lng": 15.6181, "population": 1150}, {"name": "Itter", "lat": 47.47009, "lng": 12.14391, "population": 1150}, {"name": "Kaindorf", "lat": 47.22537, "lng": 15.91125, "population": 1149}, {"name": "Ysper", "lat": 48.28865, "lng": 15.06131, "population": 1149}, {"name": "Rauris", "lat": 47.22656, "lng": 12.99459, "population": 1146}, {"name": "Proleb", "lat": 47.4, "lng": 15.13333, "population": 1146}, {"name": "Margarethen am Moos", "lat": 48.03333, "lng": 16.6, "population": 1145}, {"name": "Farrach", "lat": 47.18333, "lng": 14.73333, "population": 1145}, {"name": "Zellerndorf", "lat": 48.69657, "lng": 15.95841, "population": 1144}, {"name": "Weißenbach bei Liezen", "lat": 47.57265, "lng": 14.20451, "population": 1144}, {"name": "Haag am Hausruck", "lat": 48.18423, "lng": 13.64373, "population": 1144}, {"name": "Stuhlfelden", "lat": 47.28761, "lng": 12.52755, "population": 1143}, {"name": "Rohr im Kremstal", "lat": 48.06864, "lng": 14.19306, "population": 1142}, {"name": "Pettneu", "lat": 47.14595, "lng": 10.33655, "population": 1141}, {"name": "Hofstetten", "lat": 48.09711, "lng": 15.51149, "population": 1141}, {"name": "Erpfendorf", "lat": 47.58333, "lng": 12.46667, "population": 1141}, {"name": "Ulrichskirchen", "lat": 48.4, "lng": 16.48333, "population": 1137}, {"name": "Laab im Walde", "lat": 48.15486, "lng": 16.17359, "population": 1137}, {"name": "Aurolzmünster", "lat": 48.24834, "lng": 13.45533, "population": 1137}, {"name": "Krumnussbaum", "lat": 48.20877, "lng": 15.16212, "population": 1135}, {"name": "Serfaus", "lat": 47.04018, "lng": 10.60339, "population": 1134}, {"name": "Oberneukirchen", "lat": 48.46404, "lng": 14.22275, "population": 1134}, {"name": "Langenegg", "lat": 47.46922, "lng": 9.89744, "population": 1133}, {"name": "Vogau", "lat": 46.73187, "lng": 15.60837, "population": 1133}, {"name": "Weikendorf", "lat": 48.34438, "lng": 16.76651, "population": 1132}, {"name": "Niederbreitenbach", "lat": 47.53333, "lng": 12.08333, "population": 1132}, {"name": "Hartheim", "lat": 48.28079, "lng": 14.11426, "population": 1131}, {"name": "Aurach", "lat": 47.41223, "lng": 12.42734, "population": 1130}, {"name": "Schenkenfelden", "lat": 48.50273, "lng": 14.36188, "population": 1129}, {"name": "Hochtregist", "lat": 47.1, "lng": 15.13333, "population": 1129}, {"name": "Hitzendorf", "lat": 47.03333, "lng": 15.3, "population": 1129}, {"name": "Sankt Jakob-Breitenau", "lat": 47.39229, "lng": 15.4297, "population": 1127}, {"name": "Großdorf", "lat": 47.43361, "lng": 9.91528, "population": 1125}, {"name": "Eberndorf", "lat": 46.59139, "lng": 14.64361, "population": 1124}, {"name": "Ulrichsberg", "lat": 48.67498, "lng": 13.91049, "population": 1121}, {"name": "Groß-Gerungs", "lat": 48.57422, "lng": 14.95789, "population": 1121}, {"name": "Hartkirchen", "lat": 48.36349, "lng": 14.00422, "population": 1120}, {"name": "Scheffau am Tennengebirge", "lat": 47.58831, "lng": 13.2202, "population": 1119}, {"name": "Neusiedl an der Zaya", "lat": 48.5992, "lng": 16.7799, "population": 1119}, {"name": "Zell-Markt", "lat": 47.95878, "lng": 14.78318, "population": 1119}, {"name": "Mitterhofen", "lat": 47.38333, "lng": 12.8, "population": 1118}, {"name": "Ledenitzen", "lat": 46.56639, "lng": 13.96139, "population": 1118}, {"name": "Virgen", "lat": 47.00367, "lng": 12.45741, "population": 1117}, {"name": "Sarleinsbach", "lat": 48.54525, "lng": 13.90491, "population": 1115}, {"name": "Ehrenhausen", "lat": 46.72417, "lng": 15.58667, "population": 1115}, {"name": "Sankt Margarethen an der Raab", "lat": 47.05, "lng": 15.75, "population": 1114}, {"name": "Sankt Gilgen", "lat": 47.76667, "lng": 13.36667, "population": 1113}, {"name": "Sankt Martin im Mühlkreis", "lat": 48.41553, "lng": 14.03821, "population": 1111}, {"name": "Inzersdorf im Kremstal", "lat": 47.92808, "lng": 14.08104, "population": 1111}, {"name": "Oberschützen", "lat": 47.35138, "lng": 16.20732, "population": 1110}, {"name": "Bodensdorf", "lat": 46.69111, "lng": 13.97111, "population": 1109}, {"name": "Ellbögen", "lat": 47.16667, "lng": 11.45, "population": 1109}, {"name": "Großebersdorf", "lat": 48.36405, "lng": 16.47076, "population": 1108}, {"name": "Michelhausen", "lat": 48.29085, "lng": 15.93893, "population": 1107}, {"name": "Bizau", "lat": 47.36906, "lng": 9.92839, "population": 1107}, {"name": "Barwies", "lat": 47.305, "lng": 10.96649, "population": 1107}, {"name": "Wilfleinsdorf", "lat": 48.01667, "lng": 16.71667, "population": 1106}, {"name": "Parschlug", "lat": 47.4809, "lng": 15.28645, "population": 1104}, {"name": "Hinterglemm", "lat": 47.37685, "lng": 12.59583, "population": 1104}, {"name": "Reichraming", "lat": 47.88333, "lng": 14.45, "population": 1103}, {"name": "Neusiedl", "lat": 47.88769, "lng": 15.96313, "population": 1103}, {"name": "Pfaffenhofen", "lat": 47.3, "lng": 11.08333, "population": 1102}, {"name": "Schönberg im Stubaital", "lat": 47.18333, "lng": 11.41667, "population": 1101}, {"name": "Rabensburg", "lat": 48.65, "lng": 16.9, "population": 1100}, {"name": "Gutau", "lat": 48.41724, "lng": 14.61285, "population": 1097}, {"name": "Grossraming", "lat": 47.88333, "lng": 14.55, "population": 1097}, {"name": "Lans", "lat": 47.23833, "lng": 11.43139, "population": 1096}, {"name": "Gniebing", "lat": 46.96252, "lng": 15.85645, "population": 1095}, {"name": "Neutal", "lat": 47.54548, "lng": 16.44619, "population": 1094}, {"name": "Maria Saal", "lat": 46.68083, "lng": 14.34861, "population": 1094}, {"name": "Treibach", "lat": 46.86667, "lng": 14.46667, "population": 1093}, {"name": "Payerbach", "lat": 47.69209, "lng": 15.8634, "population": 1093}, {"name": "Ohlsdorf", "lat": 47.96073, "lng": 13.79145, "population": 1093}, {"name": "Habach", "lat": 47.81753, "lng": 13.16252, "population": 1092}, {"name": "Gaschurn", "lat": 46.98584, "lng": 10.02702, "population": 1091}, {"name": "Dölsach", "lat": 46.82833, "lng": 12.84528, "population": 1090}, {"name": "Tulfes", "lat": 47.25806, "lng": 11.53333, "population": 1089}, {"name": "Ruprechtshofen", "lat": 48.13648, "lng": 15.27675, "population": 1089}, {"name": "Enzersfeld", "lat": 48.36338, "lng": 16.42387, "population": 1089}, {"name": "Freidorf an der Laßnitz", "lat": 46.81667, "lng": 15.25, "population": 1087}, {"name": "Sankt Peter-Freienstein", "lat": 47.38333, "lng": 15.01667, "population": 1086}, {"name": "Sankt Kathrein am Offenegg", "lat": 47.30078, "lng": 15.57764, "population": 1086}, {"name": "Riefensberg", "lat": 47.50137, "lng": 9.95838, "population": 1086}, {"name": "Landegg", "lat": 47.9, "lng": 16.4, "population": 1085}, {"name": "Niederneukirchen", "lat": 48.16093, "lng": 14.33965, "population": 1083}, {"name": "St. Martin of Tennengebirge", "lat": 47.465, "lng": 13.37761, "population": 1083}, {"name": "Neudorf im Weinviertel", "lat": 48.72083, "lng": 16.49139, "population": 1082}, {"name": "Weisskirchen an der Traun", "lat": 48.16202, "lng": 14.12395, "population": 1081}, {"name": "Sankt Leonhard", "lat": 47.72587, "lng": 13.04577, "population": 1081}, {"name": "Rain", "lat": 46.60528, "lng": 14.38611, "population": 1081}, {"name": "Übelbach", "lat": 47.22534, "lng": 15.23615, "population": 1078}, {"name": "Edelschrott", "lat": 47.02156, "lng": 15.05266, "population": 1077}, {"name": "Fiecht", "lat": 47.35, "lng": 11.7, "population": 1076}, {"name": "Lermoos", "lat": 47.40358, "lng": 10.8807, "population": 1075}, {"name": "Kobersdorf", "lat": 47.59572, "lng": 16.39173, "population": 1074}, {"name": "Ranggen", "lat": 47.25727, "lng": 11.2112, "population": 1072}, {"name": "Gailitz", "lat": 46.56083, "lng": 13.70444, "population": 1072}, {"name": "Au", "lat": 47.32176, "lng": 9.98067, "population": 1070}, {"name": "Schleedorf", "lat": 47.95, "lng": 13.15, "population": 1069}, {"name": "Heiligenblut", "lat": 47.03979, "lng": 12.84345, "population": 1069}, {"name": "Tannheim", "lat": 47.49934, "lng": 10.51641, "population": 1067}, {"name": "Weikersdorf am Steinfelde", "lat": 47.80612, "lng": 16.14389, "population": 1066}, {"name": "Heiligeneich", "lat": 48.29964, "lng": 15.89413, "population": 1066}, {"name": "Eberstalzell", "lat": 48.04392, "lng": 13.98319, "population": 1065}, {"name": "Audorf", "lat": 48.2181, "lng": 14.27931, "population": 1064}, {"name": "Falkenburg", "lat": 47.5, "lng": 14.08333, "population": 1063}, {"name": "Irrsdorf", "lat": 47.96667, "lng": 13.28333, "population": 1062}, {"name": "Ardagger Stift", "lat": 48.15, "lng": 14.83333, "population": 1061}, {"name": "Reichenfels", "lat": 47.00718, "lng": 14.74425, "population": 1060}, {"name": "Öblarn", "lat": 47.45938, "lng": 13.99023, "population": 1059}, {"name": "Oberhart", "lat": 48.18464, "lng": 14.05497, "population": 1059}, {"name": "Lockenhaus", "lat": 47.40753, "lng": 16.41623, "population": 1058}, {"name": "Brunn", "lat": 46.72944, "lng": 15.3, "population": 1056}, {"name": "Köstendorf", "lat": 47.95, "lng": 13.2, "population": 1055}, {"name": "Wagram", "lat": 48.23828, "lng": 14.22996, "population": 1054}, {"name": "Seewalchen", "lat": 47.90293, "lng": 13.1313, "population": 1054}, {"name": "Neuhofen an der Ybbs", "lat": 48.05795, "lng": 14.85489, "population": 1054}, {"name": "Altenberg bei Linz", "lat": 48.37284, "lng": 14.35029, "population": 1054}, {"name": "Sooss", "lat": 47.98464, "lng": 16.21737, "population": 1050}, {"name": "Walserfeld", "lat": 47.789, "lng": 12.977, "population": 1050}, {"name": "Hinterberg", "lat": 47.36066, "lng": 15.06951, "population": 1050}, {"name": "Faak am See", "lat": 46.56806, "lng": 13.90972, "population": 1049}, {"name": "Asparn an der Zaya", "lat": 48.58333, "lng": 16.5, "population": 1048}, {"name": "Pettnau", "lat": 47.29204, "lng": 11.15962, "population": 1047}, {"name": "Grafendorf bei Hartberg", "lat": 47.34028, "lng": 15.9906, "population": 1047}, {"name": "Lehen", "lat": 47.87083, "lng": 13.01722, "population": 1046}, {"name": "Vordernberg", "lat": 47.48809, "lng": 14.99436, "population": 1045}, {"name": "Bad Waltersdorf", "lat": 47.1696, "lng": 16.0087, "population": 1045}, {"name": "Niederau", "lat": 47.45, "lng": 12.08333, "population": 1043}, {"name": "Mitterndorf im Steirischen Salzkammergut", "lat": 47.55556, "lng": 13.93187, "population": 1043}, {"name": "Krumbach", "lat": 47.48306, "lng": 9.93583, "population": 1042}, {"name": "Münzbach", "lat": 48.26737, "lng": 14.71009, "population": 1041}, {"name": "Burgau", "lat": 47.14268, "lng": 16.09643, "population": 1040}, {"name": "Zwentendorf", "lat": 48.3453, "lng": 15.91026, "population": 1039}, {"name": "Neue Heimat", "lat": 48.24565, "lng": 13.04172, "population": 1037}, {"name": "Prellenkirchen", "lat": 48.07401, "lng": 16.95233, "population": 1036}, {"name": "Puchkirchen am Trattberg", "lat": 48.04478, "lng": 13.57198, "population": 1036}, {"name": "Kleinsöding", "lat": 47.0, "lng": 15.28333, "population": 1035}, {"name": "Hoheneich", "lat": 48.77195, "lng": 15.02857, "population": 1035}, {"name": "Hetzendorf", "lat": 47.18333, "lng": 14.68333, "population": 1035}, {"name": "Unternberg", "lat": 47.11269, "lng": 13.74261, "population": 1035}, {"name": "Stephanshart", "lat": 48.15, "lng": 14.81667, "population": 1034}, {"name": "Steinfeld", "lat": 47.71254, "lng": 13.6326, "population": 1033}, {"name": "Wolfsthal", "lat": 48.13333, "lng": 17.0, "population": 1032}, {"name": "Maria Alm am Steinernen Meer", "lat": 47.40579, "lng": 12.90121, "population": 1032}, {"name": "Schleinbach", "lat": 48.41992, "lng": 16.47809, "population": 1031}, {"name": "Moosburg", "lat": 46.6575, "lng": 14.17472, "population": 1030}, {"name": "Maria Ellend", "lat": 48.1, "lng": 16.68333, "population": 1030}, {"name": "Klein Sankt Paul", "lat": 46.83611, "lng": 14.54139, "population": 1030}, {"name": "Doren", "lat": 47.49278, "lng": 9.87972, "population": 1029}, {"name": "Waiern", "lat": 46.73028, "lng": 14.08194, "population": 1028}, {"name": "Zagersdorf", "lat": 47.76471, "lng": 16.51382, "population": 1027}, {"name": "Natternbach", "lat": 48.3973, "lng": 13.74965, "population": 1027}, {"name": "Höf", "lat": 47.13401, "lng": 15.49092, "population": 1027}, {"name": "Sachsenburg", "lat": 46.82917, "lng": 13.355, "population": 1026}, {"name": "Tillmitsch Links der Laßnitz", "lat": 46.80955, "lng": 15.52394, "population": 1026}, {"name": "Sankt Martin am Ybbsfelde", "lat": 48.16425, "lng": 15.02076, "population": 1025}, {"name": "Heimschuh", "lat": 46.76, "lng": 15.49306, "population": 1025}, {"name": "Selzthal", "lat": 47.54988, "lng": 14.31201, "population": 1023}, {"name": "Stollhofen", "lat": 48.35226, "lng": 15.75963, "population": 1022}, {"name": "Sankt Stefan ob Leoben", "lat": 47.31672, "lng": 14.97831, "population": 1022}, {"name": "Spatenhof", "lat": 46.9625, "lng": 15.36111, "population": 1021},