[{"name": "Cotonou", "lat": 6.36536, "lng": 2.41833, "population": 679012}, {"name": "Abomey-Calavi", "lat": 6.44852, "lng": 2.35566, "population": 385755}, {"name": "Porto-Novo", "lat": 6.49646, "lng": 2.60359, "population": 264320}, {"name": "Parakou", "lat": 9.33716, "lng": 2.63031, "population": 255478}, {"name": "Godomè", "lat": 6.38948, "lng": 2.34581, "population": 253262}, {"name": "Abomey", "lat": 7.18286, "lng": 1.99119, "population": 117824}, {"name": "Djougou", "lat": 9.70853, "lng": 1.66598, "population": 94773}, {"name": "Bohicon", "lat": 7.17826, "lng": 2.0667, "population": 93744}, {"name": "Ekpé", "lat": 6.39209, "lng": 2.53725, "population": 75313}, {"name": "Nikki", "lat": 9.94009, "lng": 3.21075, "population": 66109}, {"name": "Malanville", "lat": 11.86819, "lng": 3.38327, "population": 64639}, {"name": "Kandi", "lat": 11.13417, "lng": 2.93861, "population": 56043}, {"name": "Kérou", "lat": 10.82578, "lng": 2.10479, "population": 54276}, {"name": "Natitingou", "lat": 10.30416, "lng": 1.37962, "population": 53284}, {"name": "Pobé", "lat": 6.98008, "lng": 2.6649, "population": 49232}, {"name": "Ouidah", "lat": 6.36307, "lng": 2.08506, "population": 47616}, {"name": "Lokossa", "lat": 6.63869, "lng": 1.71674, "population": 47246}, {"name": "Bassila", "lat": 9.00814, "lng": 1.6654, "population": 46569}, {"name": "Tchaourou", "lat": 8.88649, "lng": 2.59753, "population": 43862}, {"name": "Cové", "lat": 7.22097, "lng": 2.34017, "population": 43554}, {"name": "Sakété", "lat": 6.73618, "lng": 2.65866, "population": 43541}, {"name": "Comé", "lat": 6.40764, "lng": 1.88198, "population": 42586}, {"name": "Missérété", "lat": 6.55872, "lng": 2.59063, "population": 41657}, {"name": "Dogbo", "lat": 6.79911, "lng": 1.78073, "population": 41341}, {"name": "Kétou", "lat": 7.36332, "lng": 2.59978, "population": 39626}, {"name": "Savalou", "lat": 7.92807, "lng": 1.97558, "population": 38162}, {"name": "Banikoara", "lat": 11.29845, "lng": 2.43856, "population": 37571}, {"name": "Péhonko", "lat": 10.22746, "lng": 2.00192, "population": 37217}, {"name": "Kalalé", "lat": 10.29275, "lng": 3.38367, "population": 35513}, {"name": "Sinendé", "lat": 10.34963, "lng": 2.37906, "population": 35267}, {"name": "Banigbé", "lat": 6.64756, "lng": 2.70695, "population": 31984}, {"name": "Savé", "lat": 8.03424, "lng": 2.4866, "population": 31444}, {"name": "Bembèrèkè", "lat": 10.22827, "lng": 2.66335, "population": 31176}, {"name": "Dassa-Zoumè", "lat": 7.75, "lng": 2.18333, "population": 29461}, {"name": "Kopargo", "lat": 9.84108, "lng": 1.54231, "population": 28605}, {"name": "Kouandé", "lat": 6.4, "lng": 2.06667, "population": 27197}, {"name": "Tanguiéta", "lat": 10.62118, "lng": 1.26651, "population": 27094}, {"name": "Kpozoun", "lat": 7.22868, "lng": 2.21317, "population": 26688}, {"name": "Sé", "lat": 6.51115, "lng": 1.82831, "population": 26627}, {"name": "Ségbana", "lat": 10.92821, "lng": 3.69429, "population": 26440}, {"name": "Aplahoué", "lat": 6.93333, "lng": 1.68333, "population": 26340}, {"name": "Cobly", "lat": 10.49222, "lng": 0.99972, "population": 24878}, {"name": "Matéri", "lat": 10.69623, "lng": 1.06307, "population": 24490}, {"name": "Adjarra", "lat": 6.53445, "lng": 2.66833, "population": 24132}, {"name": "Djidja", "lat": 7.34436, "lng": 1.93447, "population": 23781}, {"name": "Klouékanmè", "lat": 6.98028, "lng": 1.84222, "population": 23763}, {"name": "Semi", "lat": 6.36667, "lng": 2.61667, "population": 23636}, {"name": "Allada", "lat": 6.66547, "lng": 2.15138, "population": 23287}, {"name": "Ndali", "lat": 9.8636, "lng": 2.72094, "population": 23264}, {"name": "Boukoumbé", "lat": 10.17711, "lng": 1.10621, "population": 22386}, {"name": "Adjaouèrè", "lat": 7.00228, "lng": 2.60591, "population": 21968}, {"name": "Toviklin", "lat": 6.88935, "lng": 1.83722, "population": 21617}, {"name": "Avrankou", "lat": 6.55591, "lng": 2.65123, "population": 20326}, {"name": "Glazoué", "lat": 7.97252, "lng": 2.22176, "population": 20036}, {"name": "Ganvié", "lat": 6.46441, "lng": 2.39288, "population": 20000}, {"name": "Djakotomé", "lat": 6.8991, "lng": 1.71618, "population": 19498}, {"name": "Zinvié", "lat": 6.61738, "lng": 2.35776, "population": 18157}, {"name": "Banté", "lat": 8.41221, "lng": 1.88969, "population": 17682}, {"name": "Ouaké", "lat": 9.66167, "lng": 1.38472, "population": 17259}, {"name": "Ouinhi", "lat": 7.08411, "lng": 2.48343, "population": 17043}, {"name": "Tobré", "lat": 10.19499, "lng": 2.12999, "population": 16912}, {"name": "Zé", "lat": 6.78333, "lng": 2.3, "population": 16903}, {"name": "Toukountouna", "lat": 10.50279, "lng": 1.37437, "population": 16330}, {"name": "Pèrèrè", "lat": 9.79721, "lng": 2.98403, "population": 15927}, {"name": "Ouessé", "lat": 8.48639, "lng": 2.42872, "population": 15658}, {"name": "Athiémé", "lat": 6.5808, "lng": 1.6696, "population": 15195}, {"name": "Tori-Bossito", "lat": 6.50302, "lng": 2.1441, "population": 14844}, {"name": "Gogounou", "lat": 10.8399, "lng": 2.83174, "population": 14248}, {"name": "Lalo", "lat": 6.92869, "lng": 1.88994, "population": 13451}, {"name": "Hévié", "lat": 6.41667, "lng": 2.25, "population": 13450}, {"name": "Bétérou", "lat": 9.19916, "lng": 2.25855, "population": 13108}, {"name": "Sam", "lat": 11.03287, "lng": 2.73282, "population": 12006}, {"name": "Grand-Popo", "lat": 6.28036, "lng": 1.82251, "population": 9847}, {"name": "Zounké", "lat": 6.61621, "lng": 2.52836, "population": 8326}, {"name": "Guilmaro", "lat": 10.56583, "lng": 1.72444, "population": 6516}, {"name": "Agoué", "lat": 6.2463, "lng": 1.67624, "population": 5148}, {"name": "Hinvi", "lat": 6.76667, "lng": 2.16667, "population": 3604}, {"name": "Zagnanado", "lat": 7.22097, "lng": 2.38335, "population": 0}, {"name": "So-Ava", "lat": 6.49245, "lng": 2.40193, "population": 0}, {"name": "Sé", "lat": 6.7539, "lng": 2.10365, "population": 0}, {"name": "Pahou", "lat": 6.38774, "lng": 2.21423, "population": 0}, {"name": "Goumori", "lat": 11.18131, "lng": 2.29295, "population": 0}, {"name": "Avakpa", "lat": 6.66239, "lng": 2.04249, "population": 0}, {"name": "Angara-Débou", "lat": 11.32454, "lng": 3.05886, "population": 0}, {"name": "Adjohon", "lat": 6.71853, "lng": 2.47759, "population": 0}, {"name": "Houinvigue", "lat": 6.8862, "lng": 2.4806, "population": 0}, {"name": "Kpomassè", "lat": 6.46216, "lng": 1.99362, "population": 0}]