[{"name": "São Paulo", "lat": -23.5475, "lng": -46.63611, "population": 12400232}, {"name": "Rio de Janeiro", "lat": -22.90642, "lng": -43.18223, "population": 6747815}, {"name": "Belo Horizonte", "lat": -19.92083, "lng": -43.93778, "population": 2721564}, {"name": "Salvador", "lat": -12.97563, "lng": -38.49096, "population": 2711840}, {"name": "Fortaleza", "lat": -3.71722, "lng": -38.54306, "population": 2400000}, {"name": "Manaus", "lat": -3.10194, "lng": -60.025, "population": 2219580}, {"name": "Brasília", "lat": -15.77972, "lng": -47.92972, "population": 2207718}, {"name": "Curitiba", "lat": -25.42778, "lng": -49.27306, "population": 1948626}, {"name": "Recife", "lat": -8.05389, "lng": -34.88111, "population": 1653461}, {"name": "Goiânia", "lat": -16.67861, "lng": -49.25389, "population": 1536097}, {"name": "Belém", "lat": -1.45583, "lng": -48.50444, "population": 1499641}, {"name": "Porto Alegre", "lat": -30.03283, "lng": -51.23019, "population": 1488252}, {"name": "Guarulhos", "lat": -23.46278, "lng": -46.53333, "population": 1169577}, {"name": "Maceió", "lat": -9.66583, "lng": -35.73528, "population": 1031597}, {"name": "Campinas", "lat": -22.90556, "lng": -47.06083, "population": 1031554}, {"name": "São Luís", "lat": -2.52972, "lng": -44.30278, "population": 917237}, {"name": "Campo Grande", "lat": -20.44278, "lng": -54.64639, "population": 906092}, {"name": "Natal", "lat": -5.795, "lng": -35.20944, "population": 896708}, {"name": "Teresina", "lat": -5.08917, "lng": -42.80194, "population": 871126}, {"name": "Nova Iguaçu", "lat": -22.75917, "lng": -43.45111, "population": 823302}, {"name": "Duque de Caxias", "lat": -22.78556, "lng": -43.31167, "population": 818329}, {"name": "João Pessoa", "lat": -7.115, "lng": -34.86306, "population": 817511}, {"name": "São Bernardo do Campo", "lat": -23.69389, "lng": -46.565, "population": 743372}, {"name": "São José dos Campos", "lat": -23.17944, "lng": -45.88694, "population": 729737}, {"name": "Osasco", "lat": -23.5325, "lng": -46.79167, "population": 728615}, {"name": "Ribeirão Preto", "lat": -21.1775, "lng": -47.81028, "population": 711825}, {"name": "Jaboatão", "lat": -8.18028, "lng": -35.00139, "population": 702621}, {"name": "Sorocaba", "lat": -23.50167, "lng": -47.45806, "population": 687357}, {"name": "Aracaju", "lat": -10.91111, "lng": -37.07167, "population": 664908}, {"name": "Santo André", "lat": -23.66389, "lng": -46.53833, "population": 662373}, {"name": "Jaboatão dos Guararapes", "lat": -8.11278, "lng": -35.01472, "population": 644037}, {"name": "Contagem", "lat": -19.93167, "lng": -44.05361, "population": 627123}, {"name": "Feira de Santana", "lat": -12.26667, "lng": -38.96667, "population": 619609}, {"name": "Cuiabá", "lat": -15.59611, "lng": -56.09667, "population": 618124}, {"name": "Londrina", "lat": -23.31028, "lng": -51.16278, "population": 588125}, {"name": "Juiz de Fora", "lat": -21.76417, "lng": -43.35028, "population": 573285}, {"name": "Uberlândia", "lat": -18.91861, "lng": -48.27722, "population": 563536}, {"name": "Porto Velho", "lat": -8.76194, "lng": -63.90389, "population": 548952}, {"name": "Serra", "lat": -20.12861, "lng": -40.30778, "population": 520653}, {"name": "Macapá", "lat": 0.03889, "lng": -51.06639, "population": 512902}, {"name": "Campos dos Goytacazes", "lat": -21.75227, "lng": -41.33044, "population": 511168}, {"name": "Aparecida de Goiânia", "lat": -16.82333, "lng": -49.24389, "population": 510770}, {"name": "Florianópolis", "lat": -27.59667, "lng": -48.54917, "population": 508826}, {"name": "São José do Rio Preto", "lat": -20.81972, "lng": -49.37944, "population": 480393}, {"name": "Mauá", "lat": -23.66778, "lng": -46.46139, "population": 477552}, {"name": "São João de Meriti", "lat": -22.80389, "lng": -43.37222, "population": 466536}, {"name": "Belford Roxo", "lat": -22.76417, "lng": -43.39944, "population": 466096}, {"name": "Joinville", "lat": -26.30444, "lng": -48.84556, "population": 461304}, {"name": "Niterói", "lat": -22.88333, "lng": -43.10361, "population": 456456}, {"name": "Jundiaí", "lat": -23.18639, "lng": -46.88417, "population": 443221}, {"name": "Ananindeua", "lat": -1.36556, "lng": -48.37222, "population": 433956}, {"name": "Santos", "lat": -23.96083, "lng": -46.33361, "population": 433656}, {"name": "Boa Vista", "lat": 2.81972, "lng": -60.67333, "population": 419652}, {"name": "Rio Branco", "lat": -9.97472, "lng": -67.81, "population": 419452}, {"name": "Montes Claros", "lat": -16.735, "lng": -43.86167, "population": 414240}, {"name": "Piracicaba", "lat": -22.72528, "lng": -47.64917, "population": 407252}, {"name": "Caruaru", "lat": -8.28333, "lng": -35.97611, "population": 402290}, {"name": "Vila Velha", "lat": -20.32972, "lng": -40.2925, "population": 394930}, {"name": "Diadema", "lat": -23.68611, "lng": -46.62278, "population": 393237}, {"name": "Carapicuíba", "lat": -23.52272, "lng": -46.835, "population": 386984}, {"name": "Petrolina", "lat": -9.39861, "lng": -40.50083, "population": 386791}, {"name": "Grajaú", "lat": -23.76979, "lng": -46.67112, "population": 384873}, {"name": "Betim", "lat": -19.96778, "lng": -44.19833, "population": 384000}, {"name": "Caxias do Sul", "lat": -29.16806, "lng": -51.17944, "population": 381270}, {"name": "Bauru", "lat": -22.31472, "lng": -49.06056, "population": 379297}, {"name": "Itaquaquecetuba", "lat": -23.48611, "lng": -46.34833, "population": 369275}, {"name": "Olinda", "lat": -8.00889, "lng": -34.85528, "population": 366754}, {"name": "Blumenau", "lat": -26.91944, "lng": -49.06611, "population": 361855}, {"name": "Franca", "lat": -20.53861, "lng": -47.40083, "population": 358539}, {"name": "Caucaia", "lat": -3.73611, "lng": -38.65306, "population": 355679}, {"name": "Cariacica", "lat": -20.26389, "lng": -40.42, "population": 353491}, {"name": "Praia Grande", "lat": -24.00583, "lng": -46.40278, "population": 349935}, {"name": "Campina Grande", "lat": -7.23056, "lng": -35.88111, "population": 348936}, {"name": "Paulista", "lat": -7.94083, "lng": -34.87306, "population": 342167}, {"name": "Uberaba", "lat": -19.74833, "lng": -47.93194, "population": 337836}, {"name": "São Vicente", "lat": -23.96306, "lng": -46.39194, "population": 329911}, {"name": "Ribeirão das Neves", "lat": -19.76694, "lng": -44.08667, "population": 329794}, {"name": "São José dos Pinhais", "lat": -25.5302, "lng": -49.20836, "population": 329628}, {"name": "Canoas", "lat": -29.91778, "lng": -51.18361, "population": 328291}, {"name": "Mogi das Cruzes", "lat": -23.52278, "lng": -46.18833, "population": 325746}, {"name": "Guarujá", "lat": -23.99306, "lng": -46.25639, "population": 322750}, {"name": "Pelotas", "lat": -31.76997, "lng": -52.34101, "population": 320674}, {"name": "Anápolis", "lat": -16.32667, "lng": -48.95278, "population": 319587}, {"name": "Taubaté", "lat": -23.02639, "lng": -45.55528, "population": 317915}, {"name": "Barueri", "lat": -23.51056, "lng": -46.87611, "population": 316473}, {"name": "Várzea Grande", "lat": -15.64667, "lng": -56.1325, "population": 314627}, {"name": "Vitória", "lat": -20.31944, "lng": -40.33778, "population": 312656}, {"name": "Maringá", "lat": -23.42528, "lng": -51.93861, "population": 311724}, {"name": "Jardim Angela", "lat": -23.71636, "lng": -46.76872, "population": 311432}, {"name": "Suzano", "lat": -23.5425, "lng": -46.31083, "population": 307429}, {"name": "Palmas", "lat": -10.16745, "lng": -48.32766, "population": 306296}, {"name": "Ponta Grossa", "lat": -25.095, "lng": -50.16194, "population": 292177}, {"name": "Limeira", "lat": -22.56472, "lng": -47.40167, "population": 291869}, {"name": "Ceilândia", "lat": -15.8091, "lng": -48.13096, "population": 287023}, {"name": "Sumaré", "lat": -22.82194, "lng": -47.26694, "population": 286211}, {"name": "Viamão", "lat": -30.08111, "lng": -51.02333, "population": 285269}, {"name": "Santa Maria", "lat": -29.68417, "lng": -53.80694, "population": 283677}, {"name": "Volta Redonda", "lat": -22.52306, "lng": -44.10417, "population": 279898}, {"name": "Taboão da Serra", "lat": -23.62611, "lng": -46.79167, "population": 273542}, {"name": "Petrópolis", "lat": -22.505, "lng": -43.17861, "population": 272691}, {"name": "Capao Redondo", "lat": -23.66877, "lng": -46.78051, "population": 270767}, {"name": "São José", "lat": -27.61528, "lng": -48.6275, "population": 270299}, {"name": "Parauapebas", "lat": -6.0675, "lng": -49.90222, "population": 267836}, {"name": "Parnamirim", "lat": -5.91556, "lng": -35.26278, "population": 267036}, {"name": "Sapopemba", "lat": -23.59556, "lng": -46.52472, "population": 266715}, {"name": "Gravataí", "lat": -29.94218, "lng": -50.99278, "population": 265074}, {"name": "Mossoró", "lat": -5.1875, "lng": -37.34417, "population": 264577}, {"name": "Sacomã", "lat": -23.63083, "lng": -46.59817, "population": 261436}, {"name": "Jardim Sao Luis", "lat": -23.68073, "lng": -46.7394, "population": 259377}, {"name": "Rondonópolis", "lat": -16.47083, "lng": -54.63556, "population": 259167}, {"name": "Foz do Iguaçu", "lat": -25.54778, "lng": -54.58806, "population": 258248}, {"name": "Cascavel", "lat": -24.95583, "lng": -53.45528, "population": 257172}, {"name": "Indaiatuba", "lat": -23.08842, "lng": -47.2119, "population": 256223}, {"name": "Novo Hamburgo", "lat": -29.67833, "lng": -51.13056, "population": 253841}, {"name": "Cotia", "lat": -23.60389, "lng": -46.91917, "population": 253608}, {"name": "Vitória da Conquista", "lat": -14.86611, "lng": -40.83944, "population": 253137}, {"name": "Governador Valadares", "lat": -18.85111, "lng": -41.94944, "population": 250878}, {"name": "Embu das Artes", "lat": -23.64889, "lng": -46.85222, "population": 250691}, {"name": "Cidade Ademar", "lat": -23.67379, "lng": -46.65681, "population": 249218}, {"name": "Americana", "lat": -22.73917, "lng": -47.33139, "population": 246655}, {"name": "Colombo", "lat": -25.29167, "lng": -49.22417, "population": 246540}, {"name": "São José de Ribamar", "lat": -2.55572, "lng": -44.05992, "population": 244579}, {"name": "Magé", "lat": -22.65278, "lng": -43.04056, "population": 244092}, {"name": "Arapiraca", "lat": -9.7525, "lng": -36.66111, "population": 243661}, {"name": "Brasilandia", "lat": -23.44859, "lng": -46.68839, "population": 243273}, {"name": "Itapevi", "lat": -23.54889, "lng": -46.93417, "population": 240961}, {"name": "Marília", "lat": -22.21389, "lng": -49.94583, "population": 240590}, {"name": "Itaboraí", "lat": -22.74444, "lng": -42.85944, "population": 240040}, {"name": "Cabo Frio", "lat": -22.88717, "lng": -42.02622, "population": 238166}, {"name": "Juazeiro", "lat": -9.41167, "lng": -40.49861, "population": 237821}, {"name": "Campo Limpo", "lat": -23.63634, "lng": -46.76565, "population": 236162}, {"name": "Maracanaú", "lat": -3.87667, "lng": -38.62556, "population": 234509}, {"name": "Hortolândia", "lat": -22.85833, "lng": -47.22, "population": 234259}, {"name": "Divinópolis", "lat": -20.14355, "lng": -44.89065, "population": 231091}, {"name": "Ipatinga", "lat": -19.46833, "lng": -42.53667, "population": 228746}, {"name": "Sete Lagoas", "lat": -19.46583, "lng": -44.24667, "population": 227397}, {"name": "Rio Verde", "lat": -17.79806, "lng": -50.92806, "population": 225696}, {"name": "Águas Lindas de Goiás", "lat": -15.76194, "lng": -48.28167, "population": 225693}, {"name": "Presidente Prudente", "lat": -22.12556, "lng": -51.38889, "population": 225668}, {"name": "Juazeiro do Norte", "lat": -7.21306, "lng": -39.31528, "population": 225230}, {"name": "Santa Luzia", "lat": -19.76972, "lng": -43.85139, "population": 219132}, {"name": "Samambaia", "lat": -15.88231, "lng": -48.10428, "population": 218840}, {"name": "Imperatriz", "lat": -5.52639, "lng": -47.49167, "population": 218106}, {"name": "Cabo de Santo Agostinho", "lat": -8.28773, "lng": -35.02925, "population": 216969}, {"name": "Sinop", "lat": -11.86417, "lng": -55.5025, "population": 216029}, {"name": "Jabaquara", "lat": -23.65055, "lng": -46.64591, "population": 214958}, {"name": "Jacareí", "lat": -23.30528, "lng": -45.96583, "population": 213110}, {"name": "Maricá", "lat": -22.91944, "lng": -42.81861, "population": 211986}, {"name": "Jaraguá", "lat": -23.44077, "lng": -46.73774, "population": 211610}, {"name": "Itaquera", "lat": -23.53194, "lng": -46.44417, "population": 210960}, {"name": "São Leopoldo", "lat": -29.76028, "lng": -51.14722, "population": 209229}, {"name": "Luziânia", "lat": -16.2525, "lng": -47.95028, "population": 209129}, {"name": "Itabuna", "lat": -14.78556, "lng": -39.28028, "population": 205660}, {"name": "Itaim Paulista", "lat": -23.50308, "lng": -46.38566, "population": 205295}, {"name": "São Carlos", "lat": -22.0175, "lng": -47.89083, "population": 205035}, {"name": "Lauro de Freitas", "lat": -12.89444, "lng": -38.32722, "population": 203331}, {"name": "Sobral", "lat": -3.68611, "lng": -40.34972, "population": 203023}, {"name": "Rio Claro", "lat": -22.41139, "lng": -47.56139, "population": 201418}, {"name": "São José", "lat": -28.21344, "lng": -49.16383, "population": 200000}, {"name": "Valparaíso de Goiás", "lat": -16.06583, "lng": -47.97861, "population": 198861}, {"name": "Plano Piloto", "lat": -15.79411, "lng": -47.8825, "population": 198697}, {"name": "Taguatinga", "lat": -15.83326, "lng": -48.05506, "population": 193367}, {"name": "Nossa Senhora do Socorro", "lat": -10.855, "lng": -37.12611, "population": 192330}, {"name": "Castanhal", "lat": -1.29389, "lng": -47.92639, "population": 192256}, {"name": "Cidade Tiradentes", "lat": -23.58481, "lng": -46.40084, "population": 192177}, {"name": "Nova Friburgo", "lat": -22.28194, "lng": -42.53111, "population": 191158}, {"name": "Planaltina", "lat": -15.61791, "lng": -47.64874, "population": 189412}, {"name": "Santarém", "lat": -2.44306, "lng": -54.70833, "population": 189047}, {"name": "Camaçari", "lat": -12.6975, "lng": -38.32417, "population": 188758}, {"name": "Santa Bárbara d'Oeste", "lat": -22.75361, "lng": -47.41361, "population": 188000}, {"name": "Rio Grande", "lat": -32.035, "lng": -52.09861, "population": 187838}, {"name": "Alvorada", "lat": -30.00018, "lng": -51.07632, "population": 187315}, {"name": "Cachoeiro de Itapemirim", "lat": -20.84889, "lng": -41.11278, "population": 187019}, {"name": "Jaraguá do Sul", "lat": -26.48611, "lng": -49.06667, "population": 182660}, {"name": "Cidade Dutra", "lat": -23.72576, "lng": -46.7024, "population": 182459}, {"name": "Guarapuava", "lat": -25.39048, "lng": -51.46541, "population": 182093}, {"name": "Pirituba", "lat": -23.48982, "lng": -46.7322, "population": 179724}, {"name": "Passo Fundo", "lat": -28.26278, "lng": -52.40667, "population": 179529}, {"name": "Ferraz de Vasconcelos", "lat": -23.54083, "lng": -46.36861, "population": 179198}, {"name": "Angra dos Reis", "lat": -23.00667, "lng": -44.31806, "population": 179120}, {"name": "Bragança Paulista", "lat": -22.9527, "lng": -46.54418, "population": 176811}, {"name": "Teresópolis", "lat": -22.4167, "lng": -42.97822, "population": 176692}, {"name": "Palhoça", "lat": -27.64528, "lng": -48.66778, "population": 175272}, {"name": "Timon", "lat": -5.09417, "lng": -42.83667, "population": 174465}, {"name": "Ibirité", "lat": -20.02194, "lng": -44.05889, "population": 170537}, {"name": "Araçatuba", "lat": -21.20889, "lng": -50.43278, "population": 170024}, {"name": "Vila Andrade", "lat": -23.62623, "lng": -46.72828, "population": 168669}, {"name": "Poços de Caldas", "lat": -21.78778, "lng": -46.56139, "population": 168641}, {"name": "Araraquara", "lat": -21.79444, "lng": -48.17556, "population": 168468}, {"name": "Porto Seguro", "lat": -16.44972, "lng": -39.06472, "population": 168326}, {"name": "Rio das Ostras", "lat": -22.52694, "lng": -41.945, "population": 168099}, {"name": "Linhares", "lat": -19.39111, "lng": -40.07222, "population": 166786}, {"name": "São Caetano do Sul", "lat": -23.62306, "lng": -46.55111, "population": 165655}, {"name": "Pindamonhangaba", "lat": -22.92389, "lng": -45.46167, "population": 165428}, {"name": "Francisco Morato", "lat": -23.28167, "lng": -46.74528, "population": 165139}, {"name": "Lages", "lat": -27.81611, "lng": -50.32611, "population": 164676}, {"name": "Lajeado", "lat": -23.53361, "lng": -46.40866, "population": 164391}, {"name": "Barra Mansa", "lat": -22.54417, "lng": -44.17139, "population": 164052}, {"name": "Pedreira", "lat": -23.70675, "lng": -46.64982, "population": 163586}, {"name": "Dourados", "lat": -22.22111, "lng": -54.80556, "population": 162202}, {"name": "Criciúma", "lat": -28.6775, "lng": -49.36972, "population": 161954}, {"name": "Chapecó", "lat": -27.09639, "lng": -52.61833, "population": 160157}, {"name": "Barreiras", "lat": -12.15278, "lng": -44.99, "population": 159734}, {"name": "Patos de Minas", "lat": -18.57889, "lng": -46.51806, "population": 159235}, {"name": "Itapecerica da Serra", "lat": -23.71694, "lng": -46.84917, "population": 158522}, {"name": "Abaetetuba", "lat": -1.71806, "lng": -48.8825, "population": 158188}, {"name": "Itapetininga", "lat": -23.59167, "lng": -48.05306, "population": 157790}, {"name": "Caxias", "lat": -4.85889, "lng": -43.35611, "population": 156973}, {"name": "Camaragibe", "lat": -8.02167, "lng": -34.98111, "population": 155771}, {"name": "Itajaí", "lat": -26.90778, "lng": -48.66194, "population": 155716}, {"name": "São Mateus", "lat": -23.60583, "lng": -46.47889, "population": 155682}, {"name": "Ilhéus", "lat": -14.79909, "lng": -39.03228, "population": 155499}, {"name": "Santana de Parnaíba", "lat": -23.44417, "lng": -46.91778, "population": 154105}, {"name": "Parelheiros", "lat": -23.8275, "lng": -46.72694, "population": 153695}, {"name": "Mogi Guaçu", "lat": -22.3677, "lng": -46.94552, "population": 153658}, {"name": "Pouso Alegre", "lat": -22.23, "lng": -45.93639, "population": 152217}, {"name": "Araucária", "lat": -25.59306, "lng": -49.41028, "population": 151666}, {"name": "Garanhuns", "lat": -8.88202, "lng": -36.50216, "population": 151064}, {"name": "Santa Rita", "lat": -7.11389, "lng": -34.97806, "population": 149910}, {"name": "Iguatemi", "lat": -23.61277, "lng": -46.42667, "population": 149700}, {"name": "Queimados", "lat": -22.71611, "lng": -43.55528, "population": 149093}, {"name": "Fazenda Rio Grande", "lat": -25.6575, "lng": -49.30806, "population": 148873}, {"name": "Sao Rafael", "lat": -23.62821, "lng": -46.45395, "population": 148145}, {"name": "Botucatu", "lat": -22.88583, "lng": -48.445, "population": 148130}, {"name": "Nilópolis", "lat": -22.8075, "lng": -43.41389, "population": 147281}, {"name": "Marabá", "lat": -5.38146, "lng": -49.13232, "population": 145860}, {"name": "Paço do Lumiar", "lat": -2.53222, "lng": -44.1075, "population": 145643}, {"name": "Franco da Rocha", "lat": -23.32167, "lng": -46.72694, "population": 144849}, {"name": "Atibaia", "lat": -23.11694, "lng": -46.55028, "population": 144088}, {"name": "Cachoeirinha", "lat": -23.45442, "lng": -46.66209, "population": 143366}, {"name": "Macaé", "lat": -22.38484, "lng": -41.78324, "population": 143029}, {"name": "Trindade", "lat": -16.64944, "lng": -49.48889, "population": 142431}, {"name": "Brusque", "lat": -27.09795, "lng": -48.91281, "population": 141385}, {"name": "Cangaiba", "lat": -23.49696, "lng": -46.52045, "population": 141172}, {"name": "Paranaguá", "lat": -25.51626, "lng": -48.52537, "population": 141013}, {"name": "Vila Curuca", "lat": -23.51, "lng": -46.41566, "population": 140673}, {"name": "Gama", "lat": -16.02511, "lng": -48.07121, "population": 139467}, {"name": "Balneário Camboriú", "lat": -26.99056, "lng": -48.63472, "population": 139155}, {"name": "Sao Lucas", "lat": -23.59468, "lng": -46.54359, "population": 138038}, {"name": "Parnaíba", "lat": -2.90472, "lng": -41.77667, "population": 138008}, {"name": "Araruama", "lat": -22.87278, "lng": -42.34306, "population": 137773}, {"name": "Itu", "lat": -23.26417, "lng": -47.29917, "population": 137586}, {"name": "Freguesia do Ó", "lat": -23.49877, "lng": -46.69983, "population": 137240}, {"name": "Cidade Lider", "lat": -23.56202, "lng": -46.4913, "population": 136660}, {"name": "Varginha", "lat": -21.55139, "lng": -45.43028, "population": 136467}, {"name": "Campo Largo", "lat": -25.45955, "lng": -49.53014, "population": 136327}, {"name": "Cachoeirinha", "lat": -29.95111, "lng": -51.09389, "population": 136258}, {"name": "Araras", "lat": -22.35694, "lng": -47.38417, "population": 135331}, {"name": "Vila Jacui", "lat": -23.50262, "lng": -46.46156, "population": 134189}, {"name": "Cametá", "lat": -2.24444, "lng": -49.49583, "population": 134184}, {"name": "Vitória de Santo Antão", "lat": -8.11806, "lng": -35.29139, "population": 134084}, {"name": "Jaú", "lat": -22.29639, "lng": -48.55778, "population": 133497}, {"name": "Santa Cruz do Sul", "lat": -29.7175, "lng": -52.42583, "population": 133230}, {"name": "Sapucaia do Sul", "lat": -29.81782, "lng": -51.14551, "population": 132107}, {"name": "Rio Pequeno", "lat": -23.57139, "lng": -46.75887, "population": 131631}, {"name": "Itapipoca", "lat": -3.49444, "lng": -39.57861, "population": 131123}, {"name": "Crato", "lat": -7.23417, "lng": -39.40944, "population": 131050}, {"name": "Apucarana", "lat": -23.55083, "lng": -51.46083, "population": 130134}, {"name": "Jardim Helena", "lat": -23.4837, "lng": -46.41309, "population": 129409}, {"name": "Sabará", "lat": -19.88639, "lng": -43.80667, "population": 129380}, {"name": "Vespasiano", "lat": -19.69194, "lng": -43.92333, "population": 129246}, {"name": "Águas Claras", "lat": -15.83969, "lng": -48.02675, "population": 128486}, {"name": "Bosque Saúde", "lat": -23.60926, "lng": -46.62304, "population": 128469}, {"name": "Jose Bonifacio", "lat": -23.56742, "lng": -46.43264, "population": 128243}, {"name": "Votorantim", "lat": -23.54667, "lng": -47.43778, "population": 127923}, {"name": "Jequié", "lat": -13.85875, "lng": -40.08512, "population": 127475}, {"name": "Vila Mariana", "lat": -23.58833, "lng": -46.63464, "population": 127286}, {"name": "Sertãozinho", "lat": -21.13778, "lng": -47.99028, "population": 126887}, {"name": "Barcarena", "lat": -1.50583, "lng": -48.62583, "population": 126650}, {"name": "Valinhos", "lat": -22.97056, "lng": -46.99583, "population": 126373}, {"name": "Altamira", "lat": -3.20333, "lng": -52.20639, "population": 126279}, {"name": "Barbacena", "lat": -21.22583, "lng": -43.77361, "population": 125317}, {"name": "Guarapari", "lat": -20.67182, "lng": -40.50196, "population": 124656}, {"name": "Ji Paraná", "lat": -10.88528, "lng": -61.95167, "population": 124333}, {"name": "Itaguaí", "lat": -22.85222, "lng": -43.77528, "population": 123980}, {"name": "São Mateus", "lat": -18.72011, "lng": -39.85891, "population": 123752}, {"name": "Butanta", "lat": -23.5702, "lng": -46.72628, "population": 123748}, {"name": "Uruguaiana", "lat": -29.75472, "lng": -57.08833, "population": 123480}, {"name": "Caraguatatuba", "lat": -23.62028, "lng": -45.41306, "population": 123389}, {"name": "Itaituba", "lat": -4.27611, "lng": -55.98361, "population": 123314}, {"name": "Bento Gonçalves", "lat": -29.17139, "lng": -51.51917, "population": 123151}, {"name": "Bragança", "lat": -1.05361, "lng": -46.76556, "population": 123082}, {"name": "Tatuí", "lat": -23.35556, "lng": -47.85694, "population": 122967}, {"name": "Alagoinhas", "lat": -12.13556, "lng": -38.41917, "population": 122688}, {"name": "Itatiba", "lat": -23.00583, "lng": -46.83889, "population": 122581}, {"name": "Barretos", "lat": -20.55722, "lng": -48.56778, "population": 122485}, {"name": "Igarassu", "lat": -7.83417, "lng": -34.90639, "population": 122312}, {"name": "Sorriso", "lat": -12.54528, "lng": -55.71139, "population": 120985}, {"name": "Guará", "lat": -15.80976, "lng": -47.97202, "population": 120641}, {"name": "Almirante Tamandaré", "lat": -25.32472, "lng": -49.31, "population": 119825}, {"name": "Salto", "lat": -23.20083, "lng": -47.28694, "population": 119736}, {"name": "Toledo", "lat": -24.71361, "lng": -53.74306, "population": 119313}, {"name": "Arapongas", "lat": -23.41944, "lng": -51.42444, "population": 119138}, {"name": "Piraquara", "lat": -25.44227, "lng": -49.06795, "population": 118730}, {"name": "Sarandi", "lat": -23.44361, "lng": -51.87389, "population": 118455}, {"name": "Senador Canedo", "lat": -16.70806, "lng": -49.09306, "population": 118451}, {"name": "Jandira", "lat": -23.5275, "lng": -46.9025, "population": 118045}, {"name": "Guaratinguetá", "lat": -22.81639, "lng": -45.1925, "population": 118044}, {"name": "Araguari", "lat": -18.64722, "lng": -48.18722, "population": 117808}, {"name": "Raposo Tavares", "lat": -23.59245, "lng": -46.78561, "population": 117738}, {"name": "Bairro da Penha", "lat": -23.3684, "lng": -46.31102, "population": 117691}, {"name": "Umuarama", "lat": -23.76639, "lng": -53.325, "population": 117095}, {"name": "Pinhais", "lat": -25.44472, "lng": -49.1925, "population": 117000}, {"name": "Santa Maria", "lat": -16.03095, "lng": -48.02929, "population": 116622}, {"name": "Ipiranga", "lat": -23.59957, "lng": -46.61599, "population": 116271}, {"name": "Campo Grande", "lat": -23.67463, "lng": -46.68751, "population": 115925}, {"name": "Formosa", "lat": -15.53722, "lng": -47.33444, "population": 115901}, {"name": "São Gonçalo do Amarante", "lat": -5.79333, "lng": -35.32944, "population": 115838}, {"name": "Catanduva", "lat": -21.13778, "lng": -48.97278, "population": 115791}, {"name": "Várzea Paulista", "lat": -23.21139, "lng": -46.82833, "population": 115771}, {"name": "Santana", "lat": -23.49032, "lng": -46.6387, "population": 115689}, {"name": "Ribeirão Pires", "lat": -23.71056, "lng": -46.41333, "population": 115559}, {"name": "Recanto das Emas", "lat": -15.90864, "lng": -48.06447, "population": 115550}, {"name": "Vila Medeiros", "lat": -23.48874, "lng": -46.57762, "population": 114839}, {"name": "Simões Filho", "lat": -12.78444, "lng": -38.40389, "population": 114559}, {"name": "Catalão", "lat": -18.16583, "lng": -47.94639, "population": 114427}, {"name": "Codó", "lat": -4.45528, "lng": -43.88556, "population": 114275}, {"name": "Eunápolis", "lat": -16.3775, "lng": -39.58028, "population": 113710}, {"name": "Itabira", "lat": -19.61917, "lng": -43.22694, "population": 113343}, {"name": "Paulo Afonso", "lat": -9.40611, "lng": -38.21472, "population": 112870}, {"name": "Tangará da Serra", "lat": -14.61944, "lng": -57.48583, "population": 112547}, {"name": "Itacoatiara", "lat": -3.14306, "lng": -58.44417, "population": 112520}, {"name": "Cubatão", "lat": -23.895, "lng": -46.42528, "population": 112476}, {"name": "Ermelino Matarazzo", "lat": -23.49472, "lng": -46.47389, "population": 112333}, {"name": "Paulínia", "lat": -22.76111, "lng": -47.15417, "population": 112003}, {"name": "Passos", "lat": -20.71889, "lng": -46.60972, "population": 111939}, {"name": "Marituba", "lat": -1.35528, "lng": -48.34194, "population": 111785}, {"name": "Nova Lima", "lat": -19.98556, "lng": -43.84667, "population": 111697}, {"name": "Araxá", "lat": -19.59333, "lng": -46.94056, "population": 111691}, {"name": "Conselheiro Lafaiete", "lat": -20.66028, "lng": -43.78611, "population": 111596}, {"name": "Resende", "lat": -22.46889, "lng": -44.44667, "population": 111514}, {"name": "São Lourenço da Mata", "lat": -8.00222, "lng": -35.01833, "population": 111249}, {"name": "Manacapuru", "lat": -3.29972, "lng": -60.62056, "population": 110691}, {"name": "São Pedro da Aldeia", "lat": -22.83917, "lng": -42.10278, "population": 110556}, {"name": "Tubarão", "lat": -28.46667, "lng": -49.00694, "population": 110088}, {"name": "Guaianases", "lat": -23.54333, "lng": -46.41083, "population": 109316}, {"name": "Vila Maria", "lat": -23.51408, "lng": -46.58625, "population": 108543}, {"name": "Luis Eduardo Magalhães", "lat": -12.09086, "lng": -45.78501, "population": 107909}, {"name": "Santana", "lat": -0.03816, "lng": -51.17476, "population": 107618}, {"name": "Itaperuna", "lat": -21.205, "lng": -41.88778, "population": 107246}, {"name": "Cambé", "lat": -23.27583, "lng": -51.27833, "population": 107208}, {"name": "Breves", "lat": -1.68222, "lng": -50.48028, "population": 106968}, {"name": "Açailândia", "lat": -4.94667, "lng": -47.50472, "population": 106550}, {"name": "Jataí", "lat": -17.87939, "lng": -51.72166, "population": 105729}, {"name": "Ipojuca", "lat": -8.39889, "lng": -35.06389, "population": 105638}, {"name": "Vila Prudente", "lat": -23.59255, "lng": -46.57278, "population": 105590}, {"name": "Nova Serrana", "lat": -19.87611, "lng": -44.98361, "population": 105552}, {"name": "Paragominas", "lat": -2.99565, "lng": -47.35488, "population": 105550}, {"name": "Riacho Fundo II", "lat": -15.8981, "lng": -48.04671, "population": 105210}, {"name": "Maranguape", "lat": -3.89083, "lng": -38.68556, "population": 105093}, {"name": "Assis", "lat": -22.66167, "lng": -50.41222, "population": 105087}, {"name": "Planaltina", "lat": -15.45278, "lng": -47.61417, "population": 105031}, {"name": "Araguaína", "lat": -7.19111, "lng": -48.20722, "population": 105019}, {"name": "Artur Alvim", "lat": -23.54015, "lng": -46.48581, "population": 104864}, {"name": "Lavras", "lat": -21.24528, "lng": -44.99972, "population": 104761}, {"name": "Coronel Fabriciano", "lat": -19.51861, "lng": -42.62889, "population": 104736}, {"name": "Muriaé", "lat": -21.13056, "lng": -42.36639, "population": 104108}, {"name": "Ourinhos", "lat": -22.97889, "lng": -49.87056, "population": 103970}, {"name": "Abreu e Lima", "lat": -7.91167, "lng": -34.90278, "population": 103945}, {"name": "Novo Gama", "lat": -16.05917, "lng": -48.03944, "population": 103804}, {"name": "Poá", "lat": -23.52806, "lng": -46.34472, "population": 103765}, {"name": "Bacabal", "lat": -4.23246, "lng": -44.78164, "population": 103711}, {"name": "Mandaqui", "lat": -23.45947, "lng": -46.64086, "population": 103665}, {"name": "Vila Matilde", "lat": -23.53936, "lng": -46.51788, "population": 103558}, {"name": "Itabaiana", "lat": -10.685, "lng": -37.42528, "population": 103440}, {"name": "Ubá", "lat": -21.12, "lng": -42.94278, "population": 103365}, {"name": "Cursino", "lat": -23.63143, "lng": -46.62072, "population": 103171}, {"name": "Itanhaém", "lat": -24.18306, "lng": -46.78889, "population": 103102}, {"name": "Santo Antônio de Jesus", "lat": -12.96889, "lng": -39.26139, "population": 103055}, {"name": "Caieiras", "lat": -23.36417, "lng": -46.74056, "population": 102775}, {"name": "Perdizes", "lat": -23.53872, "lng": -46.68093, "population": 102391}, {"name": "Birigui", "lat": -21.28861, "lng": -50.34, "population": 102277}, {"name": "Ituiutaba", "lat": -18.97428, "lng": -49.46212, "population": 102217}, {"name": "Japeri", "lat": -22.64306, "lng": -43.65333, "population": 102149}, {"name": "Parintins", "lat": -2.62833, "lng": -56.73583, "population": 101956}, {"name": "Mairiporã", "lat": -23.31861, "lng": -46.58667, "population": 101937}, {"name": "Pôr do Sol", "lat": -15.85502, "lng": -48.12433, "population": 101866}, {"name": "Balsas", "lat": -7.5325, "lng": -46.03556, "population": 101767}, {"name": "Lagarto", "lat": -10.91722, "lng": -37.65, "population": 101579}, {"name": "Itaim Bibi", "lat": -23.58581, "lng": -46.68241, "population": 101452}, {"name": "Colatina", "lat": -19.53944, "lng": -40.63056, "population": 101190}, {"name": "Teófilo Otoni", "lat": -17.8575, "lng": -41.50528, "population": 101170}, {"name": "Tucuruvi", "lat": -23.47544, "lng": -46.60609, "population": 99559}, {"name": "Campo Mourão", "lat": -24.04309, "lng": -52.37929, "population": 99432}, {"name": "Bagé", "lat": -31.33139, "lng": -54.10694, "population": 98940}, {"name": "Caldas Novas", "lat": -17.74431, "lng": -48.62789, "population": 98622}, {"name": "São Sebastião", "lat": -15.90287, "lng": -47.77613, "population": 98612}, {"name": "Tatuapé", "lat": -23.53729, "lng": -46.5666, "population": 98601}, {"name": "Barra do Piraí", "lat": -22.47, "lng": -43.82556, "population": 98501}, {"name": "Santa Cruz do Capibaribe", "lat": -7.9575, "lng": -36.20472, "population": 98254}, {"name": "Leme", "lat": -22.18556, "lng": -47.39028, "population": 98161}, {"name": "Iguatu", "lat": -6.35944, "lng": -39.29861, "population": 98064}, {"name": "Itaúna", "lat": -20.07528, "lng": -44.57639, "population": 97669}, {"name": "Rio Largo", "lat": -9.47833, "lng": -35.85333, "population": 97435}, {"name": "Pará de Minas", "lat": -19.86028, "lng": -44.60833, "population": 97139}, {"name": "Vicente Pires", "lat": -15.81009, "lng": -48.03077, "population": 96871}, {"name": "Ariquemes", "lat": -9.91333, "lng": -63.04083, "population": 96833}, {"name": "Francisco Beltrão", "lat": -26.08111, "lng": -53.055, "population": 96666}, {"name": "Corumbá", "lat": -19.00917, "lng": -57.65333, "population": 96520}, {"name": "Caçapava", "lat": -23.10083, "lng": -45.70694, "population": 96202}, {"name": "Avaré", "lat": -23.09861, "lng": -48.92583, "population": 96098}, {"name": "Erechim", "lat": -27.63461, "lng": -52.2754, "population": 96087}, {"name": "Vilhena", "lat": -12.74056, "lng": -60.14583, "population": 95832}, {"name": "São Cristóvão", "lat": -11.01472, "lng": -37.20639, "population": 95612}, {"name": "Saquarema", "lat": -22.89889, "lng": -42.46985, "population": 95201}, {"name": "Aracruz", "lat": -19.82028, "lng": -40.27333, "population": 94765}, {"name": "Jaçanã", "lat": -23.46013, "lng": -46.5749, "population": 94609}, {"name": "Paracatu", "lat": -17.22222, "lng": -46.87472, "population": 94023}, {"name": "Lajeado", "lat": -29.46694, "lng": -51.96139, "population": 93646}, {"name": "Itajubá", "lat": -22.42556, "lng": -45.45278, "population": 93073}, {"name": "Guaíba", "lat": -30.11389, "lng": -51.325, "population": 92924}, {"name": "Cajamar", "lat": -23.35611, "lng": -46.87694, "population": 92689}, {"name": "Patos", "lat": -7.02444, "lng": -37.28, "population": 92575}, {"name": "São João da Boa Vista", "lat": -21.96917, "lng": -46.79806, "population": 92547}, {"name": "Lucas do Rio Verde", "lat": -13.07127, "lng": -55.91479, "population": 92256}, {"name": "Vila Formosa", "lat": -23.56786, "lng": -46.54599, "population": 92186}, {"name": "Ponta Porã", "lat": -22.53611, "lng": -55.72556, "population": 92017}, {"name": "Paranavaí", "lat": -23.07306, "lng": -52.46528, "population": 92001}, {"name": "Cruzeiro do Sul", "lat": -7.62759, "lng": -72.67756, "population": 91888}, {"name": "Gravatá", "lat": -8.20111, "lng": -35.56472, "population": 91887}, {"name": "Manhuaçu", "lat": -20.25806, "lng": -42.03361, "population": 91886}, {"name": "Pato Branco", "lat": -26.22861, "lng": -52.67056, "population": 91836}, {"name": "Ubatuba", "lat": -23.43389, "lng": -45.07111, "population": 91824}, {"name": "Cidade Ocidental", "lat": -16.10971, "lng": -47.93261, "population": 91767}, {"name": "Cáceres", "lat": -16.07056, "lng": -57.67889, "population": 91626}, {"name": "Tucuruí", "lat": -3.76585, "lng": -49.67923, "population": 91306}, {"name": "Arujá", "lat": -23.39611, "lng": -46.32083, "population": 91157}, {"name": "Araripina", "lat": -7.57611, "lng": -40.49833, "population": 90104}, {"name": "Ponte Rasa", "lat": -23.51567, "lng": -46.49373, "population": 89881}, {"name": "Patrocínio", "lat": -18.94389, "lng": -46.9925, "population": 89826}, {"name": "Itapeva", "lat": -23.98222, "lng": -48.87556, "population": 89728}, {"name": "Gurupi", "lat": -11.72917, "lng": -49.06861, "population": 89574}, {"name": "Aricanduva", "lat": -23.57381, "lng": -46.51561, "population": 89574}, {"name": "Sao Domingos", "lat": -23.49337, "lng": -46.74761, "population": 88884}, {"name": "Perus", "lat": -23.40472, "lng": -46.75472, "population": 87823}, {"name": "Guanambi", "lat": -14.22333, "lng": -42.78139, "population": 87817}, {"name": "Caratinga", "lat": -19.78972, "lng": -42.13917, "population": 87360}, {"name": "Serra Talhada", "lat": -7.99194, "lng": -38.29833, "population": 86915}, {"name": "Cacoal", "lat": -11.43861, "lng": -61.44722, "population": 86887}, {"name": "Barra do Corda", "lat": -5.50556, "lng": -45.24333, "population": 86662}, {"name": "Unaí", "lat": -16.3575, "lng": -46.90611, "population": 86619}, {"name": "Navegantes", "lat": -26.89889, "lng": -48.65417, "population": 86401}, {"name": "Agua Rasa", "lat": -23.56684, "lng": -46.57188, "population": 85788}, {"name": "Valença", "lat": -13.37028, "lng": -39.07306, "population": 85655}, {"name": "Esmeraldas", "lat": -19.7625, "lng": -44.31389, "population": 85598}, {"name": "Redenção", "lat": -8.02861, "lng": -50.03139, "population": 85597}, {"name": "Santo Amaro", "lat": -23.64542, "lng": -46.70394, "population": 85349}, {"name": "Goiana", "lat": -7.56056, "lng": -35.0025, "population": 85160}, {"name": "Camboriú", "lat": -27.02528, "lng": -48.65444, "population": 85105}, {"name": "Santa Inês", "lat": -3.66667, "lng": -45.38, "population": 85014}, {"name": "Lorena", "lat": -22.73083, "lng": -45.12472, "population": 84855}, {"name": "Ijuí", "lat": -28.38778, "lng": -53.91472, "population": 84780}, {"name": "Seropédica", "lat": -22.74389, "lng": -43.7075, "population": 84737}, {"name": "Pinheiro", "lat": -2.52139, "lng": -45.0825, "population": 84621}, {"name": "Sant'Ana do Livramento", "lat": -30.89083, "lng": -55.53278, "population": 84421}, {"name": "Carrao", "lat": -23.55108, "lng": -46.53829, "population": 84397}, {"name": "Quixadá", "lat": -4.97139, "lng": -39.01528, "population": 84168}, {"name": "Moju", "lat": -1.88389, "lng": -48.76889, "population": 84094}, {"name": "Cianorte", "lat": -23.66333, "lng": -52.605, "population": 83816}, {"name": "Jardim Paulista", "lat": -23.56675, "lng": -46.66439, "population": 83667}, {"name": "Belo Jardim", "lat": -8.33556, "lng": -36.42417, "population": 83647}, {"name": "São Bento do Sul", "lat": -26.25028, "lng": -49.37861, "population": 83277}, {"name": "Carpina", "lat": -7.85083, "lng": -35.25472, "population": 83205}, {"name": "Picos", "lat": -7.07694, "lng": -41.46694, "population": 83090}, {"name": "Sobradinho II", "lat": -15.63361, "lng": -47.83478, "population": 82785}, {"name": "Bayeux", "lat": -7.125, "lng": -34.93222, "population": 82742}, {"name": "Jacobina", "lat": -11.18143, "lng": -40.51372, "population": 82590}, {"name": "Limão", "lat": -23.49283, "lng": -46.66916, "population": 82373}, {"name": "Três Rios", "lat": -22.11667, "lng": -43.20917, "population": 82300}, {"name": "Macaíba", "lat": -5.85833, "lng": -35.35389, "population": 82249}, {"name": "Quixeramobim", "lat": -5.19917, "lng": -39.29278, "population": 82177}, {"name": "Arcoverde", "lat": -8.41889, "lng": -37.05389, "population": 82003}, {"name": "Moema", "lat": -23.59521, "lng": -46.66449, "population": 81899}, {"name": "Concórdia", "lat": -27.23417, "lng": -52.02778, "population": 81646}, {"name": "São Sebastião", "lat": -23.76, "lng": -45.40972, "population": 81595}, {"name": "Timóteo", "lat": -19.58106, "lng": -42.64953, "population": 81579}, {"name": "Pacatuba", "lat": -3.98417, "lng": -38.62028, "population": 81524}, {"name": "Tianguá", "lat": -3.73222, "lng": -40.99167, "population": 81506}, {"name": "Chapadinha", "lat": -3.74167, "lng": -43.36028, "population": 81386}, {"name": "São Miguel", "lat": -23.49417, "lng": -46.43222, "population": 81011}, {"name": "Santa Cecilia", "lat": -23.5318, "lng": -46.65288, "population": 80972}, {"name": "Mooca", "lat": -23.56135, "lng": -46.59641, "population": 80880}, {"name": "Curvelo", "lat": -18.75639, "lng": -44.43083, "population": 80665}, {"name": "Casa Verde", "lat": -23.50099, "lng": -46.65744, "population": 80536}, {"name": "Água Rasa", "lat": -20.43333, "lng": -45.16667, "population": 80484}, {"name": "Serrinha", "lat": -11.66417, "lng": -39.0075, "population": 80435}, {"name": "João Monlevade", "lat": -19.81, "lng": -43.17361, "population": 80187}, {"name": "Vinhedo", "lat": -23.02972, "lng": -46.97528, "population": 80111}, {"name": "Cachoeira do Sul", "lat": -30.03917, "lng": -52.89389, "population": 80070}, {"name": "Itumbiara", "lat": -18.41917, "lng": -49.21528, "population": 79582}, {"name": "São Roque", "lat": -23.52917, "lng": -47.13528, "population": 79484}, {"name": "Tefé", "lat": -3.36841, "lng": -64.72054, "population": 79278}, {"name": "Ceará-Mirim", "lat": -5.63444, "lng": -35.42556, "population": 79115}, {"name": "Matão", "lat": -21.60333, "lng": -48.36583, "population": 79033}, {"name": "Alfenas", "lat": -21.42917, "lng": -45.94722, "population": 78970}, {"name": "Três Lagoas", "lat": -20.78765, "lng": -51.70338, "population": 78712}, {"name": "São João del Rei", "lat": -21.13556, "lng": -44.26167, "population": 78592}, {"name": "Lins", "lat": -21.67861, "lng": -49.7425, "population": 78503}, {"name": "Mogi Mirim", "lat": -22.43194, "lng": -46.95778, "population": 78244}, {"name": "Jardim Botânico", "lat": -15.86527, "lng": -47.81477, "population": 77767}, {"name": "Campo Limpo Paulista", "lat": -23.20554, "lng": -46.7838, "population": 77632}, {"name": "Canaã dos Carajás", "lat": -6.52392, "lng": -49.85167, "population": 77079}, {"name": "Santa Rosa", "lat": -27.87083, "lng": -54.48139, "population": 76963}, {"name": "Santo Ângelo", "lat": -28.29917, "lng": -54.26306, "population": 76917}, {"name": "Biguaçu", "lat": -27.49417, "lng": -48.65556, "population": 76773}, {"name": "Viçosa", "lat": -20.75389, "lng": -42.88194, "population": 76430}, {"name": "Crateús", "lat": -5.17775, "lng": -40.66949, "population": 76390}, {"name": "Bebedouro", "lat": -20.94944, "lng": -48.47917, "population": 76373}, {"name": "Esteio", "lat": -29.86139, "lng": -51.17917, "population": 76137}, {"name": "Itapema", "lat": -27.09028, "lng": -48.61139, "population": 75940}, {"name": "Sapiranga", "lat": -29.63806, "lng": -51.00694, "population": 75648}, {"name": "Ibiúna", "lat": -23.65639, "lng": -47.2225, "population": 75605}, {"name": "Lapa", "lat": -23.52355, "lng": -46.70726, "population": 75533}, {"name": "Três Corações", "lat": -21.69694, "lng": -45.25333, "population": 75485}, {"name": "Anhanguera", "lat": -23.43088, "lng": -46.79295, "population": 75360}, {"name": "Lagoa Santa", "lat": -19.63006, "lng": -43.9009, "population": 75145}, {"name": "Telêmaco Borba", "lat": -24.32389, "lng": -50.61556, "population": 75042}, {"name": "Barbalha", "lat": -7.31111, "lng": -39.30417, "population": 75033}, {"name": "Cruzeiro", "lat": -22.57316, "lng": -44.97108, "population": 74961}, {"name": "Ouro Preto", "lat": -20.39484, "lng": -43.50517, "population": 74821}, {"name": "Parque Do Carmo", "lat": -23.57595, "lng": -46.46298, "population": 74677}, {"name": "Senhor do Bonfim", "lat": -10.46139, "lng": -40.18944, "population": 74523}, {"name": "Irecê", "lat": -11.30417, "lng": -41.85583, "population": 74507}, {"name": "Canindé", "lat": -4.35889, "lng": -39.31167, "population": 74174}, {"name": "Eusébio", "lat": -3.89, "lng": -38.45056, "population": 74170}, {"name": "Grajaú", "lat": -5.81944, "lng": -46.13861, "population": 73872}, {"name": "Coari", "lat": -4.085, "lng": -63.14139, "population": 73820}, {"name": "Caçador", "lat": -26.77528, "lng": -51.015, "population": 73720}, {"name": "Goianésia", "lat": -15.3175, "lng": -49.1175, "population": 73707}, {"name": "Pirassununga", "lat": -21.99611, "lng": -47.42583, "population": 73545}, {"name": "Viana", "lat": -20.39028, "lng": -40.49611, "population": 73423}, {"name": "Castro", "lat": -24.78927, "lng": -50.01225, "population": 73075}, {"name": "Santa Isabel do Pará", "lat": -1.29861, "lng": -48.16056, "population": 73019}, {"name": "Russas", "lat": -4.94028, "lng": -37.97583, "population": 72928}, {"name": "Cascavel", "lat": -4.13306, "lng": -38.24194, "population": 72720}, {"name": "Barra do Garças", "lat": -15.89, "lng": -52.25667, "population": 72694}, {"name": "Amparo", "lat": -22.70111, "lng": -46.76444, "population": 72677}, {"name": "Rio do Sul", "lat": -27.21417, "lng": -49.64306, "population": 72587}, {"name": "Gaspar", "lat": -26.93139, "lng": -48.95889, "population": 72570}, {"name": "Tailândia", "lat": -2.94722, "lng": -48.95306, "population": 72493}, {"name": "Alegrete", "lat": -29.78306, "lng": -55.79194, "population": 72409}, {"name": "Candeias", "lat": -12.66778, "lng": -38.55056, "population": 72382}, {"name": "Tabatinga", "lat": -4.23116, "lng": -69.93858, "population": 72283}, {"name": "Sobradinho", "lat": -15.64713, "lng": -47.79315, "population": 72273}, {"name": "Santo Antônio do Descoberto", "lat": -15.93972, "lng": -48.255, "population": 72127}, {"name": "Casa Nova", "lat": -9.17419, "lng": -40.97514, "population": 72086}, {"name": "Itapira", "lat": -22.43611, "lng": -46.82167, "population": 72022}, {"name": "Araranguá", "lat": -28.93575, "lng": -49.49538, "population": 71922}, {"name": "Goianira", "lat": -16.49611, "lng": -49.42639, "population": 71916}, {"name": "Jaboticabal", "lat": -21.25472, "lng": -48.32222, "population": 71821}, {"name": "São Sebastião do Paraíso", "lat": -20.91694, "lng": -46.99139, "population": 71796}, {"name": "Rolândia", "lat": -23.30972, "lng": -51.36917, "population": 71670}, {"name": "Indaial", "lat": -26.89778, "lng": -49.23167, "population": 71549}, {"name": "Dias d'Ávila", "lat": -12.6125, "lng": -38.29694, "population": 71485}, {"name": "Valença", "lat": -22.24556, "lng": -43.70028, "population": 71462}, {"name": "Campo Formoso", "lat": -10.5075, "lng": -40.32139, "population": 71377}, {"name": "Fernandópolis", "lat": -20.28389, "lng": -50.24639, "population": 71186}, {"name": "Campo Belo", "lat": -23.62808, "lng": -46.66791, "population": 71058}, {"name": "Pacajus", "lat": -4.1725, "lng": -38.46056, "population": 70983}, {"name": "Horizonte", "lat": -4.09802, "lng": -38.486, "population": 70983}, {"name": "Janaúba", "lat": -15.8025, "lng": -43.30889, "population": 70699}, {"name": "Brumado", "lat": -14.20361, "lng": -41.66528, "population": 70510}, {"name": "Capanema", "lat": -1.19583, "lng": -47.18083, "population": 70394}, {"name": "Farroupilha", "lat": -29.225, "lng": -51.34778, "population": 70286}, {"name": "Mineiros", "lat": -17.56944, "lng": -52.55111, "population": 70081}, {"name": "Votuporanga", "lat": -20.42278, "lng": -49.97278, "population": 69863}, {"name": "Bairro Parque Nossa Senhora do Carmo", "lat": -23.40598, "lng": -46.31611, "population": 69630}, {"name": "Alenquer", "lat": -1.94167, "lng": -54.73833, "population": 69377}, {"name": "Venâncio Aires", "lat": -29.60639, "lng": -52.19194, "population": 68763}, {"name": "Porto Nacional", "lat": -10.70806, "lng": -48.41722, "population": 68555}, {"name": "Peruíbe", "lat": -24.32, "lng": -46.99833, "population": 68352}, {"name": "Oriximiná", "lat": -1.76556, "lng": -55.86611, "population": 68294}, {"name": "Formiga", "lat": -20.46444, "lng": -45.42639, "population": 68248}, {"name": "Conceição do Coité", "lat": -11.56389, "lng": -39.28278, "population": 67825}, {"name": "Mococa", "lat": -21.46778, "lng": -47.00472, "population": 67681}, {"name": "Tomé-Açu", "lat": -2.41889, "lng": -48.15222, "population": 67585}, {"name": "Sousa", "lat": -6.75917, "lng": -38.22806, "population": 67259}, {"name": "Iranduba", "lat": -3.28472, "lng": -60.18611, "population": 67114}, {"name": "Embu-Guaçu", "lat": -23.83222, "lng": -46.81139, "population": 66970}, {"name": "Cabedelo", "lat": -6.98111, "lng": -34.83389, "population": 66519}, {"name": "Lençóis Paulista", "lat": -22.59861, "lng": -48.80028, "population": 66505}, {"name": "Cataguases", "lat": -21.38917, "lng": -42.69667, "population": 66261}, {"name": "Liberdade", "lat": -23.56338, "lng": -46.63228, "population": 66056}, {"name": "Itapetinga", "lat": -15.24889, "lng": -40.24778, "population": 65897}, {"name": "Montenegro", "lat": -29.68861, "lng": -51.46111, "population": 65721}, {"name": "Maués", "lat": -3.38361, "lng": -57.71861, "population": 65714}, {"name": "Barreirinhas", "lat": -2.75556, "lng": -42.82591, "population": 65589}, {"name": "Bom Jesus da Lapa", "lat": -13.255, "lng": -43.41806, "population": 65550}, {"name": "Piripiri", "lat": -4.27333, "lng": -41.77694, "population": 65538}, {"name": "São Félix do Xingu", "lat": -6.64472, "lng": -51.995, "population": 65418}, {"name": "Itapoã", "lat": -15.74937, "lng": -47.7686, "population": 65408}, {"name": "Acaraú", "lat": -2.88556, "lng": -40.12, "population": 65264}, {"name": "Ouricuri", "lat": -7.8825, "lng": -40.08167, "population": 65245}, {"name": "Januária", "lat": -15.47949, "lng": -44.3652, "population": 65150}, {"name": "Pinheiros", "lat": -23.56729, "lng": -46.69232, "population": 65145}, {"name": "Aquiraz", "lat": -3.90139, "lng": -38.39111, "population": 65116}, {"name": "Estância", "lat": -11.26833, "lng": -37.43833, "population": 65078}, {"name": "Itaberaba", "lat": -12.5275, "lng": -40.30694, "population": 65073}, {"name": "Igarapé Miri", "lat": -1.975, "lng": -48.95972, "population": 64831}, {"name": "Bezerros", "lat": -8.23333, "lng": -35.79694, "population": 64809}, {"name": "Bertioga", "lat": -23.85444, "lng": -46.13861, "population": 64723}, {"name": "Monte Mor", "lat": -22.94667, "lng": -47.31583, "population": 64662}, {"name": "Itaitinga", "lat": -3.96944, "lng": -38.52806, "population": 64650}, {"name": "Vacaria", "lat": -28.51222, "lng": -50.93389, "population": 64197}, {"name": "Surubim", "lat": -7.83306, "lng": -35.75472, "population": 64120}, {"name": "Tupã", "lat": -21.93472, "lng": -50.51361, "population": 63928}, {"name": "Paranoá", "lat": -15.77553, "lng": -47.78117, "population": 63923}, {"name": "Capão da Canoa", "lat": -29.74556, "lng": -50.00972, "population": 63594}, {"name": "Benevides", "lat": -1.36139, "lng": -48.24472, "population": 63567}, {"name": "Mirassol", "lat": -20.81917, "lng": -49.52111, "population": 63337}, {"name": "Cajazeiras", "lat": -6.89028, "lng": -38.55528, "population": 63239}, {"name": "Campo Bom", "lat": -29.67889, "lng": -51.05333, "population": 62886}, {"name": "Pesqueira", "lat": -8.35778, "lng": -36.69639, "population": 62722}, {"name": "Icó", "lat": -6.40111, "lng": -38.86222, "population": 62642}, {"name": "Pedro Leopoldo", "lat": -19.61806, "lng": -44.04306, "population": 62580}, {"name": "Portel", "lat": -1.93556, "lng": -50.82111, "population": 62503}, {"name": "Salgueiro", "lat": -8.07417, "lng": -39.11917, "population": 62372}, {"name": "Marechal Deodoro", "lat": -9.71028, "lng": -35.895, "population": 62341}, {"name": "Camocim", "lat": -2.90222, "lng": -40.84111, "population": 62326}, {"name": "Humaitá", "lat": -7.51651, "lng": -63.03105, "population": 62312}, {"name": "Escada", "lat": -8.35917, "lng": -35.22361, "population": 62252}, {"name": "Camaquã", "lat": -30.85111, "lng": -51.81222, "population": 62200}, {"name": "Boituva", "lat": -23.28333, "lng": -47.67222, "population": 62170}, {"name": "Floriano", "lat": -6.76694, "lng": -43.0225, "population": 62036}, {"name": "Nova Odessa", "lat": -22.7775, "lng": -47.29583, "population": 62019}, {"name": "Carazinho", "lat": -28.28389, "lng": -52.78639, "population": 61804}, {"name": "Penápolis", "lat": -21.41972, "lng": -50.0775, "population": 61679}, {"name": "Extremoz", "lat": -5.70556, "lng": -35.30722, "population": 61635}, {"name": "Andradina", "lat": -20.89611, "lng": -51.37944, "population": 61473}, {"name": "Euclides da Cunha", "lat": -10.5075, "lng": -39.01583, "population": 61456}, {"name": "Morada Nova", "lat": -5.10667, "lng": -38.3725, "population": 61443}, {"name": "Mariana", "lat": -20.37778, "lng": -43.41611, "population": 61387}, {"name": "Coroatá", "lat": -4.13, "lng": -44.12417, "population": 61351}, {"name": "Tauá", "lat": -6.00306, "lng": -40.29278, "population": 61227}, {"name": "Nova Mutum", "lat": -13.82889, "lng": -56.08222, "population": 61223}, {"name": "Caicó", "lat": -6.45833, "lng": -37.09778, "population": 61146}, {"name": "União dos Palmares", "lat": -9.16278, "lng": -36.03194, "population": 60874}, {"name": "Novo Repartimento", "lat": -4.33056, "lng": -49.79639, "population": 60732}, {"name": "Republica", "lat": -23.54476, "lng": -46.64105, "population": 60720}, {"name": "Itapecuru Mirim", "lat": -3.3925, "lng": -44.35861, "population": 60440}, {"name": "Cruz das Almas", "lat": -12.67, "lng": -39.10194, "population": 60348}, {"name": "Cristalina", "lat": -16.76769, "lng": -47.6153, "population": 60210}, {"name": "Penedo", "lat": -10.29028, "lng": -36.58639, "population": 60189}, {"name": "Ibitinga", "lat": -21.75778, "lng": -48.82889, "population": 60033}, {"name": "Bela Vista", "lat": -23.56086, "lng": -46.64758, "population": 60024}, {"name": "São Borja", "lat": -28.66056, "lng": -56.00444, "population": 60019}, {"name": "Monte Alegre", "lat": -2.00082, "lng": -54.08102, "population": 60012}, {"name": "Registro", "lat": -24.4875, "lng": -47.84361, "population": 59947}, {"name": "Jacundá", "lat": -4.44696, "lng": -49.11556, "population": 59842}, {"name": "Cachoeiras de Macacu", "lat": -22.4625, "lng": -42.65306, "population": 59837}, {"name": "Cosmópolis", "lat": -22.64583, "lng": -47.19611, "population": 59773}, {"name": "Viçosa do Ceará", "lat": -3.56222, "lng": -41.09222, "population": 59712}, {"name": "Itamaraju", "lat": -17.03917, "lng": -39.53111, "population": 59605}, {"name": "Limoeiro do Norte", "lat": -5.14556, "lng": -38.09806, "population": 59560}, {"name": "Irati", "lat": -25.46722, "lng": -50.65111, "population": 59250}, {"name": "Rio Bonito", "lat": -22.70861, "lng": -42.60972, "population": 59113}, {"name": "Içara", "lat": -28.71333, "lng": -49.3, "population": 59035}, {"name": "Acará", "lat": -1.96083, "lng": -48.19667, "population": 59023}, {"name": "Cruz Alta", "lat": -28.64397, "lng": -53.60633, "population": 58913}, {"name": "Jaguariúna", "lat": -22.70556, "lng": -46.98583, "population": 58722}, {"name": "Viseu", "lat": -1.19667, "lng": -46.14, "population": 58692}, {"name": "Frutal", "lat": -20.02472, "lng": -48.94056, "population": 58588}, {"name": "São Gabriel", "lat": -30.33639, "lng": -54.32, "population": 58487}, {"name": "Dom Eliseu", "lat": -4.285, "lng": -47.505, "population": 58484}, {"name": "Trairi", "lat": -3.27778, "lng": -39.26889, "population": 58415}, {"name": "Batatais", "lat": -20.89111, "lng": -47.585, "population": 58402}, {"name": "Ponte Nova", "lat": -20.41639, "lng": -42.90861, "population": 57776}, {"name": "Manicoré", "lat": -5.80917, "lng": -61.30028, "population": 57758}, {"name": "Mongaguá", "lat": -24.09306, "lng": -46.62083, "population": 57648}, {"name": "Santa Luzia", "lat": -3.96333, "lng": -45.65833, "population": 57635}, {"name": "Guarabira", "lat": -6.85472, "lng": -35.49, "population": 57484}, {"name": "Ipirá", "lat": -12.15833, "lng": -39.73722, "population": 56876}, {"name": "Paudalho", "lat": -7.89667, "lng": -35.17972, "population": 56665}, {"name": "Limoeiro", "lat": -7.87472, "lng": -35.45028, "population": 56510}, {"name": "Capitão Poço", "lat": -1.74639, "lng": -47.05944, "population": 56506}, {"name": "Açu", "lat": -5.57667, "lng": -36.90861, "population": 56496}, {"name": "São Gabriel da Cachoeira", "lat": -0.1181, "lng": -67.08527, "population": 56406}, {"name": "Rolim de Moura", "lat": -11.80361, "lng": -61.80333, "population": 56406}, {"name": "Santo Amaro", "lat": -12.54667, "lng": -38.71194, "population": 56012}, {"name": "Marechal Cândido Rondon", "lat": -24.55611, "lng": -54.05667, "population": 55836}, {"name": "Belem", "lat": -23.5376, "lng": -46.59482, "population": 55785}, {"name": "Pirapora", "lat": -17.345, "lng": -44.94194, "population": 55606}, {"name": "Brazlândia", "lat": -15.67941, "lng": -48.19667, "population": 55561}, {"name": "Buriticupu", "lat": -4.32124, "lng": -46.45468, "population": 55499}, {"name": "Videira", "lat": -27.00833, "lng": -51.15167, "population": 55466}, {"name": "Jaguare", "lat": -23.54382, "lng": -46.74871, "population": 55382}, {"name": "Moreno", "lat": -8.11861, "lng": -35.09222, "population": 55292}, {"name": "Mafra", "lat": -26.11139, "lng": -49.80528, "population": 55286}, {"name": "Três Pontas", "lat": -21.36667, "lng": -45.5125, "population": 55255}, {"name": "Paraíso do Tocantins", "lat": -10.17611, "lng": -48.86667, "population": 55164}, {"name": "Olímpia", "lat": -20.73722, "lng": -48.91472, "population": 55074}, {"name": "União da Vitória", "lat": -26.23, "lng": -51.08639, "population": 55033}, {"name": "Canoinhas", "lat": -26.17722, "lng": -50.39, "population": 55016}, {"name": "Pontes e Lacerda", "lat": -15.22611, "lng": -59.33528, "population": 54795}, {"name": "Palmares", "lat": -8.68333, "lng": -35.59167, "population": 54584}, {"name": "Buíque", "lat": -8.62306, "lng": -37.15583, "population": 54425}, {"name": "Tramandaí", "lat": -29.98472, "lng": -50.13361, "population": 54387}, {"name": "Medianeira", "lat": -25.29528, "lng": -54.09389, "population": 54369}, {"name": "Guapimirim", "lat": -22.53722, "lng": -42.98194, "population": 54300}, {"name": "São Gonçalo do Amarante", "lat": -3.60722, "lng": -38.96833, "population": 54143}, {"name": "Ribeira do Pombal", "lat": -10.83444, "lng": -38.53583, "population": 54010}, {"name": "Extrema", "lat": -22.85472, "lng": -46.31833, "population": 53482}, {"name": "Porto Feliz", "lat": -23.21472, "lng": -47.52389, "population": 53402}, {"name": "São Miguel dos Campos", "lat": -9.78111, "lng": -36.09361, "population": 53391}, {"name": "Itabirito", "lat": -20.25333, "lng": -43.80139, "population": 53365}, {"name": "Tutóia", "lat": -2.76194, "lng": -42.27444, "population": 53356}, {"name": "Granja", "lat": -3.12028, "lng": -40.82611, "population": 53344}, {"name": "Consolação", "lat": -23.55242, "lng": -46.65735, "population": 53249}, {"name": "Taquara", "lat": -29.65056, "lng": -50.78056, "population": 53242}, {"name": "Santa Isabel", "lat": -23.31556, "lng": -46.22139, "population": 53174}, {"name": "Artur Nogueira", "lat": -22.57306, "lng": -47.1725, "population": 53157}, {"name": "Rondon do Pará", "lat": -4.77611, "lng": -48.06722, "population": 53143}, {"name": "Beberibe", "lat": -4.17972, "lng": -38.13056, "population": 53114}, {"name": "Piedade", "lat": -23.71194, "lng": -47.42778, "population": 52970}, {"name": "São Miguel do Guamá", "lat": -1.62667, "lng": -47.48333, "population": 52894}, {"name": "Xinguara", "lat": -7.09829, "lng": -49.9435, "population": 52893}, {"name": "Congonhas", "lat": -20.50525, "lng": -43.8588, "population": 52890}, {"name": "Delmiro Gouveia", "lat": -9.38861, "lng": -37.99917, "population": 52809}, {"name": "São Francisco", "lat": -15.94861, "lng": -44.86444, "population": 52762}, {"name": "São Francisco do Sul", "lat": -26.24333, "lng": -48.63806, "population": 52674}, {"name": "Porto Ferreira", "lat": -21.85389, "lng": -47.47917, "population": 52649}, {"name": "Vila Guilherme", "lat": -23.50918, "lng": -46.60577, "population": 52587}, {"name": "Imbituba", "lat": -28.24, "lng": -48.67028, "population": 52579}, {"name": "Campos do Jordão", "lat": -22.73944, "lng": -45.59139, "population": 52405}, {"name": "Óbidos", "lat": -1.9175, "lng": -55.51806, "population": 52306}, {"name": "Campo Belo", "lat": -20.89722, "lng": -45.27722, "population": 52277}, {"name": "Santo Estêvão", "lat": -12.43028, "lng": -39.25139, "population": 52276}, {"name": "Taquaritinga", "lat": -21.40611, "lng": -48.50472, "population": 52260}, {"name": "São José do Rio Pardo", "lat": -21.59556, "lng": -46.88861, "population": 52205}, {"name": "Inhumas", "lat": -16.35778, "lng": -49.49611, "population": 52204}, {"name": "Parobé", "lat": -29.62861, "lng": -50.83472, "population": 52058}, {"name": "Caetité", "lat": -14.06944, "lng": -42.475, "population": 52012}, {"name": "Louveira", "lat": -23.08639, "lng": -46.95056, "population": 51847}, {"name": "Coruripe", "lat": -10.12556, "lng": -36.17556, "population": 51788}, {"name": "Bom Despacho", "lat": -19.73639, "lng": -45.25222, "population": 51737}, {"name": "Morumbi", "lat": -23.59632, "lng": -46.70802, "population": 51715}, {"name": "Baião", "lat": -2.79056, "lng": -49.67167, "population": 51641}, {"name": "Xanxerê", "lat": -26.87694, "lng": -52.40417, "population": 51607}, {"name": "Ibiporã", "lat": -23.26917, "lng": -51.04806, "population": 51603}, {"name": "Tijucas", "lat": -27.24139, "lng": -48.63361, "population": 51592}, {"name": "Viana", "lat": -3.22028, "lng": -45.00361, "population": 51442}, {"name": "Lagoa da Prata", "lat": -20.0225, "lng": -45.54361, "population": 51412}, {"name": "Morrinhos", "lat": -17.73111, "lng": -49.09944, "population": 51351}, {"name": "Sapé", "lat": -7.09639, "lng": -35.23278, "population": 51306}, {"name": "Tremembé", "lat": -22.95833, "lng": -45.54944, "population": 51173}, {"name": "Leopoldina", "lat": -21.53194, "lng": -42.64306, "population": 51145}, {"name": "Brejo da Madre de Deus", "lat": -8.14583, "lng": -36.37111, "population": 51107}, {"name": "Barra", "lat": -11.08944, "lng": -43.14167, "population": 51092}, {"name": "Brejo Santo", "lat": -7.49333, "lng": -38.98722, "population": 51090}, {"name": "Guaxupé", "lat": -21.30528, "lng": -46.71278, "population": 50911}, {"name": "Tobias Barreto", "lat": -11.18389, "lng": -37.99833, "population": 50905}, {"name": "Juruti", "lat": -2.15222, "lng": -56.09222, "population": 50881}, {"name": "Vigia", "lat": -0.85833, "lng": -48.14167, "population": 50832}, {"name": "Jaru", "lat": -10.43889, "lng": -62.46639, "population": 50591}, {"name": "Naviraí", "lat": -23.065, "lng": -54.19056, "population": 50457}, {"name": "Vargem Grande Paulista", "lat": -23.60333, "lng": -47.02639, "population": 50415}, {"name": "Boa Viagem", "lat": -5.1275, "lng": -39.73222, "population": 50411}, {"name": "Capivari", "lat": -22.995, "lng": -47.50778, "population": 50068}, {"name": "Campo Novo do Parecis", "lat": -13.67528, "lng": -57.89194, "population": 50033}, {"name": "Mairinque", "lat": -23.54583, "lng": -47.18333, "population": 50027}, {"name": "Itupiranga", "lat": -5.13472, "lng": -49.32667, "population": 49754}, {"name": "Canguçu", "lat": -31.395, "lng": -52.67556, "population": 49680}, {"name": "São Bento do Una", "lat": -8.52278, "lng": -36.44444, "population": 49449}, {"name": "Prudentópolis", "lat": -25.21306, "lng": -50.97778, "population": 49393}, {"name": "Nova Venécia", "lat": -18.71056, "lng": -40.40056, "population": 49065}, {"name": "Canela", "lat": -29.35622, "lng": -50.81357, "population": 48946}, {"name": "Santiago", "lat": -29.19167, "lng": -54.86722, "population": 48938}, {"name": "Lábrea", "lat": -7.26435, "lng": -64.79638, "population": 48927}, {"name": "Jales", "lat": -20.26889, "lng": -50.54583, "population": 48776}, {"name": "Tucano", "lat": -10.95817, "lng": -38.79084, "population": 48736}, {"name": "Casimiro de Abreu", "lat": -22.48056, "lng": -42.20417, "population": 48563}, {"name": "Nova Andradina", "lat": -22.23333, "lng": -53.34306, "population": 48563}, {"name": "Aquidauana", "lat": -20.47111, "lng": -55.78722, "population": 48561}, {"name": "São Joaquim da Barra", "lat": -20.58139, "lng": -47.85472, "population": 48558}, {"name": "Quirinópolis", "lat": -18.44833, "lng": -50.45167, "population": 48447}, {"name": "Araci", "lat": -11.33333, "lng": -38.96667, "population": 48294}, {"name": "Poções", "lat": -14.52972, "lng": -40.36528, "population": 48293}, {"name": "Palmas", "lat": -26.48417, "lng": -51.99056, "population": 48247}, {"name": "Catu", "lat": -12.35306, "lng": -38.37889, "population": 48148}, {"name": "São Bento", "lat": -2.69583, "lng": -44.82139, "population": 48036}, {"name": "Bocaiúva", "lat": -17.10778, "lng": -43.815, "population": 48032}, {"name": "Barras", "lat": -4.24444, "lng": -42.29444, "population": 47938}, {"name": "Estância Velha", "lat": -29.64833, "lng": -51.17389, "population": 47924}, {"name": "Campo Verde", "lat": -15.54667, "lng": -55.16889, "population": 47831}, {"name": "Campina Grande do Sul", "lat": -25.30556, "lng": -49.05528, "population": 47825}, {"name": "Juína", "lat": -11.42047, "lng": -58.75488, "population": 47800}, {"name": "Monte Santo", "lat": -10.43778, "lng": -39.33278, "population": 47780}, {"name": "Diamantina", "lat": -18.24692, "lng": -43.60345, "population": 47702}, {"name": "Monte Carmelo", "lat": -18.72472, "lng": -47.49861, "population": 47692}, {"name": "Queimadas", "lat": -7.35833, "lng": -35.89833, "population": 47658}, {"name": "São Benedito", "lat": -4.04861, "lng": -40.865, "population": 47640}, {"name": "Monte Alto", "lat": -21.26111, "lng": -48.49639, "population": 47574}, {"name": "Altos", "lat": -5.03806, "lng": -42.46, "population": 47453}, {"name": "Santana do Ipanema", "lat": -9.37833, "lng": -37.24528, "population": 47397}, {"name": "Osório", "lat": -29.88667, "lng": -50.26972, "population": 47396}, {"name": "São Francisco de Itabapoana", "lat": -21.30194, "lng": -40.96139, "population": 47368}, {"name": "São José de Mipibu", "lat": -6.07472, "lng": -35.23778, "population": 47286}, {"name": "Sidrolândia", "lat": -20.93194, "lng": -54.96139, "population": 47118}, {"name": "Cabreúva", "lat": -23.3075, "lng": -47.13278, "population": 47011}, {"name": "Vila Leopoldina", "lat": -23.52927, "lng": -46.73437, "population": 46875}, {"name": "João Pinheiro", "lat": -17.7425, "lng": -46.1725, "population": 46801}, {"name": "Guaramirim", "lat": -26.47306, "lng": -49.00278, "population": 46711}, {"name": "Santa Cruz do Rio Pardo", "lat": -22.89889, "lng": -49.6325, "population": 46442}, {"name": "Itapagé", "lat": -3.68667, "lng": -39.58611, "population": 46426}, {"name": "Capão Bonito", "lat": -24.00583, "lng": -48.34944, "population": 46337}, {"name": "Bom Conselho", "lat": -9.16972, "lng": -36.67972, "population": 46192}, {"name": "Seabra", "lat": -12.41713, "lng": -41.77049, "population": 46160}, {"name": "Timbaúba", "lat": -7.50528, "lng": -35.31833, "population": 46147}, {"name": "União", "lat": -4.58583, "lng": -42.86417, "population": 46119}, {"name": "Timbó", "lat": -26.82333, "lng": -49.27167, "population": 46099}, {"name": "Jaguaquara", "lat": -13.53056, "lng": -39.97083, "population": 45964}, {"name": "Paiçandu", "lat": -23.4575, "lng": -52.04861, "population": 45962}, {"name": "Igarapé", "lat": -20.07028, "lng": -44.30167, "population": 45847}, {"name": "Campo Maior", "lat": -4.82778, "lng": -42.16861, "population": 45793}, {"name": "Breu Branco", "lat": -4.00092, "lng": -49.5068, "population": 45712}, {"name": "Mauriti", "lat": -7.38917, "lng": -38.77444, "population": 45561}, {"name": "Dracena", "lat": -21.4825, "lng": -51.53278, "population": 45474}, {"name": "Barra Velha", "lat": -26.63222, "lng": -48.68472, "population": 45369}, {"name": "Muaná", "lat": -1.52833, "lng": -49.21667, "population": 45368}, {"name": "Autazes", "lat": -3.57972, "lng": -59.13056, "population": 45328}, {"name": "Araquari", "lat": -26.37, "lng": -48.72222, "population": 45283}, {"name": "Jardinópolis", "lat": -21.01778, "lng": -47.76389, "population": 45282}, {"name": "Jaraguá", "lat": -15.75694, "lng": -49.33444, "population": 45223}, {"name": "Cornélio Procópio", "lat": -23.18111, "lng": -50.64667, "population": 45206}, {"name": "Cambuci", "lat": -23.56439, "lng": -46.61695, "population": 45163}, {"name": "Presidente Dutra", "lat": -5.29, "lng": -44.49, "population": 45155}, {"name": "Marau", "lat": -28.44917, "lng": -52.2, "population": 45124}, {"name": "Maracaju", "lat": -21.61444, "lng": -55.16833, "population": 45047}, {"name": "Lapa", "lat": -25.76972, "lng": -49.71583, "population": 45003}, {"name": "Acopiara", "lat": -6.09528, "lng": -39.4525, "population": 44962}, {"name": "Dois Vizinhos", "lat": -25.73361, "lng": -53.05722, "population": 44869}, {"name": "Pederneiras", "lat": -22.35167, "lng": -48.775, "population": 44827}, {"name": "Santana do Paraíso", "lat": -19.36361, "lng": -42.56861, "population": 44800}, {"name": "São Lourenço", "lat": -22.11639, "lng": -45.05444, "population": 44798}, {"name": "Salinópolis", "lat": -0.62099, "lng": -47.35422, "population": 44772}, {"name": "Xique-Xique", "lat": -10.82294, "lng": -42.72815, "population": 44757}, {"name": "Itaberaí", "lat": -16.02028, "lng": -49.81028, "population": 44734}, {"name": "Cerquilho", "lat": -23.165, "lng": -47.74361, "population": 44695}, {"name": "Conceição do Araguaia", "lat": -8.26441, "lng": -49.26982, "population": 44617}, {"name": "Mamanguape", "lat": -6.83861, "lng": -35.12611, "population": 44599}, {"name": "Augusto Corrêa", "lat": -1.02167, "lng": -46.635, "population": 44573}, {"name": "Paraíba do Sul", "lat": -22.15847, "lng": -43.29321, "population": 44467}, {"name": "Itararé", "lat": -24.1125, "lng": -49.33167, "population": 44438}, {"name": "Lago da Pedra", "lat": -4.56033, "lng": -45.13155, "population": 44403}, {"name": "Santo Antônio da Platina", "lat": -23.295, "lng": -50.07722, "population": 44369}, {"name": "Sudoeste/Octagonal", "lat": -15.80152, "lng": -47.92706, "population": 44354}, {"name": "São Miguel d'Oeste", "lat": -26.72528, "lng": -53.51806, "population": 44330}, {"name": "Porangatu", "lat": -13.44083, "lng": -49.14861, "population": 44317}, {"name": "Aracati", "lat": -4.56167, "lng": -37.76972, "population": 44293}, {"name": "Rio Grande da Serra", "lat": -23.74417, "lng": -46.39833, "population": 44170}, {"name": "Serrana", "lat": -21.21139, "lng": -47.59556, "population": 43909}, {"name": "Livramento de Nossa Senhora", "lat": -13.64136, "lng": -41.84319, "population": 43903}, {"name": "Salto de Pirapora", "lat": -23.64889, "lng": -47.57333, "population": 43748}, {"name": "Águas Belas", "lat": -9.11139, "lng": -37.12306, "population": 43713}, {"name": "Santo Antônio de Pádua", "lat": -21.53944, "lng": -42.18028, "population": 43686}, {"name": "Paracambi", "lat": -22.6083, "lng": -43.70948, "population": 43656}, {"name": "Mangaratiba", "lat": -22.95972, "lng": -44.04056, "population": 43624}, {"name": "Uruará", "lat": -3.7175, "lng": -53.73667, "population": 43558}, {"name": "Panambi", "lat": -28.2925, "lng": -53.50167, "population": 43515}, {"name": "Tarauacá", "lat": -8.16139, "lng": -70.76556, "population": 43467}, {"name": "Vargem Grande", "lat": -3.54306, "lng": -43.91583, "population": 43261}, {"name": "Pedreira", "lat": -22.74194, "lng": -46.90139, "population": 43112}, {"name": "Itarema", "lat": -2.92028, "lng": -39.915, "population": 42957}, {"name": "Santo Antônio da Patrulha", "lat": -29.8175, "lng": -50.51972, "population": 42947}, {"name": "Laguna", "lat": -28.4825, "lng": -48.78083, "population": 42785}, {"name": "Simão Dias", "lat": -10.73833, "lng": -37.81111, "population": 42578}, {"name": "Mata de São João", "lat": -12.53028, "lng": -38.29917, "population": 42566}, {"name": "José de Freitas", "lat": -4.75639, "lng": -42.57556, "population": 42559}, {"name": "Uruaçu", "lat": -14.52472, "lng": -49.14083, "population": 42546}, {"name": "Vera Cruz", "lat": -12.96028, "lng": -38.60861, "population": 42529}, {"name": "Barra de São Francisco", "lat": -18.755, "lng": -40.89083, "population": 42498}, {"name": "Armação dos Búzios", "lat": -22.74694, "lng": -41.88167, "population": 42442}, {"name": "Afogados da Ingazeira", "lat": -7.75083, "lng": -37.63917, "population": 42407}, {"name": "Santos Dumont", "lat": -21.45667, "lng": -43.5525, "population": 42406}, {"name": "São Mateus do Sul", "lat": -25.87417, "lng": -50.38278, "population": 42366}, {"name": "Amontada", "lat": -3.36167, "lng": -39.83167, "population": 42156}, {"name": "Garça", "lat": -22.21056, "lng": -49.65611, "population": 42110}, {"name": "Guaratuba", "lat": -25.88278, "lng": -48.57472, "population": 42062}, {"name": "Barreiros", "lat": -8.81833, "lng": -35.18639, "population": 42056}, {"name": "Guaraciaba do Norte", "lat": -4.16694, "lng": -40.7475, "population": 42053}, {"name": "São Lourenço do Sul", "lat": -31.36528, "lng": -51.97833, "population": 41989}, {"name": "Marataizes", "lat": -21.04333, "lng": -40.82444, "population": 41929}, {"name": "Macaúbas", "lat": -13.01944, "lng": -42.69861, "population": 41859}, {"name": "Marialva", "lat": -23.485, "lng": -51.79167, "population": 41851}, {"name": "Lago Norte", "lat": -15.73948, "lng": -47.85686, "population": 41778}, {"name": "Torres", "lat": -29.33528, "lng": -49.72694, "population": 41751}, {"name": "Coelho Neto", "lat": -4.25667, "lng": -43.01278, "population": 41658}, {"name": "Santa Maria de Jetibá", "lat": -20.02745, "lng": -40.74336, "population": 41636}, {"name": "Santa Helena", "lat": -2.23111, "lng": -45.3, "population": 41561}, {"name": "Barra dos Coqueiros", "lat": -10.90889, "lng": -37.03861, "population": 41511}, {"name": "Arcos", "lat": -20.28194, "lng": -45.53944, "population": 41416}, {"name": "Socorro", "lat": -22.59139, "lng": -46.52889, "population": 41352}, {"name": "Sena Madureira", "lat": -9.06341, "lng": -68.67245, "population": 41343}, {"name": "Currais Novos", "lat": -6.26083, "lng": -36.51778, "population": 41313}, {"name": "Curuçá", "lat": -0.72889, "lng": -47.84806, "population": 41262}, {"name": "Nossa Senhora da Glória", "lat": -10.21833, "lng": -37.42028, "population": 41212}, {"name": "São Fidélis", "lat": -21.64611, "lng": -41.74694, "population": 41197}, {"name": "Toritama", "lat": -8.00667, "lng": -36.05667, "population": 41137}, {"name": "Paraguaçu Paulista", "lat": -22.41278, "lng": -50.57583, "population": 41120}, {"name": "Pacajá", "lat": -3.83778, "lng": -50.6375, "population": 41097}, {"name": "Ipu", "lat": -4.32222, "lng": -40.71083, "population": 41081}, {"name": "Esperantina", "lat": -3.90167, "lng": -42.23361, "population": 40970}, {"name": "São Sebastião do Passé", "lat": -12.5125, "lng": -38.49528, "population": 40958}, {"name": "Paranaíba", "lat": -19.67722, "lng": -51.19083, "population": 40957}, {"name": "São Gotardo", "lat": -19.31111, "lng": -46.04889, "population": 40910}, {"name": "Sirinhaém", "lat": -8.59083, "lng": -35.11611, "population": 40852}, {"name": "Zé Doca", "lat": -3.27472, "lng": -45.65833, "population": 40801}, {"name": "Ipiaú", "lat": -14.13449, "lng": -39.73948, "population": 40706}, {"name": "Itabaianinha", "lat": -11.27389, "lng": -37.79, "population": 40678}, {"name": "Santa Rita do Sapucaí", "lat": -22.25222, "lng": -45.70333, "population": 40635}, {"name": "Porto de Moz", "lat": -1.74833, "lng": -52.23833, "population": 40597}, {"name": "Remanso", "lat": -9.62167, "lng": -42.08139, "population": 40586}, {"name": "Santa Maria da Boa Vista", "lat": -8.80778, "lng": -39.82556, "population": 40578}, {"name": "Andradas", "lat": -22.06806, "lng": -46.56917, "population": 40553}, {"name": "Benjamin Constant", "lat": -4.37555, "lng": -70.03179, "population": 40509}, {"name": "Jacarezinho", "lat": -23.16056, "lng": -49.96944, "population": 40375}, {"name": "Almenara", "lat": -16.18361, "lng": -40.69444, "population": 40364}, {"name": "Colinas", "lat": -6.02583, "lng": -44.24917, "population": 40316}, {"name": "Pedra Branca", "lat": -5.45417, "lng": -39.71722, "population": 40187}, {"name": "Santa Quitéria", "lat": -4.33194, "lng": -40.15667, "population": 40183}, {"name": "Salinas", "lat": -16.17028, "lng": -42.29028, "population": 40178}, {"name": "Vargem Grande do Sul", "lat": -21.83222, "lng": -46.89361, "population": 40133}, {"name": "Curitibanos", "lat": -27.28278, "lng": -50.58444, "population": 40045}, {"name": "Boa Esperança", "lat": -21.09, "lng": -45.56583, "population": 39848}, {"name": "Itapemirim", "lat": -21.01111, "lng": -40.83389, "population": 39832}, {"name": "Espírito Santo do Pinhal", "lat": -22.19591, "lng": -46.74884, "population": 39816}, {"name": "Capelinha", "lat": -17.69139, "lng": -42.51583, "population": 39626}, {"name": "Lajedo", "lat": -8.66361, "lng": -36.32, "population": 39582}, {"name": "Eldorado do Sul", "lat": -30.08389, "lng": -51.61611, "population": 39559}, {"name": "Riacho Fundo", "lat": -15.88378, "lng": -48.01634, "population": 39552}, {"name": "Tucumã", "lat": -6.7475, "lng": -51.16111, "population": 39550}, {"name": "São Gonçalo dos Campos", "lat": -12.43394, "lng": -38.95057, "population": 39513}, {"name": "Nova Viçosa", "lat": -17.89194, "lng": -39.37194, "population": 39509}, {"name": "Presidente Epitácio", "lat": -21.76333, "lng": -52.11556, "population": 39505}, {"name": "Itápolis", "lat": -21.59556, "lng": -48.81278, "population": 39493}, {"name": "Custódia", "lat": -8.0875, "lng": -37.64306, "population": 39403}, {"name": "Barra da Tijuca", "lat": -22.99835, "lng": -43.36545, "population": 39403}, {"name": "Guajará Mirim", "lat": -10.78356, "lng": -65.33552, "population": 39387}, {"name": "Amambai", "lat": -23.10417, "lng": -55.22583, "population": 39325}, {"name": "Guaíra", "lat": -20.31833, "lng": -48.31056, "population": 39279}, {"name": "Bom Jardim", "lat": -7.79583, "lng": -35.58722, "population": 39278}, {"name": "Oliveira", "lat": -20.69639, "lng": -44.82722, "population": 39262}, {"name": "Rio Negrinho", "lat": -26.25444, "lng": -49.51833, "population": 39261}, {"name": "Matinhos", "lat": -25.83219, "lng": -48.53966, "population": 39259}, {"name": "Bonito", "lat": -8.47028, "lng": -35.72861, "population": 39163}, {"name": "Teotônio Vilela", "lat": -9.90971, "lng": -36.35611, "population": 39161}, {"name": "Visconde do Rio Branco", "lat": -21.01028, "lng": -42.84056, "population": 39160}, {"name": "Araioses", "lat": -2.89, "lng": -41.90306, "population": 39052}, {"name": "Várzea Alegre", "lat": -6.78889, "lng": -39.29583, "population": 38984}, {"name": "Paracuru", "lat": -3.41, "lng": -39.03056, "population": 38980}, {"name": "São Raimundo Nonato", "lat": -9.01528, "lng": -42.69944, "population": 38934}, {"name": "Brumadinho", "lat": -20.14333, "lng": -44.19972, "population": 38915}, {"name": "São Mateus do Maranhão", "lat": -4.04167, "lng": -44.475, "population": 38829}, {"name": "Caeté", "lat": -19.88, "lng": -43.66972, "population": 38776}, {"name": "Brás", "lat": -23.55, "lng": -46.61667, "population": 38750}, {"name": "São Francisco do Conde", "lat": -12.6275, "lng": -38.68, "population": 38733}, {"name": "Ouro Branco", "lat": -20.52334, "lng": -43.69486, "population": 38724}, {"name": "São João da Barra", "lat": -21.64028, "lng": -41.05111, "population": 38708}, {"name": "Santa Maria da Vitória", "lat": -13.38814, "lng": -44.19868, "population": 38604}, {"name": "Atalaia", "lat": -9.50194, "lng": -36.02278, "population": 38530}, {"name": "Santa Helena de Goiás", "lat": -17.81361, "lng": -50.59694, "population": 38492}, {"name": "Rosário", "lat": -2.94047, "lng": -44.24898, "population": 38475}, {"name": "Novo Horizonte", "lat": -21.46806, "lng": -49.22083, "population": 38324}, {"name": "Orlândia", "lat": -20.72028, "lng": -47.88667, "population": 38319}, {"name": "Iturama", "lat": -19.72806, "lng": -50.19556, "population": 38295}, {"name": "São Pedro", "lat": -22.54861, "lng": -47.91389, "population": 38256}, {"name": "Boca do Acre", "lat": -8.75222, "lng": -67.39778, "population": 38246}, {"name": "Oeiras", "lat": -7.02528, "lng": -42.13111, "population": 38161}, {"name": "Sento Sé", "lat": -9.74583, "lng": -41.88528, "population": 38154}, {"name": "Entre Rios", "lat": -11.94194, "lng": -38.08444, "population": 38098}, {"name": "Socorro", "lat": -23.68528, "lng": -46.71372, "population": 38051}, {"name": "Mucuri", "lat": -18.08639, "lng": -39.55083, "population": 37977}, {"name": "Ulianópolis", "lat": -3.74194, "lng": -47.49472, "population": 37972}, {"name": "Rolim de Moura do Guaporé", "lat": -13.08271, "lng": -62.27726, "population": 37949}, {"name": "Pedro II", "lat": -4.42472, "lng": -41.45861, "population": 37894}, {"name": "Mateus Leme", "lat": -19.98639, "lng": -44.42778, "population": 37841}, {"name": "Santaluz", "lat": -11.25583, "lng": -39.37472, "population": 37834}, {"name": "Pentecoste", "lat": -3.79278, "lng": -39.27028, "population": 37813}, {"name": "Afuá", "lat": -0.15667, "lng": -50.38667, "population": 37765}, {"name": "Mombaça", "lat": -5.74306, "lng": -39.6275, "population": 37735}, {"name": "Leblon", "lat": -22.98444, "lng": -43.22315, "population": 37709}, {"name": "Massapê", "lat": -3.52278, "lng": -40.34278, "population": 37697}, {"name": "Machado", "lat": -21.67472, "lng": -45.91972, "population": 37684}, {"name": "Agudos", "lat": -22.46917, "lng": -48.9875, "population": 37680}, {"name": "Tietê", "lat": -23.10194, "lng": -47.71472, "population": 37663}, {"name": "Jaíba", "lat": -15.33833, "lng": -43.67444, "population": 37660}, {"name": "Jeremoabo", "lat": -10.076, "lng": -38.34725, "population": 37626}, {"name": "Matozinhos", "lat": -19.55778, "lng": -44.08139, "population": 37618}, {"name": "Pontal", "lat": -21.0225, "lng": -48.03722, "population": 37607}, {"name": "Rio Brilhante", "lat": -21.80194, "lng": -54.54639, "population": 37601}, {"name": "Ituverava", "lat": -20.33944, "lng": -47.78056, "population": 37571}, {"name": "Rio Branco do Sul", "lat": -25.19, "lng": -49.31417, "population": 37558}, {"name": "Confresa", "lat": -10.64389, "lng": -51.56889, "population": 37541}, {"name": "Jarinu", "lat": -23.10139, "lng": -46.72833, "population": 37535}, {"name": "Guariba", "lat": -21.36, "lng": -48.22833, "population": 37498}, {"name": "Turiaçu", "lat": -1.66333, "lng": -45.37167, "population": 37491}, {"name": "Cansanção", "lat": -10.66722, "lng": -39.49917, "population": 37439}, {"name": "Porteirinha", "lat": -15.74333, "lng": -43.02833, "population": 37438}, {"name": "Ipanema", "lat": -22.98436, "lng": -43.20285, "population": 37392}, {"name": "Aliança", "lat": -7.60333, "lng": -35.23083, "population": 37372}, {"name": "Alto De Pinheiros", "lat": -23.54761, "lng": -46.71196, "population": 37359}, {"name": "Girau do Ponciano", "lat": -9.88417, "lng": -36.82889, "population": 37335}, {"name": "Santa Cruz", "lat": -6.22944, "lng": -36.02278, "population": 37313}, {"name": "São Manuel", "lat": -22.73111, "lng": -48.57056, "population": 37289}, {"name": "Bom Jesus do Itabapoana", "lat": -21.13389, "lng": -41.67972, "population": 37172}, {"name": "São Caitano", "lat": -8.32583, "lng": -36.14278, "population": 37126}, {"name": "Amarante do Maranhão", "lat": -5.56667, "lng": -46.74222, "population": 37085}, {"name": "Pedreiras", "lat": -4.56889, "lng": -44.59194, "population": 37050}, {"name": "Santa Rita", "lat": -3.13901, "lng": -44.32519, "population": 37035}, {"name": "Dom Pedrito", "lat": -30.98278, "lng": -54.67306, "population": 36981}, {"name": "Campos Novos", "lat": -27.40167, "lng": -51.225, "population": 36932}, {"name": "Castelo", "lat": -20.60361, "lng": -41.18472, "population": 36930}, {"name": "Sarzedo", "lat": -20.03528, "lng": -44.14472, "population": 36844}, {"name": "Missão Velha", "lat": -7.24972, "lng": -39.14306, "population": 36822}, {"name": "Assis Chateaubriand", "lat": -24.42, "lng": -53.52139, "population": 36808}, {"name": "Ipueiras", "lat": -4.54167, "lng": -40.71889, "population": 36798}, {"name": "Mandaguari", "lat": -23.52098, "lng": -51.68179, "population": 36716}, {"name": "José Bonifácio", "lat": -21.05278, "lng": -49.68833, "population": 36633}, {"name": "Rosário do Sul", "lat": -30.25833, "lng": -54.91417, "population": 36630}, {"name": "Itambé", "lat": -7.41028, "lng": -35.11278, "population": 36626}, {"name": "Barra do Choça", "lat": -14.88111, "lng": -40.57944, "population": 36539}, {"name": "Amargosa", "lat": -13.03028, "lng": -39.60472, "population": 36521}, {"name": "Pilar", "lat": -9.59722, "lng": -35.95667, "population": 36499}, {"name": "Iperó", "lat": -23.35028, "lng": -47.68861, "population": 36459}, {"name": "Tuntum", "lat": -5.25806, "lng": -44.64889, "population": 36251}, {"name": "Bodocó", "lat": -7.77833, "lng": -39.94111, "population": 36129}, {"name": "Apodi", "lat": -5.66417, "lng": -37.79889, "population": 36093}, {"name": "Piumhi", "lat": -20.46528, "lng": -45.95806, "population": 36062}, {"name": "Setor Complementar de Indústria e Abastecimento", "lat": -15.78218, "lng": -47.98819, "population": 36042}, {"name": "Colinas do Tocantins", "lat": -8.05917, "lng": -48.475, "population": 35957}, {"name": "Vassouras", "lat": -22.40389, "lng": -43.6625, "population": 35904}, {"name": "Juara", "lat": -11.255, "lng": -57.51972, "population": 35899}, {"name": "Santa Teresa", "lat": -22.91769, "lng": -43.18812, "population": 35873}, {"name": "Maragogipe", "lat": -12.77778, "lng": -38.91944, "population": 35859}, {"name": "Igarapé-Açu", "lat": -1.12889, "lng": -47.62, "population": 35797}, {"name": "Rurópolis", "lat": -4.09556, "lng": -54.91028, "population": 35769}, {"name": "Itaqui", "lat": -29.12528, "lng": -56.55306, "population": 35768}, {"name": "Iporá", "lat": -16.44194, "lng": -51.11778, "population": 35684}, {"name": "Goiatuba", "lat": -18.0125, "lng": -49.35472, "population": 35664}, {"name": "Adamantina", "lat": -21.68528, "lng": -51.0725, "population": 35642}, {"name": "Ilhabela", "lat": -23.77806, "lng": -45.35806, "population": 35591}, {"name": "Prainha", "lat": -1.8, "lng": -53.48, "population": 35577}, {"name": "Eirunepé", "lat": -6.66028, "lng": -69.87361, "population": 35534}, {"name": "Feijó", "lat": -8.1654, "lng": -70.35486, "population": 35426}, {"name": "Domingos Martins", "lat": -20.36333, "lng": -40.65917, "population": 35416}, {"name": "Rio Real", "lat": -11.48472, "lng": -37.93278, "population": 35362}, {"name": "Pilão Arcado", "lat": -10.00053, "lng": -42.47975, "population": 35357}, {"name": "Conceição do Jacuípe", "lat": -12.31667, "lng": -38.76667, "population": 35308}, {"name": "Baturité", "lat": -4.32861, "lng": -38.88472, "population": 35218}, {"name": "Presidente Venceslau", "lat": -21.87611, "lng": -51.84389, "population": 35201}, {"name": "São Paulo de Olivença", "lat": -3.37833, "lng": -68.8725, "population": 35196}, {"name": "Jaguariaíva", "lat": -24.24423, "lng": -49.70932, "population": 35141}, {"name": "Promissão", "lat": -21.53667, "lng": -49.85806, "population": 35131}, {"name": "Laranjal do Jari", "lat": -0.826, "lng": -52.506, "population": 35114}, {"name": "Pimenta Bueno", "lat": -11.6725, "lng": -61.19361, "population": 35079}, {"name": "Ouro Preto do Oeste", "lat": -10.74806, "lng": -62.21583, "population": 35044}, {"name": "Nanuque", "lat": -17.83917, "lng": -40.35389, "population": 35038}, {"name": "Charqueadas", "lat": -29.95472, "lng": -51.62528, "population": 35012}, {"name": "Palotina", "lat": -24.28389, "lng": -53.84, "population": 35011}, {"name": "Prado", "lat": -17.34111, "lng": -39.22083, "population": 35003}, {"name": "Padre Bernardo", "lat": -15.16538, "lng": -48.28416, "population": 34967}, {"name": "Niquelândia", "lat": -14.47389, "lng": -48.45972, "population": 34964}, {"name": "Posse", "lat": -14.09306, "lng": -46.36944, "population": 34914}, {"name": "Borba", "lat": -4.39143, "lng": -59.58864, "population": 34879}, {"name": "São José do Belmonte", "lat": -7.86139, "lng": -38.75972, "population": 34843}, {"name": "Santa Fé do Sul", "lat": -20.21111, "lng": -50.92583, "population": 34794}, {"name": "São Luiz Gonzaga", "lat": -28.40833, "lng": -54.96083, "population": 34752}, {"name": "Rio Pardo", "lat": -29.98972, "lng": -52.37806, "population": 34654}, {"name": "Bela Vista de Goiás", "lat": -16.97278, "lng": -48.95333, "population": 34445}, {"name": "Itaporanga d'Ajuda", "lat": -10.99806, "lng": -37.31056, "population": 34411}, {"name": "Mãe do Rio", "lat": -2.04639, "lng": -47.55056, "population": 34353}, {"name": "São Joaquim de Bicas", "lat": -20.04917, "lng": -44.27389, "population": 34348}, {"name": "Barra Bonita", "lat": -22.49472, "lng": -48.55806, "population": 34346}, {"name": "Garibaldi", "lat": -29.25611, "lng": -51.53361, "population": 34335}, {"name": "Araçuaí", "lat": -16.84972, "lng": -42.07028, "population": 34297}, {"name": "Pomerode", "lat": -26.74056, "lng": -49.17694, "population": 34289}, {"name": "Almeirim", "lat": -1.52333, "lng": -52.58167, "population": 34280}, {"name": "Nova Cruz", "lat": -6.47806, "lng": -35.43389, "population": 34269}, {"name": "Serra do Ramalho", "lat": -13.54232, "lng": -43.57968, "population": 34222}, {"name": "Curaçá", "lat": -8.99028, "lng": -39.90944, "population": 34180}, {"name": "Petrolândia", "lat": -8.97917, "lng": -38.21944, "population": 34161}, {"name": "Brejo", "lat": -3.68444, "lng": -42.75028, "population": 34120}, {"name": "Portão", "lat": -29.70167, "lng": -51.24194, "population": 34071}, {"name": "São Domingos do Maranhão", "lat": -5.57583, "lng": -44.38528, "population": 34034}, {"name": "Curralinho", "lat": -1.81361, "lng": -49.79528, "population": 33903}, {"name": "Itiúba", "lat": -10.69167, "lng": -39.85361, "population": 33872}, {"name": "Palmeira", "lat": -25.42944, "lng": -50.00639, "population": 33855}, {"name": "São Luís de Montes Belos", "lat": -16.525, "lng": -50.37222, "population": 33852}, {"name": "Oeiras do Pará", "lat": -2.00306, "lng": -49.85444, "population": 33844}, {"name": "Inhambupe", "lat": -11.78444, "lng": -38.35306, "population": 33790}, {"name": "Braço do Norte", "lat": -28.275, "lng": -49.16556, "population": 33773}, {"name": "Américo Brasiliense", "lat": -21.72444, "lng": -48.10167, "population": 33757}, {"name": "Várzea da Palma", "lat": -17.5976, "lng": -44.73367, "population": 33744}, {"name": "Jaguaribe", "lat": -5.89056, "lng": -38.62194, "population": 33726}, {"name": "Itaíba", "lat": -8.9475, "lng": -37.42278, "population": 33691}, {"name": "Pitangueiras", "lat": -21.00944, "lng": -48.22167, "population": 33674}, {"name": "Penha", "lat": -26.76944, "lng": -48.64583, "population": 33663}, {"name": "Araçoiaba da Serra", "lat": -23.50528, "lng": -47.61417, "population": 33656}, {"name": "Novo Progresso", "lat": -7.14778, "lng": -55.38111, "population": 33638}, {"name": "Peixoto de Azevedo", "lat": -10.22306, "lng": -54.97972, "population": 33599}, {"name": "Morro do Chapéu", "lat": -11.54852, "lng": -41.15804, "population": 33594}, {"name": "Pitanga", "lat": -24.75722, "lng": -51.76139, "population": 33567}, {"name": "Cachoeira", "lat": -12.60139, "lng": -38.96576, "population": 33567}, {"name": "Bom Retiro", "lat": -23.52508, "lng": -46.63889, "population": 33520}, {"name": "Ribeirão", "lat": -8.51444, "lng": -35.37778, "population": 33507}, {"name": "Fraiburgo", "lat": -27.02611, "lng": -50.92139, "population": 33481}, {"name": "Poço Redondo", "lat": -9.805, "lng": -37.68444, "population": 33439}, {"name": "Exu", "lat": -7.51194, "lng": -39.72417, "population": 33436}, {"name": "Barreirinha", "lat": -2.79333, "lng": -57.07, "population": 33436}, {"name": "Barra Funda", "lat": -23.5212, "lng": -46.67409, "population": 33436}, {"name": "Riachão do Jacuípe", "lat": -11.80694, "lng": -39.38556, "population": 33386}, {"name": "Estreito", "lat": -6.55573, "lng": -47.44149, "population": 33294}, {"name": "João Câmara", "lat": -5.5375, "lng": -35.81972, "population": 33290}, {"name": "Cravinhos", "lat": -21.34028, "lng": -47.72944, "population": 33281}, {"name": "Catende", "lat": -8.66667, "lng": -35.71667, "population": 33279}, {"name": "Capim Grosso", "lat": -11.38111, "lng": -40.01278, "population": 33235}, {"name": "Maragogi", "lat": -9.01222, "lng": -35.2225, "population": 33232}, {"name": "Aparecida", "lat": -22.84694, "lng": -45.22972, "population": 33223}, {"name": "Palmeira das Missões", "lat": -27.89944, "lng": -53.31361, "population": 33216}, {"name": "Araguatins", "lat": -5.65084, "lng": -48.11119, "population": 33205}, {"name": "Bom Jardim", "lat": -3.54281, "lng": -45.60852, "population": 33100}, {"name": "Taiobeiras", "lat": -15.80778, "lng": -42.23306, "population": 33050}, {"name": "Touros", "lat": -5.19889, "lng": -35.46083, "population": 33035}, {"name": "Presidente Figueiredo", "lat": -2.03444, "lng": -60.025, "population": 33004}, {"name": "Porto União", "lat": -26.23806, "lng": -51.07833, "population": 32970}, {"name": "Itamarandiba", "lat": -17.85722, "lng": -42.85889, "population": 32948}, {"name": "Aguaí", "lat": -22.05944, "lng": -46.97861, "population": 32888}, {"name": "Tanguá", "lat": -22.73028, "lng": -42.71417, "population": 32858}, {"name": "São Desidério", "lat": -12.36333, "lng": -44.97333, "population": 32828}, {"name": "Urbano Santos", "lat": -3.20778, "lng": -43.40361, "population": 32812}, {"name": "Sertânia", "lat": -8.07361, "lng": -37.26444, "population": 32811}, {"name": "Igrejinha", "lat": -29.57444, "lng": -50.79028, "population": 32808}, {"name": "Teutônia", "lat": -29.44806, "lng": -51.80639, "population": 32797}, {"name": "Arraial do Cabo", "lat": -22.96611, "lng": -42.02778, "population": 32794}, {"name": "Bela Cruz", "lat": -3.05056, "lng": -40.16778, "population": 32775}, {"name": "Ubajara", "lat": -3.85444, "lng": -40.92111, "population": 32767}, {"name": "Ivaiporã", "lat": -24.24778, "lng": -51.68472, "population": 32720}, {"name": "Campo Alegre", "lat": -9.78194, "lng": -36.35083, "population": 32714}, {"name": "Jaguarari", "lat": -10.26389, "lng": -40.19583, "population": 32703}, {"name": "São Sebastião", "lat": -9.93361, "lng": -36.55417, "population": 32701}, {"name": "Itatiaia", "lat": -22.49611, "lng": -44.56333, "population": 32694}, {"name": "São João Batista", "lat": -27.27611, "lng": -48.84944, "population": 32687}, {"name": "Canavieiras", "lat": -15.675, "lng": -38.94722, "population": 32683}, {"name": "Rorainópolis", "lat": 0.94611, "lng": -60.41806, "population": 32647}, {"name": "Frederico Westphalen", "lat": -27.35917, "lng": -53.39444, "population": 32627}, {"name": "Esplanada", "lat": -11.79611, "lng": -37.945, "population": 32554}, {"name": "Caçapava do Sul", "lat": -30.51436, "lng": -53.48496, "population": 32515}, {"name": "Penalva", "lat": -3.29417, "lng": -45.17361, "population": 32511}, {"name": "Pombal", "lat": -6.77028, "lng": -37.80167, "population": 32473}, {"name": "Ourilândia do Norte", "lat": -6.75472, "lng": -51.08389, "population": 32467}, {"name": "Correntina", "lat": -13.34333, "lng": -44.63667, "population": 32457}, {"name": "Careiro", "lat": -3.76806, "lng": -60.36917, "population": 32442}, {"name": "Santana do Araguaia", "lat": -9.335, "lng": -50.35, "population": 32413}, {"name": "Pires do Rio", "lat": -17.29972, "lng": -48.27944, "population": 32373}, {"name": "Monteiro", "lat": -7.88944, "lng": -37.12, "population": 32277}, {"name": "São Gabriel da Palha", "lat": -19.01809, "lng": -40.5373, "population": 32252}, {"name": "Guanhães", "lat": -18.775, "lng": -42.9325, "population": 32244}, {"name": "São Bento", "lat": -6.28333, "lng": -37.75, "population": 32235}, {"name": "Laranjeiras do Sul", "lat": -25.40778, "lng": -52.41611, "population": 32227}, {"name": "Paraipaba", "lat": -3.43944, "lng": -39.14833, "population": 32216}, {"name": "Estrela", "lat": -29.50194, "lng": -51.96639, "population": 32183}, {"name": "Ibaté", "lat": -21.95472, "lng": -47.99667, "population": 32178}, {"name": "Gandu", "lat": -13.74389, "lng": -39.48667, "population": 32178}, {"name": "Matões", "lat": -5.51889, "lng": -43.19889, "population": 32174}, {"name": "Coxim", "lat": -18.50667, "lng": -54.76, "population": 32151}, {"name": "Miguel Alves", "lat": -4.16556, "lng": -42.89528, "population": 32150}, {"name": "Pojuca", "lat": -12.43056, "lng": -38.32778, "population": 32136}, {"name": "Guaíra", "lat": -24.08204, "lng": -54.24622, "population": 32097}, {"name": "Ouro Fino", "lat": -22.28306, "lng": -46.36889, "population": 32094}, {"name": "Barrinha", "lat": -21.19361, "lng": -48.16389, "population": 32092}, {"name": "São Miguel Arcanjo", "lat": -23.87833, "lng": -47.99722, "population": 32039}, {"name": "Brasília de Minas", "lat": -16.20639, "lng": -44.43333, "population": 32025}, {"name": "Colíder", "lat": -10.81778, "lng": -55.45083, "population": 32010}, {"name": "Nísia Floresta", "lat": -6.09111, "lng": -35.20861, "population": 31942}, {"name": "Nerópolis", "lat": -16.40639, "lng": -49.21861, "population": 31932}, {"name": "Xaxim", "lat": -26.96167, "lng": -52.53472, "population": 31918}, {"name": "Bagre", "lat": -1.89969, "lng": -50.20821, "population": 31892}, {"name": "Palmeiras de Goiás", "lat": -16.805, "lng": -49.92583, "population": 31858}, {"name": "Anapu", "lat": -3.47222, "lng": -51.19778, "population": 31850}, {"name": "São Luís do Quitunde", "lat": -9.31833, "lng": -35.56111, "population": 31792}, {"name": "Gurupá", "lat": -1.405, "lng": -51.64, "population": 31786}, {"name": "Descalvado", "lat": -21.90389, "lng": -47.61944, "population": 31756}, {"name": "Cabrobó", "lat": -8.51417, "lng": -39.31, "population": 31746}, {"name": "Jaguaruana", "lat": -4.83389, "lng": -37.78111, "population": 31701}, {"name": "Itapicuru", "lat": -11.31667, "lng": -38.23333, "population": 31679}, {"name": "Capela", "lat": -10.50333, "lng": -37.05278, "population": 31645}, {"name": "Turilândia", "lat": -2.22031, "lng": -45.30643, "population": 31638}, {"name": "Floresta", "lat": -8.60111, "lng": -38.56861, "population": 31627}, {"name": "Bariri", "lat": -22.07444, "lng": -48.74028, "population": 31595}, {"name": "Cachoeira Paulista", "lat": -22.665, "lng": -45.00944, "population": 31564}, {"name": "Cururupu", "lat": -1.82833, "lng": -44.86833, "population": 31558}, {"name": "São José da Tapera", "lat": -9.55833, "lng": -37.38111, "population": 31557}, {"name": "Sapezal", "lat": -13.54209, "lng": -58.82011, "population": 31499}, {"name": "Mandaguaçu", "lat": -23.34722, "lng": -52.09528, "population": 31457}, {"name": "Parambu", "lat": -6.21111, "lng": -40.69444, "population": 31445}, {"name": "Forquilhinha", "lat": -28.7475, "lng": -49.47222, "population": 31431}, {"name": "Pindaré-Mirim", "lat": -3.60833, "lng": -45.34333, "population": 31429}, {"name": "Rio das Pedras", "lat": -22.84333, "lng": -47.60611, "population": 31328}, {"name": "Guarantã do Norte", "lat": -9.95051, "lng": -54.90822, "population": 31328}, {"name": "Rio Negro", "lat": -26.10583, "lng": -49.7975, "population": 31324}, {"name": "Água Boa", "lat": -14.05, "lng": -52.15861, "population": 31314}, {"name": "Bandeirantes", "lat": -23.11, "lng": -50.3675, "population": 31273}, {"name": "Osvaldo Cruz", "lat": -21.79667, "lng": -50.87861, "population": 31272}, {"name": "Poconé", "lat": -16.25667, "lng": -56.62278, "population": 31269}, {"name": "Parnarama", "lat": -5.68167, "lng": -43.09333, "population": 31250}, {"name": "Carangola", "lat": -20.73306, "lng": -42.02944, "population": 31240}, {"name": "Guararema", "lat": -23.415, "lng": -46.035, "population": 31236}, {"name": "Esperança", "lat": -7.03306, "lng": -35.85722, "population": 31231}, {"name": "Itaperuçu", "lat": -25.22, "lng": -49.34778, "population": 31217}, {"name": "Pompéu", "lat": -19.22444, "lng": -44.93528, "population": 31047}, {"name": "Guararapes", "lat": -21.26083, "lng": -50.64278, "population": 31043}, {"name": "São José do Egito", "lat": -7.47889, "lng": -37.27444, "population": 31004}, {"name": "Chapadão do Sul", "lat": -18.79417, "lng": -52.62278, "population": 30993}, {"name": "Santa Vitória do Palmar", "lat": -33.51889, "lng": -53.36806, "population": 30983}, {"name": "Irituia", "lat": -1.77111, "lng": -47.43806, "population": 30955}, {"name": "Cícero Dantas", "lat": -10.6, "lng": -38.38333, "population": 30907}, {"name": "Flores da Cunha", "lat": -29.02889, "lng": -51.18167, "population": 30892}, {"name": "Carauari", "lat": -4.88278, "lng": -66.89583, "population": 30892}, {"name": "Vitorino Freire", "lat": -4.28805, "lng": -45.24611, "population": 30845}, {"name": "Raposa", "lat": -2.42306, "lng": -44.10333, "population": 30839}, {"name": "Vitória do Mearim", "lat": -3.46222, "lng": -44.87056, "population": 30805}, {"name": "Lavras da Mangabeira", "lat": -6.75333, "lng": -38.96444, "population": 30802}, {"name": "Buriti", "lat": -3.94222, "lng": -42.925, "population": 30799}, {"name": "Barão de Cocais", "lat": -19.94583, "lng": -43.48722, "population": 30778}, {"name": "Itapoá", "lat": -26.11694, "lng": -48.61611, "population": 30750}, {"name": "Quedas do Iguaçu", "lat": -25.45303, "lng": -52.90464, "population": 30738}, {"name": "Além Paraíba", "lat": -21.88778, "lng": -42.70444, "population": 30717}, {"name": "Juatuba", "lat": -19.95194, "lng": -44.34278, "population": 30716}, {"name": "Riacho de Santana", "lat": -13.60917, "lng": -42.93889, "population": 30711}, {"name": "Dois Irmãos", "lat": -29.58028, "lng": -51.08528, "population": 30709}, {"name": "Machadinho d'Oeste", "lat": -9.44389, "lng": -61.98139, "population": 30707}, {"name": "Nova Russas", "lat": -4.70667, "lng": -40.56306, "population": 30699},