[{"name": "Zürich", "lat": 47.36667, "lng": 8.55, "population": 415367}, {"name": "Genève", "lat": 46.20222, "lng": 6.14569, "population": 201741}, {"name": "Basel", "lat": 47.55839, "lng": 7.57327, "population": 177595}, {"name": "Lausanne", "lat": 46.516, "lng": 6.63282, "population": 139111}, {"name": "Bern", "lat": 46.94809, "lng": 7.44744, "population": 121631}, {"name": "Winterthur", "lat": 47.50564, "lng": 8.72413, "population": 111840}, {"name": "Luzern", "lat": 47.05048, "lng": 8.30635, "population": 81691}, {"name": "Sankt Gallen", "lat": 47.42391, "lng": 9.37477, "population": 75833}, {"name": "Lugano", "lat": 46.01008, "lng": 8.96004, "population": 63185}, {"name": "Biel/Bienne", "lat": 47.13713, "lng": 7.24608, "population": 55120}, {"name": "Zürich (Kreis 11)", "lat": 47.42326, "lng": 8.52166, "population": 54260}, {"name": "Zürich (Kreis 3)", "lat": 47.35785, "lng": 8.50296, "population": 46018}, {"name": "Zürich (Kreis 9)", "lat": 47.38245, "lng": 8.47993, "population": 44878}, {"name": "Thun", "lat": 46.75118, "lng": 7.62166, "population": 43723}, {"name": "Bellinzona", "lat": 46.19278, "lng": 9.01703, "population": 43220}, {"name": "Köniz", "lat": 46.92436, "lng": 7.41457, "population": 41784}, {"name": "Fribourg", "lat": 46.80237, "lng": 7.15128, "population": 38365}, {"name": "La Chaux-de-Fonds", "lat": 47.09993, "lng": 6.82586, "population": 37942}, {"name": "Schaffhausen", "lat": 47.69732, "lng": 8.63493, "population": 36587}, {"name": "Zürich (Kreis 10)", "lat": 47.40773, "lng": 8.5005, "population": 36216}, {"name": "Chur", "lat": 46.84986, "lng": 9.53287, "population": 35373}, {"name": "Rapperswil", "lat": 47.22557, "lng": 8.82228, "population": 34776}, {"name": "Uster", "lat": 47.34713, "lng": 8.72091, "population": 34715}, {"name": "Sitten", "lat": 46.22739, "lng": 7.35559, "population": 34708}, {"name": "Zürich (Kreis 7)", "lat": 47.37328, "lng": 8.58038, "population": 33820}, {"name": "Neuchâtel", "lat": 46.99179, "lng": 6.931, "population": 33475}, {"name": "Emmen", "lat": 47.07819, "lng": 8.27331, "population": 30926}, {"name": "Zug", "lat": 47.17242, "lng": 8.51745, "population": 30542}, {"name": "Yverdon-les-Bains", "lat": 46.77852, "lng": 6.64115, "population": 30157}, {"name": "Vernier", "lat": 46.21702, "lng": 6.08497, "population": 30086}, {"name": "Zürich (Kreis 6)", "lat": 47.39223, "lng": 8.54381, "population": 29951}, {"name": "Zürich (Kreis 2)", "lat": 47.33756, "lng": 8.5211, "population": 29215}, {"name": "Zürich (Kreis 9) / Altstetten", "lat": 47.38946, "lng": 8.48533, "population": 28307}, {"name": "Zürich (Kreis 12)", "lat": 47.40372, "lng": 8.57608, "population": 28189}, {"name": "Lancy", "lat": 46.18981, "lng": 6.11441, "population": 27291}, {"name": "Zürich (Kreis 4) / Aussersihl", "lat": 47.37752, "lng": 8.52127, "population": 27273}, {"name": "Montreux", "lat": 46.43301, "lng": 6.91143, "population": 25984}, {"name": "Frauenfeld", "lat": 47.55776, "lng": 8.89893, "population": 25607}, {"name": "Kriens", "lat": 47.0311, "lng": 8.28547, "population": 25010}, {"name": "Wetzikon", "lat": 47.3264, "lng": 8.79779, "population": 24764}, {"name": "Wil", "lat": 47.46152, "lng": 9.04552, "population": 23955}, {"name": "Bulle", "lat": 46.61797, "lng": 7.0569, "population": 23438}, {"name": "Horgen", "lat": 47.25983, "lng": 8.59778, "population": 22662}, {"name": "Kreuzlingen", "lat": 47.65051, "lng": 9.17504, "population": 21997}, {"name": "Aarau", "lat": 47.39254, "lng": 8.04422, "population": 21503}, {"name": "Zürich (Kreis 3) / Sihlfeld", "lat": 47.37382, "lng": 8.51164, "population": 20977}, {"name": "Renens", "lat": 46.53989, "lng": 6.5881, "population": 20927}, {"name": "Dietikon", "lat": 47.40165, "lng": 8.40015, "population": 20893}, {"name": "Baar", "lat": 47.19625, "lng": 8.52954, "population": 20546}, {"name": "Bülach", "lat": 47.52197, "lng": 8.54049, "population": 20443}, {"name": "Zürich (Kreis 6) / Unterstrass", "lat": 47.3953, "lng": 8.53721, "population": 20045}, {"name": "Riehen", "lat": 47.57884, "lng": 7.64683, "population": 20000}, {"name": "Vevey", "lat": 46.46299, "lng": 6.84345, "population": 19891}, {"name": "Dübendorf", "lat": 47.39724, "lng": 8.61872, "population": 19882}, {"name": "Meyrin", "lat": 46.23424, "lng": 6.08025, "population": 19772}, {"name": "Carouge", "lat": 46.18096, "lng": 6.13921, "population": 19344}, {"name": "Baden", "lat": 47.47333, "lng": 8.30592, "population": 19340}, {"name": "Reinach", "lat": 47.49702, "lng": 7.59172, "population": 19216}, {"name": "Olten", "lat": 47.34999, "lng": 7.90329, "population": 18362}, {"name": "Martigny-Ville", "lat": 46.10276, "lng": 7.07245, "population": 18301}, {"name": "Wettingen", "lat": 47.46606, "lng": 8.32663, "population": 18191}, {"name": "Allschwil", "lat": 47.55074, "lng": 7.53599, "population": 18189}, {"name": "Zürich (Kreis 11) / Oerlikon", "lat": 47.40823, "lng": 8.54258, "population": 17922}, {"name": "Zürich (Kreis 11) / Seebach", "lat": 47.42181, "lng": 8.54779, "population": 17851}, {"name": "Monthey", "lat": 46.25451, "lng": 6.95406, "population": 17777}, {"name": "Jona", "lat": 47.22983, "lng": 8.83884, "population": 17655}, {"name": "Onex", "lat": 46.18396, "lng": 6.10237, "population": 17302}, {"name": "Zürich (Kreis 11) / Affoltern", "lat": 47.41814, "lng": 8.5122, "population": 17241}, {"name": "Zürich (Kreis 10) / Höngg", "lat": 47.40313, "lng": 8.4971, "population": 17117}, {"name": "Gossau", "lat": 47.41551, "lng": 9.25482, "population": 17043}, {"name": "Muttenz", "lat": 47.52271, "lng": 7.64511, "population": 16927}, {"name": "Nyon", "lat": 46.38318, "lng": 6.23955, "population": 16797}, {"name": "Sierre", "lat": 46.29192, "lng": 7.53559, "population": 16790}, {"name": "Solothurn", "lat": 47.20791, "lng": 7.53714, "population": 16777}, {"name": "Cham", "lat": 47.18213, "lng": 8.46358, "population": 16719}, {"name": "Zürich (Kreis 9) / Albisrieden", "lat": 47.37398, "lng": 8.49007, "population": 16480}, {"name": "Burgdorf", "lat": 47.05901, "lng": 7.62786, "population": 16420}, {"name": "Oberwinterthur (Kreis 2)", "lat": 47.51692, "lng": 8.76863, "population": 16356}, {"name": "Kloten", "lat": 47.45152, "lng": 8.58491, "population": 16289}, {"name": "Pully", "lat": 46.51027, "lng": 6.66183, "population": 16263}, {"name": "Stadt Winterthur (Kreis 1)", "lat": 47.49494, "lng": 8.71954, "population": 16182}, {"name": "Littau", "lat": 47.05, "lng": 8.26274, "population": 16121}, {"name": "Zürich (Kreis 2) / Wollishofen", "lat": 47.3401, "lng": 8.53134, "population": 16073}, {"name": "Grenchen", "lat": 47.1921, "lng": 7.39586, "population": 15927}, {"name": "Einsiedeln", "lat": 47.12849, "lng": 8.74735, "population": 15867}, {"name": "Locarno", "lat": 46.17086, "lng": 8.79953, "population": 15824}, {"name": "Herisau", "lat": 47.38615, "lng": 9.27916, "population": 15744}, {"name": "Zürich (Kreis 10) / Wipkingen", "lat": 47.39503, "lng": 8.52529, "population": 15718}, {"name": "Steffisburg", "lat": 46.77807, "lng": 7.63249, "population": 15709}, {"name": "Morges", "lat": 46.51127, "lng": 6.49854, "population": 15705}, {"name": "Zürich (Kreis 8)", "lat": 47.3548, "lng": 8.56097, "population": 15519}, {"name": "Seen (Kreis 3)", "lat": 47.47646, "lng": 8.76996, "population": 15434}, {"name": "Adliswil", "lat": 47.30997, "lng": 8.52462, "population": 15230}, {"name": "Schwyz", "lat": 47.02076, "lng": 8.65414, "population": 15181}, {"name": "Mendrisio", "lat": 45.87019, "lng": 8.9816, "population": 14942}, {"name": "Zürich (Kreis 3) / Alt-Wiedikon", "lat": 47.36201, "lng": 8.51497, "population": 14931}, {"name": "Pratteln", "lat": 47.52071, "lng": 7.69356, "population": 14877}, {"name": "Arbon", "lat": 47.51667, "lng": 9.43333, "population": 14631}, {"name": "Freienbach", "lat": 47.20534, "lng": 8.75842, "population": 14302}, {"name": "Meilen", "lat": 47.27232, "lng": 8.64617, "population": 14207}, {"name": "Langenthal", "lat": 47.21526, "lng": 7.79607, "population": 14184}, {"name": "Binningen", "lat": 47.54021, "lng": 7.56932, "population": 14130}, {"name": "Wohlen", "lat": 47.35066, "lng": 8.27517, "population": 13875}, {"name": "Thalwil", "lat": 47.29175, "lng": 8.56351, "population": 13296}, {"name": "Wädenswil", "lat": 47.22683, "lng": 8.6687, "population": 13269}, {"name": "Küssnacht", "lat": 47.08557, "lng": 8.44206, "population": 13084}, {"name": "Thônex", "lat": 46.18815, "lng": 6.19904, "population": 13057}, {"name": "Muri", "lat": 46.93122, "lng": 7.48658, "population": 13054}, {"name": "Zürich (Kreis 4) / Hard", "lat": 47.38311, "lng": 8.50942, "population": 12976}, {"name": "Uzwil", "lat": 47.43653, "lng": 9.13422, "population": 12885}, {"name": "Liestal", "lat": 47.48455, "lng": 7.73446, "population": 12832}, {"name": "Schlieren", "lat": 47.39668, "lng": 8.44763, "population": 12695}, {"name": "Delémont", "lat": 47.36493, "lng": 7.34453, "population": 12682}, {"name": "Wülflingen (Kreis 6)", "lat": 47.51036, "lng": 8.68333, "population": 12598}, {"name": "Spiez", "lat": 46.68473, "lng": 7.69111, "population": 12594}, {"name": "Glarus", "lat": 47.04057, "lng": 9.06804, "population": 12425}, {"name": "Horw", "lat": 47.01692, "lng": 8.30956, "population": 12348}, {"name": "Affoltern am Albis", "lat": 47.27743, "lng": 8.45128, "population": 12226}, {"name": "Pfäffikon", "lat": 47.36453, "lng": 8.79202, "population": 11931}, {"name": "Spreitenbach", "lat": 47.42285, "lng": 8.36792, "population": 11875}, {"name": "Zürich (Kreis 5)", "lat": 47.38767, "lng": 8.52152, "population": 11737}, {"name": "Wallisellen", "lat": 47.41499, "lng": 8.59672, "population": 11705}, {"name": "Zofingen", "lat": 47.28779, "lng": 7.94586, "population": 11655}, {"name": "Münchenstein", "lat": 47.51848, "lng": 7.60966, "population": 11644}, {"name": "Küsnacht", "lat": 47.31805, "lng": 8.58401, "population": 11525}, {"name": "Ebikon", "lat": 47.07937, "lng": 8.34041, "population": 11471}, {"name": "Versoix", "lat": 46.28382, "lng": 6.16214, "population": 11467}, {"name": "Amriswil", "lat": 47.54699, "lng": 9.29586, "population": 11351}, {"name": "Zürich (Kreis 12) / Hirzenbach", "lat": 47.40187, "lng": 8.58633, "population": 11335}, {"name": "Brugg", "lat": 47.48096, "lng": 8.20869, "population": 11177}, {"name": "Hinwil", "lat": 47.29426, "lng": 8.84393, "population": 11135}, {"name": "Worb", "lat": 46.92984, "lng": 7.56306, "population": 11053}, {"name": "Mattenbach (Kreis 7)", "lat": 47.48705, "lng": 8.74681, "population": 11043}, {"name": "Lyss", "lat": 47.0741, "lng": 7.30655, "population": 10937}, {"name": "Münsingen", "lat": 46.87298, "lng": 7.561, "population": 10928}, {"name": "Davos", "lat": 46.80429, "lng": 9.83723, "population": 10898}, {"name": "Rheinfelden", "lat": 47.55437, "lng": 7.79403, "population": 10733}, {"name": "Gland", "lat": 46.42082, "lng": 6.2701, "population": 10641}, {"name": "Altstätten", "lat": 47.37766, "lng": 9.54746, "population": 10574}, {"name": "Lenzburg", "lat": 47.38853, "lng": 8.17503, "population": 10569}, {"name": "Plan-les-Ouates", "lat": 46.16789, "lng": 6.11664, "population": 10540}, {"name": "Prilly", "lat": 46.53698, "lng": 6.60456, "population": 10524}, {"name": "La Tour-de-Peilz", "lat": 46.45312, "lng": 6.85856, "population": 10522}, {"name": "Chêne-Bougeries", "lat": 46.19843, "lng": 6.18642, "population": 10487}, {"name": "Zürich (Kreis 12) / Schwamendingen-Mitte", "lat": 47.4063, "lng": 8.57242, "population": 10476}, {"name": "Rotkreuz", "lat": 47.14283, "lng": 8.4314, "population": 10439}, {"name": "Uster / Kirch-Uster", "lat": 47.34579, "lng": 8.71839, "population": 10428}, {"name": "Buchs", "lat": 47.16743, "lng": 9.47794, "population": 10418}, {"name": "Oftringen", "lat": 47.31382, "lng": 7.92533, "population": 10390}, {"name": "Zürich (Kreis 4) / Langstrasse", "lat": 47.37767, "lng": 8.52854, "population": 10386}, {"name": "Sarnen", "lat": 46.89611, "lng": 8.24531, "population": 10368}, {"name": "Ecublens", "lat": 46.52899, "lng": 6.56261, "population": 10262}, {"name": "Birsfelden", "lat": 47.5529, "lng": 7.62322, "population": 10232}, {"name": "Crans-Montana", "lat": 46.31316, "lng": 7.47914, "population": 10218}, {"name": "Le Locle", "lat": 47.05619, "lng": 6.74913, "population": 10216}, {"name": "Richterswil", "lat": 47.20622, "lng": 8.69686, "population": 10189}, {"name": "Oberwil", "lat": 47.51407, "lng": 7.55786, "population": 10187}, {"name": "Aesch", "lat": 47.47104, "lng": 7.5973, "population": 10138}, {"name": "Aigle", "lat": 46.3181, "lng": 6.96457, "population": 10134}, {"name": "Effretikon", "lat": 47.42575, "lng": 8.69094, "population": 10119}, {"name": "Ecublens", "lat": 46.60735, "lng": 6.80895, "population": 10065}, {"name": "Villars-sur-Glâne", "lat": 46.79054, "lng": 7.11717, "population": 10021}, {"name": "Neuhausen", "lat": 47.68579, "lng": 8.61474, "population": 10019}, {"name": "Sursee", "lat": 47.17088, "lng": 8.11113, "population": 9953}, {"name": "Payerne", "lat": 46.82192, "lng": 6.93817, "population": 9943}, {"name": "Zürich (Kreis 7) / Hottingen", "lat": 47.37011, "lng": 8.56306, "population": 9934}, {"name": "Zürich (Kreis 3) / Friesenberg", "lat": 47.36372, "lng": 8.50417, "population": 9909}, {"name": "Zürich (Kreis 6) / Oberstrass", "lat": 47.38917, "lng": 8.5504, "population": 9906}, {"name": "Zürich (Kreis 5) / Gewerbeschule", "lat": 47.38481, "lng": 8.53011, "population": 9891}, {"name": "Arth", "lat": 47.06337, "lng": 8.52349, "population": 9850}, {"name": "Münchenbuchsee", "lat": 47.02175, "lng": 7.45036, "population": 9801}, {"name": "Veyrier", "lat": 46.16699, "lng": 6.18436, "population": 9800}, {"name": "Le Grand-Saconnex", "lat": 46.23188, "lng": 6.12091, "population": 9781}, {"name": "Bernex", "lat": 46.1765, "lng": 6.07544, "population": 9759}, {"name": "Flawil", "lat": 47.41301, "lng": 9.18324, "population": 9739}, {"name": "Therwil", "lat": 47.49941, "lng": 7.55669, "population": 9595}, {"name": "Rüti", "lat": 47.25603, "lng": 8.85552, "population": 9576}, {"name": "Weinfelden", "lat": 47.56667, "lng": 9.1, "population": 9414}, {"name": "Altdorf", "lat": 46.88042, "lng": 8.64441, "population": 9401}, {"name": "Möhlin", "lat": 47.55915, "lng": 7.84329, "population": 9382}, {"name": "Suhr", "lat": 47.37172, "lng": 8.07967, "population": 9374}, {"name": "Belp", "lat": 46.89129, "lng": 7.49825, "population": 9307}, {"name": "Arlesheim", "lat": 47.49412, "lng": 7.61979, "population": 9301}, {"name": "Zuchwil", "lat": 47.20173, "lng": 7.56649, "population": 9268}, {"name": "Hombrechtikon", "lat": 47.25298, "lng": 8.77212, "population": 9212}, {"name": "Urdorf", "lat": 47.38507, "lng": 8.42581, "population": 9205}, {"name": "Gstaad", "lat": 46.47215, "lng": 7.28685, "population": 9200}, {"name": "Eschenbach", "lat": 47.23981, "lng": 8.92156, "population": 9175}, {"name": "Wohlen", "lat": 46.97118, "lng": 7.35685, "population": 9159}, {"name": "Zollikofen", "lat": 46.99905, "lng": 7.45809, "population": 9121}, {"name": "Zürich (Kreis 7) / Witikon", "lat": 47.35751, "lng": 8.59105, "population": 9099}, {"name": "Goldach", "lat": 47.47401, "lng": 9.46711, "population": 9094}, {"name": "Hünenberg", "lat": 47.17536, "lng": 8.42497, "population": 9032}, {"name": "Rorschach", "lat": 47.478, "lng": 9.4903, "population": 9000}, {"name": "Romanshorn", "lat": 47.56586, "lng": 9.37869, "population": 8956}, {"name": "Veltheim (Kreis 5)", "lat": 47.51419, "lng": 8.717, "population": 8901}, {"name": "Landquart", "lat": 46.95, "lng": 9.56667, "population": 8886}, {"name": "Egg", "lat": 47.29976, "lng": 8.69032, "population": 8829}, {"name": "Conthey", "lat": 46.2237, "lng": 7.30283, "population": 8792}, {"name": "Langnau", "lat": 46.93936, "lng": 7.78738, "population": 8784}, {"name": "Lutry", "lat": 46.50241, "lng": 6.68647, "population": 8774}, {"name": "Lachen", "lat": 47.19224, "lng": 8.85324, "population": 8754}, {"name": "Töss (Kreis 4)", "lat": 47.4789, "lng": 8.70215, "population": 8672}, {"name": "Wittenbach", "lat": 47.46108, "lng": 9.38601, "population": 8542}, {"name": "Steinhausen", "lat": 47.1951, "lng": 8.48581, "population": 8509}, {"name": "Stans", "lat": 46.95805, "lng": 8.36609, "population": 8393}, {"name": "Zürich (Kreis 2) / Enge", "lat": 47.3605, "lng": 8.53127, "population": 8253}, {"name": "Hochdorf", "lat": 47.16841, "lng": 8.29179, "population": 8192}, {"name": "Kirchberg", "lat": 47.41159, "lng": 9.0402, "population": 8127}, {"name": "Wattwil", "lat": 47.29955, "lng": 9.08657, "population": 8089}, {"name": "Chiasso", "lat": 45.83203, "lng": 9.03119, "population": 8060}, {"name": "Obersiggenthal", "lat": 47.4875, "lng": 8.29652, "population": 7990}, {"name": "Unterägeri", "lat": 47.13645, "lng": 8.5853, "population": 7973}, {"name": "Ingenbohl", "lat": 46.9988, "lng": 8.61529, "population": 7967}, {"name": "Hegnau", "lat": 47.39227, "lng": 8.66988, "population": 7961}, {"name": "Chêne-Bourg", "lat": 46.19534, "lng": 6.19406, "population": 7959}, {"name": "Neuenhof", "lat": 47.44985, "lng": 8.32682, "population": 7957}, {"name": "Männedorf", "lat": 47.25686, "lng": 8.69893, "population": 7951}, {"name": "Visp", "lat": 46.2937, "lng": 7.88149, "population": 7948}, {"name": "Biberist", "lat": 47.18009, "lng": 7.56246, "population": 7889}, {"name": "Reinach", "lat": 47.25732, "lng": 8.18091, "population": 7845}, {"name": "Willisau", "lat": 47.12183, "lng": 7.99418, "population": 7780}, {"name": "Giubiasco", "lat": 46.17246, "lng": 9.00793, "population": 7752}, {"name": "Schübelbach", "lat": 47.17326, "lng": 8.92811, "population": 7745}, {"name": "Moutier", "lat": 47.27818, "lng": 7.36951, "population": 7721}, {"name": "Epalinges", "lat": 46.54896, "lng": 6.66831, "population": 7706}, {"name": "Oberriet", "lat": 47.32088, "lng": 9.56808, "population": 7675}, {"name": "Marly", "lat": 46.77611, "lng": 7.16459, "population": 7653}, {"name": "Aadorf", "lat": 47.49204, "lng": 8.90099, "population": 7620}, {"name": "Oberentfelden", "lat": 47.35639, "lng": 8.04594, "population": 7553}, {"name": "Naters", "lat": 46.32536, "lng": 7.98912, "population": 7552}, {"name": "Pregassona", "lat": 46.02021, "lng": 8.97429, "population": 7548}, {"name": "Regensdorf", "lat": 47.4341, "lng": 8.46874, "population": 7531}, {"name": "Rothrist", "lat": 47.30508, "lng": 7.89196, "population": 7423}, {"name": "Bussigny", "lat": 46.5511, "lng": 6.55597, "population": 7408}, {"name": "Lengnau", "lat": 47.18155, "lng": 7.36814, "population": 7336}, {"name": "Pfäffikon", "lat": 47.20109, "lng": 8.77816, "population": 7310}, {"name": "Düdingen", "lat": 46.84916, "lng": 7.1915, "population": 7155}, {"name": "Siebnen", "lat": 47.17449, "lng": 8.89781, "population": 7104}, {"name": "Embrach", "lat": 47.50561, "lng": 8.59406, "population": 7088}, {"name": "Bassersdorf", "lat": 47.44342, "lng": 8.62851, "population": 7010}, {"name": "Zürich (Kreis 7) / Fluntern", "lat": 47.38013, "lng": 8.56133, "population": 7009}, {"name": "Langnau am Albis", "lat": 47.28885, "lng": 8.5411, "population": 7000}, {"name": "Wollerau", "lat": 47.19478, "lng": 8.71903, "population": 6883}, {"name": "Thalwil / Dorfkern", "lat": 47.29047, "lng": 8.56633, "population": 6829}, {"name": "Igis", "lat": 46.94531, "lng": 9.57218, "population": 6828}, {"name": "Aarburg", "lat": 47.32067, "lng": 7.89986, "population": 6828}, {"name": "Domat", "lat": 46.83483, "lng": 9.45075, "population": 6817}, {"name": "Zürich (Kreis 7) / Hirslanden", "lat": 47.3624, "lng": 8.56755, "population": 6769}, {"name": "Nidau", "lat": 47.12545, "lng": 7.24033, "population": 6696}, {"name": "Windisch", "lat": 47.47899, "lng": 8.21842, "population": 6689}, {"name": "Porrentruy", "lat": 47.41728, "lng": 7.07573, "population": 6675}, {"name": "Au", "lat": 47.43093, "lng": 9.63448, "population": 6673}, {"name": "Frutigen", "lat": 46.58723, "lng": 7.64945, "population": 6671}, {"name": "Ollon", "lat": 46.29524, "lng": 6.99314, "population": 6665}, {"name": "Minusio", "lat": 46.17769, "lng": 8.81473, "population": 6653}, {"name": "Zermatt", "lat": 46.01998, "lng": 7.74863, "population": 6629}, {"name": "Bagnes", "lat": 46.08333, "lng": 7.21667, "population": 6626}, {"name": "Saanen", "lat": 46.48945, "lng": 7.26003, "population": 6621}, {"name": "Crissier", "lat": 46.54586, "lng": 6.57567, "population": 6612}, {"name": "Buchs", "lat": 47.39358, "lng": 8.08233, "population": 6599}, {"name": "Gränichen", "lat": 47.3593, "lng": 8.10243, "population": 6557}, {"name": "Bremgarten", "lat": 47.35109, "lng": 8.34214, "population": 6543}, {"name": "Meggen", "lat": 47.04691, "lng": 8.37467, "population": 6533}, {"name": "Blécherette", "lat": 46.53932, "lng": 6.62227, "population": 6516}, {"name": "Kilchberg", "lat": 47.32438, "lng": 8.54548, "population": 6511}, {"name": "Sirnach", "lat": 47.46222, "lng": 8.99763, "population": 6463}, {"name": "Muri", "lat": 47.27428, "lng": 8.33854, "population": 6463}, {"name": "Dornach", "lat": 47.48038, "lng": 7.61644, "population": 6449}, {"name": "Thal", "lat": 47.46677, "lng": 9.56643, "population": 6433}, {"name": "Ruswil", "lat": 47.08425, "lng": 8.12645, "population": 6432}, {"name": "Grabs", "lat": 47.18248, "lng": 9.44395, "population": 6384}, {"name": "Viganello", "lat": 46.01342, "lng": 8.96879, "population": 6375}, {"name": "Untersiggenthal", "lat": 47.50213, "lng": 8.25554, "population": 6344}, {"name": "Trimbach", "lat": 47.36561, "lng": 7.8868, "population": 6220}, {"name": "Zürich (Kreis 1)", "lat": 47.37055, "lng": 8.54177, "population": 6185}, {"name": "Malters", "lat": 47.03628, "lng": 8.18193, "population": 6181}, {"name": "Frenkendorf", "lat": 47.50686, "lng": 7.71648, "population": 6180}, {"name": "Dietlikon / Dietlikon (Dorf)", "lat": 47.41827, "lng": 8.6188, "population": 6149}, {"name": "Horgen / Horgen (Dorfkern)", "lat": 47.25604, "lng": 8.60159, "population": 6140}, {"name": "Sargans", "lat": 47.04896, "lng": 9.44103, "population": 6134}, {"name": "Derendingen", "lat": 47.1985, "lng": 7.58844, "population": 6093}, {"name": "Bolligen", "lat": 46.9751, "lng": 7.49697, "population": 6086}, {"name": "Losone", "lat": 46.16866, "lng": 8.75928, "population": 6070}, {"name": "Neuenkirch", "lat": 47.09989, "lng": 8.20416, "population": 5963}, {"name": "Bex", "lat": 46.24965, "lng": 7.0098, "population": 5956}, {"name": "Mattenbach (Kreis 7) / Deutweg", "lat": 47.49419, "lng": 8.73948, "population": 5930}, {"name": "Collombey", "lat": 46.27385, "lng": 6.94789, "population": 5926}, {"name": "Fully", "lat": 46.13851, "lng": 7.11468, "population": 5922}, {"name": "Bottmingen", "lat": 47.52343, "lng": 7.57211, "population": 5912}, {"name": "Biasca", "lat": 46.35972, "lng": 8.96965, "population": 5885}, {"name": "Sissach", "lat": 47.46408, "lng": 7.80888, "population": 5873}, {"name": "Balsthal", "lat": 47.31613, "lng": 7.69318, "population": 5863}, {"name": "Zollikon", "lat": 47.34019, "lng": 8.57407, "population": 5812}, {"name": "Oberengstringen", "lat": 47.40841, "lng": 8.46515, "population": 5805}, {"name": "Murten/Morat", "lat": 46.92827, "lng": 7.11715, "population": 5800}, {"name": "Massagno", "lat": 46.01257, "lng": 8.94354, "population": 5774}, {"name": "Echallens", "lat": 46.6413, "lng": 6.63317, "population": 5740}, {"name": "Stäfa", "lat": 47.24254, "lng": 8.72342, "population": 5737}, {"name": "Les Avanchets", "lat": 46.22168, "lng": 6.10814, "population": 5730}, {"name": "Peseux", "lat": 46.98704, "lng": 6.88903, "population": 5716}, {"name": "Gelterkinden", "lat": 47.46497, "lng": 7.85174, "population": 5709}, {"name": "Teufen", "lat": 47.3908, "lng": 9.38644, "population": 5683}, {"name": "Uetendorf", "lat": 46.77392, "lng": 7.57251, "population": 5654}, {"name": "Appenzell", "lat": 47.33103, "lng": 9.40996, "population": 5649}, {"name": "Münchwilen", "lat": 47.47719, "lng": 8.99677, "population": 5623}, {"name": "Laufen", "lat": 47.42193, "lng": 7.49946, "population": 5618}, {"name": "Oberuzwil", "lat": 47.43076, "lng": 9.12724, "population": 5616}, {"name": "Pfäffikon / Pfäffikon (Dorfkern)", "lat": 47.36943, "lng": 8.78309, "population": 5595}, {"name": "Adligenswil", "lat": 47.06521, "lng": 8.36124, "population": 5576}, {"name": "Savièse", "lat": 46.25115, "lng": 7.34558, "population": 5575}, {"name": "Zürich (Kreis 8) / Mühlebach", "lat": 47.35727, "lng": 8.55744, "population": 5570}, {"name": "Uznach", "lat": 47.22421, "lng": 8.98263, "population": 5561}, {"name": "Buochs", "lat": 46.97398, "lng": 8.42279, "population": 5524}, {"name": "Herzogenbuchsee", "lat": 47.18795, "lng": 7.7062, "population": 5522}, {"name": "Heimberg", "lat": 46.79482, "lng": 7.60433, "population": 5501}, {"name": "Würenlos", "lat": 47.44205, "lng": 8.36261, "population": 5497}, {"name": "Villmergen", "lat": 47.35009, "lng": 8.24762, "population": 5489}, {"name": "Chavannes", "lat": 46.53005, "lng": 6.57068, "population": 5454}, {"name": "Hergiswil", "lat": 46.98429, "lng": 8.30944, "population": 5437}, {"name": "Menziken", "lat": 47.23965, "lng": 8.18996, "population": 5415}, {"name": "Basse-Nendaz", "lat": 46.18993, "lng": 7.31209, "population": 5410}, {"name": "Diepoldsau", "lat": 47.386, "lng": 9.65558, "population": 5401}, {"name": "Sankt Margrethen", "lat": 47.45253, "lng": 9.63741, "population": 5395}, {"name": "Oberwinterthur (Kreis 2) / Guggenbühl", "lat": 47.51339, "lng": 8.75998, "population": 5376}, {"name": "Oberwinterthur (Kreis 2) / Talacker", "lat": 47.50596, "lng": 8.7515, "population": 5375}, {"name": "Buchrain", "lat": 47.09625, "lng": 8.34729, "population": 5341}, {"name": "Kirchberg", "lat": 47.08538, "lng": 7.58288, "population": 5335}, {"name": "Goldau", "lat": 47.04761, "lng": 8.54616, "population": 5285}, {"name": "Altendorf", "lat": 47.18994, "lng": 8.83823, "population": 5280}, {"name": "Romont", "lat": 46.69652, "lng": 6.91898, "population": 5276}, {"name": "Le Mont-sur-Lausanne", "lat": 46.55815, "lng": 6.63145, "population": 5270}, {"name": "Urtenen", "lat": 47.02667, "lng": 7.50081, "population": 5258}, {"name": "Blonay", "lat": 46.46778, "lng": 6.89615, "population": 5244}, {"name": "Küttigen", "lat": 47.41484, "lng": 8.04979, "population": 5234}, {"name": "Saint-Imier", "lat": 47.15284, "lng": 6.99692, "population": 5220}, {"name": "Alpnach", "lat": 46.94227, "lng": 8.2718, "population": 5218}, {"name": "Kerns", "lat": 46.90121, "lng": 8.27514, "population": 5217}, {"name": "Zürich (Kreis 12) / Saatlen", "lat": 47.41127, "lng": 8.5648, "population": 5209}, {"name": "Sumiswald", "lat": 47.02747, "lng": 7.74526, "population": 5159}, {"name": "Unterseen", "lat": 46.6853, "lng": 7.84722, "population": 5150}, {"name": "Rümlang", "lat": 47.45041, "lng": 8.52993, "population": 5144}, {"name": "Orbe", "lat": 46.72504, "lng": 6.53069, "population": 5132}, {"name": "Uster / Ober-Uster", "lat": 47.34874, "lng": 8.73319, "population": 5100}, {"name": "Châtel-Saint-Denis", "lat": 46.52691, "lng": 6.90083, "population": 5094}, {"name": "Ascona", "lat": 46.15451, "lng": 8.77327, "population": 5084}, {"name": "Interlaken", "lat": 46.68387, "lng": 7.86638, "population": 5067}, {"name": "Bad Ragaz", "lat": 47.00601, "lng": 9.50266, "population": 5063}, {"name": "Estavayer-le-Lac", "lat": 46.84876, "lng": 6.8465, "population": 5061}, {"name": "Greifensee", "lat": 47.36717, "lng": 8.68115, "population": 5032}, {"name": "Wallisellen / Wallisellen-Ost", "lat": 47.41446, "lng": 8.59727, "population": 5031}, {"name": "Herrliberg", "lat": 47.29064, "lng": 8.61464, "population": 5025}, {"name": "Walenstadt", "lat": 47.12411, "lng": 9.31194, "population": 5000}, {"name": "Brig", "lat": 46.31667, "lng": 7.98333, "population": 5000}, {"name": "Zürich (Kreis 8) / Seefeld", "lat": 47.35462, "lng": 8.55537, "population": 4998}, {"name": "Ettingen", "lat": 47.48225, "lng": 7.54654, "population": 4980}, {"name": "St. Moritz", "lat": 46.49937, "lng": 9.84327, "population": 4952}, {"name": "Zürich (Kreis 8) / Weinegg", "lat": 47.3525, "lng": 8.57011, "population": 4951}, {"name": "Oetwil", "lat": 47.27049, "lng": 8.72023, "population": 4925}, {"name": "Flamatt", "lat": 46.88994, "lng": 7.32204, "population": 4922}, {"name": "Männedorf / Dorfkern", "lat": 47.25612, "lng": 8.69161, "population": 4893}, {"name": "Lausen", "lat": 47.47139, "lng": 7.7603, "population": 4892}, {"name": "Boudry", "lat": 46.94991, "lng": 6.83757, "population": 4886}, {"name": "Gerlafingen", "lat": 47.17087, "lng": 7.57249, "population": 4864}, {"name": "Schattdorf", "lat": 46.8655, "lng": 8.65465, "population": 4860}, {"name": "Ebnat-Kappel", "lat": 47.26195, "lng": 9.12473, "population": 4852}, {"name": "Flums", "lat": 47.09058, "lng": 9.34301, "population": 4848}, {"name": "Au", "lat": 47.24185, "lng": 8.64406, "population": 4844}, {"name": "Bettlach", "lat": 47.20062, "lng": 7.42405, "population": 4834}, {"name": "Birmensdorf", "lat": 47.35515, "lng": 8.44256, "population": 4772}, {"name": "Sennwald", "lat": 47.26063, "lng": 9.50268, "population": 4768}, {"name": "Veltheim (Kreis 5) / Rosenberg", "lat": 47.51386, "lng": 8.71583, "population": 4765}, {"name": "Langnau / Langnau (Dorf)", "lat": 47.28643, "lng": 8.53627, "population": 4745}, {"name": "Schönenwerd", "lat": 47.3691, "lng": 8.00167, "population": 4732}, {"name": "Préverenges", "lat": 46.51854, "lng": 6.52682, "population": 4695}, {"name": "Wangen", "lat": 47.34365, "lng": 7.86982, "population": 4686}, {"name": "Dielsdorf", "lat": 47.48146, "lng": 8.4585, "population": 4671}, {"name": "Rüschlikon", "lat": 47.30688, "lng": 8.55135, "population": 4653}, {"name": "Meiringen", "lat": 46.72709, "lng": 8.1872, "population": 4652}, {"name": "Huttwil", "lat": 47.11502, "lng": 7.86209, "population": 4643}, {"name": "Vechigen", "lat": 46.94616, "lng": 7.56065, "population": 4619}, {"name": "Stadt Winterthur (Kreis 1) / Lind", "lat": 47.50571, "lng": 8.73372, "population": 4617}, {"name": "Oensingen", "lat": 47.28764, "lng": 7.71612, "population": 4609}, {"name": "Frick", "lat": 47.51169, "lng": 8.02471, "population": 4583}, {"name": "Konolfingen", "lat": 46.87909, "lng": 7.62013, "population": 4562}, {"name": "Bubendorf", "lat": 47.44586, "lng": 7.73759, "population": 4543}, {"name": "Berikon", "lat": 47.35155, "lng": 8.37232, "population": 4527}, {"name": "Ehrendingen", "lat": 47.5025, "lng": 8.34729, "population": 4519}, {"name": "Erlenbach", "lat": 47.30298, "lng": 8.59743, "population": 4519}, {"name": "Sachseln", "lat": 46.86718, "lng": 8.23344, "population": 4511}, {"name": "Bronschhofen", "lat": 47.47835, "lng": 9.03454, "population": 4489}, {"name": "Stansstad", "lat": 46.9768, "lng": 8.33553, "population": 4471}, {"name": "Saint-Prex", "lat": 46.47963, "lng": 6.45992, "population": 4461}, {"name": "Kerzers", "lat": 46.97586, "lng": 7.1957, "population": 4459}, {"name": "Füllinsdorf", "lat": 47.50688, "lng": 7.73129, "population": 4442}, {"name": "Rolle", "lat": 46.4582, "lng": 6.33499, "population": 4425}, {"name": "Zumikon", "lat": 47.33158, "lng": 8.62271, "population": 4424}, {"name": "Oberrieden", "lat": 47.27444, "lng": 8.57838, "population": 4413}, {"name": "Cortaillod", "lat": 46.94306, "lng": 6.8444, "population": 4410}, {"name": "Seon", "lat": 47.34848, "lng": 8.16072, "population": 4407}, {"name": "Sevelen", "lat": 47.12213, "lng": 9.48601, "population": 4392}, {"name": "Wetzikon / Kempten", "lat": 47.33319, "lng": 8.80982, "population": 4377}, {"name": "Villeneuve", "lat": 46.39869, "lng": 6.92654, "population": 4349}, {"name": "Strengelbach", "lat": 47.27917, "lng": 7.92895, "population": 4349}, {"name": "Bad Zurzach", "lat": 47.58764, "lng": 8.29365, "population": 4344}, {"name": "Moudon", "lat": 46.66758, "lng": 6.79781, "population": 4343}, {"name": "Sigriswil", "lat": 46.71656, "lng": 7.71335, "population": 4341}, {"name": "Hägendorf", "lat": 47.33497, "lng": 7.84133, "population": 4338}, {"name": "Morbio Inferiore", "lat": 45.84915, "lng": 9.01907, "population": 4331}, {"name": "Wülflingen (Kreis 6) / Oberfeld", "lat": 47.49873, "lng": 8.69897, "population": 4288}, {"name": "Gossau", "lat": 47.3051, "lng": 8.75831, "population": 4287}, {"name": "Le Landeron", "lat": 47.05702, "lng": 7.07052, "population": 4278}, {"name": "Riviera", "lat": 46.13085, "lng": 8.71715, "population": 4262}, {"name": "Zuzwil", "lat": 47.47452, "lng": 9.11196, "population": 4226}, {"name": "Ennetbürgen", "lat": 46.98423, "lng": 8.41003, "population": 4226}, {"name": "Mellingen", "lat": 47.41903, "lng": 8.27331, "population": 4224}, {"name": "Sainte-Croix", "lat": 46.82203, "lng": 6.50283, "population": 4214}, {"name": "Feusisberg", "lat": 47.18707, "lng": 8.74724, "population": 4210}, {"name": "Triengen", "lat": 47.23573, "lng": 8.07652, "population": 4193}, {"name": "Zollikerberg", "lat": 47.3451, "lng": 8.60088, "population": 4187}, {"name": "Tramelan", "lat": 47.22298, "lng": 7.10287, "population": 4186}, {"name": "Engelberg", "lat": 46.82107, "lng": 8.40133, "population": 4181}, {"name": "Schwerzenbach", "lat": 47.38213, "lng": 8.65727, "population": 4180}, {"name": "Egnach", "lat": 47.54268, "lng": 9.38048, "population": 4179}, {"name": "Aarwangen", "lat": 47.23845, "lng": 7.76854, "population": 4171}, {"name": "Rebstein", "lat": 47.39812, "lng": 9.58503, "population": 4163}, {"name": "Dietikon / Oberdorf", "lat": 47.40065, "lng": 8.39416, "population": 4147}, {"name": "Vétroz", "lat": 46.22171, "lng": 7.27858, "population": 4137}, {"name": "Rupperswil", "lat": 47.40131, "lng": 8.12877, "population": 4137}, {"name": "Veltheim (Kreis 5) / Blumenau", "lat": 47.50618, "lng": 8.71563, "population": 4135}, {"name": "Uster / Nieder-Uster", "lat": 47.34743, "lng": 8.70088, "population": 4128}, {"name": "Thayngen", "lat": 47.74717, "lng": 8.70724, "population": 4120}, {"name": "Gebenstorf", "lat": 47.48136, "lng": 8.23949, "population": 4100}, {"name": "Seen (Kreis 3) / Waser", "lat": 47.48913, "lng": 8.76034, "population": 4088}, {"name": "Marin-Epagnier", "lat": 47.01017, "lng": 6.99941, "population": 4087}, {"name": "Le Chenit", "lat": 46.60688, "lng": 6.23062, "population": 4062}, {"name": "Kölliken", "lat": 47.33337, "lng": 8.02237, "population": 4059}, {"name": "Wängi", "lat": 47.49654, "lng": 8.95325, "population": 4051}, {"name": "Wolhusen", "lat": 47.05983, "lng": 8.07389, "population": 4050}, {"name": "Klosters Serneus", "lat": 46.88918, "lng": 9.83826, "population": 4044}, {"name": "Schmitten", "lat": 46.8575, "lng": 7.25031, "population": 4040}, {"name": "Obfelden", "lat": 47.26413, "lng": 8.4215, "population": 4039}, {"name": "Lützelflüh", "lat": 47.00757, "lng": 7.69165, "population": 4035}, {"name": "Jegenstorf", "lat": 47.04802, "lng": 7.50787, "population": 4027}, {"name": "Niederlenz", "lat": 47.40079, "lng": 8.1764, "population": 4022}, {"name": "Balgach", "lat": 47.40556, "lng": 9.60702, "population": 4019}, {"name": "Oberrohrdorf", "lat": 47.41833, "lng": 8.31983, "population": 4001}, {"name": "Heiden", "lat": 47.44255, "lng": 9.53293, "population": 3999}, {"name": "Bürglen", "lat": 46.87565, "lng": 8.66539, "population": 3996}, {"name": "Speicher", "lat": 47.4109, "lng": 9.44335, "population": 3985}, {"name": "Näfels", "lat": 47.09775, "lng": 9.06361, "population": 3978}, {"name": "Gordola", "lat": 46.18256, "lng": 8.86657, "population": 3974}, {"name": "Seuzach Dorf", "lat": 47.5356, "lng": 8.73209, "population": 3969}, {"name": "Cheseaux", "lat": 46.58624, "lng": 6.60587, "population": 3946}, {"name": "Reiden", "lat": 47.24719, "lng": 7.97135, "population": 3926}, {"name": "Stabio", "lat": 45.84846, "lng": 8.93642, "population": 3917}, {"name": "Aarberg", "lat": 47.04439, "lng": 7.27578, "population": 3911}, {"name": "Zürich (Kreis 4) / Werd", "lat": 47.37178, "lng": 8.52584, "population": 3911}, {"name": "Root", "lat": 47.11458, "lng": 8.39021, "population": 3886}, {"name": "Birr", "lat": 47.43432, "lng": 8.20891, "population": 3884}, {"name": "Menzingen", "lat": 47.17764, "lng": 8.59215, "population": 3878}, {"name": "Erstfeld", "lat": 46.81885, "lng": 8.65052, "population": 3876}, {"name": "Troistorrents", "lat": 46.2289, "lng": 6.91589, "population": 3873}, {"name": "Brügg", "lat": 47.1237, "lng": 7.27887, "population": 3868}, {"name": "Bevaix", "lat": 46.92958, "lng": 6.8147, "population": 3866}, {"name": "Weggis", "lat": 47.03208, "lng": 8.43219, "population": 3863}, {"name": "Niederbipp", "lat": 47.27175, "lng": 7.69583, "population": 3862}, {"name": "Wetzikon / Ober-Wetzikon", "lat": 47.32514, "lng": 8.80005, "population": 3858}, {"name": "Niedergösgen", "lat": 47.37157, "lng": 7.98837, "population": 3847}, {"name": "Wichtrach", "lat": 46.8501, "lng": 7.57748, "population": 3843}, {"name": "Hilterfingen", "lat": 46.73521, "lng": 7.66185, "population": 3841}, {"name": "Horgen / Allmend", "lat": 47.24729, "lng": 8.6066, "population": 3809}, {"name": "Kaltbrunn", "lat": 47.21367, "lng": 9.0259, "population": 3803}, {"name": "Degersheim", "lat": 47.37429, "lng": 9.20019, "population": 3802}, {"name": "Rudolfstetten", "lat": 47.37101, "lng": 8.38083, "population": 3800}, {"name": "Fehraltorf", "lat": 47.38775, "lng": 8.75149, "population": 3767}, {"name": "Sempach", "lat": 47.13577, "lng": 8.19149, "population": 3754}, {"name": "Lostorf", "lat": 47.38372, "lng": 7.94655, "population": 3749}, {"name": "Würenlingen", "lat": 47.53356, "lng": 8.25666, "population": 3741}, {"name": "Brittnau", "lat": 47.25954, "lng": 7.94689, "population": 3735}, {"name": "Feldmeilen", "lat": 47.27873, "lng": 8.62165, "population": 3732}, {"name": "Grindelwald", "lat": 46.62396, "lng": 8.03601, "population": 3730}, {"name": "Schüpfheim", "lat": 46.95161, "lng": 8.01723, "population": 3723}, {"name": "Saint-Maurice", "lat": 46.21826, "lng": 7.0032, "population": 3701}, {"name": "Brüttisellen", "lat": 47.42173, "lng": 8.63263, "population": 3697}, {"name": "La Tour-de-Trême", "lat": 46.61061, "lng": 7.06496, "population": 3686}, {"name": "Fleurier", "lat": 46.90224, "lng": 6.58253, "population": 3681}, {"name": "Geroldswil", "lat": 47.42213, "lng": 8.41085, "population": 3681}, {"name": "Matten", "lat": 46.67833, "lng": 7.86889, "population": 3676}, {"name": "Bellevue", "lat": 46.25739, "lng": 6.15475, "population": 3674}, {"name": "Roggwil", "lat": 47.24119, "lng": 7.82141, "population": 3673}, {"name": "Niederurnen", "lat": 47.12598, "lng": 9.05428, "population": 3657}, {"name": "Caslano", "lat": 45.97364, "lng": 8.87739, "population": 3655}, {"name": "Agno", "lat": 45.99863, "lng": 8.9003, "population": 3639}, {"name": "Kehrsatz", "lat": 46.91035, "lng": 7.47096, "population": 3636}, {"name": "Laufenburg", "lat": 47.55985, "lng": 8.06225, "population": 3632}, {"name": "Niederglatt", "lat": 47.49066, "lng": 8.49987, "population": 3632}, {"name": "Töss (Kreis 4) / Eichliacker", "lat": 47.48727, "lng": 8.7074, "population": 3626}, {"name": "Utzenstorf", "lat": 47.13248, "lng": 7.55355, "population": 3625}, {"name": "Rüti / Dorfzentrum, Südl. Teil", "lat": 47.25368, "lng": 8.85654, "population": 3618}, {"name": "Wettswil / Wettswil (Dorf)", "lat": 47.34152, "lng": 8.47149, "population": 3605}, {"name": "Sins", "lat": 47.19296, "lng": 8.39384, "population": 3600}, {"name": "Kaiseraugst", "lat": 47.53966, "lng": 7.72605, "population": 3600}, {"name": "Oberglatt", "lat": 47.47576, "lng": 8.51896, "population": 3564}, {"name": "Giswil", "lat": 46.83333, "lng": 8.18065, "population": 3563}, {"name": "Muotathal", "lat": 46.97676, "lng": 8.76499, "population": 3548}, {"name": "Adelboden", "lat": 46.49142, "lng": 7.56031, "population": 3541}, {"name": "Rümlang / Rümlang (Dorfkern)", "lat": 47.4494, "lng": 8.53255, "population": 3528}, {"name": "Langendorf", "lat": 47.21974, "lng": 7.51469, "population": 3518}, {"name": "Wallisellen / Wallisellen-West", "lat": 47.41906, "lng": 8.58586, "population": 3511}, {"name": "Ibach", "lat": 47.01105, "lng": 8.64538, "population": 3500}, {"name": "Lens", "lat": 46.28298, "lng": 7.44976, "population": 3497}, {"name": "Mörschwil", "lat": 47.47097, "lng": 9.42278, "population": 3496}, {"name": "La Neuveville", "lat": 47.06592, "lng": 7.09717, "population": 3495}, {"name": "Saxon", "lat": 46.14937, "lng": 7.17514, "population": 3477}, {"name": "Balerna", "lat": 45.84638, "lng": 9.00724, "population": 3456}, {"name": "Savigny", "lat": 46.53844, "lng": 6.73222, "population": 3440}, {"name": "Magden", "lat": 47.52868, "lng": 7.81128, "population": 3433}, {"name": "Uetikon", "lat": 47.26441, "lng": 8.67925, "population": 3431}, {"name": "Poschiavo", "lat": 46.32441, "lng": 10.05823, "population": 3428}, {"name": "Eschlikon", "lat": 47.46361, "lng": 8.96381, "population": 3425}, {"name": "Confignon", "lat": 46.17341, "lng": 6.08437, "population": 3425}, {"name": "Muhen", "lat": 47.33578, "lng": 8.05536, "population": 3419}, {"name": "Tägerwilen", "lat": 47.65698, "lng": 9.13999, "population": 3414}, {"name": "Schänis", "lat": 47.15995, "lng": 9.04549, "population": 3404}, {"name": "Bütschwil", "lat": 47.36022, "lng": 9.07213, "population": 3393}, {"name": "Leuk", "lat": 46.31736, "lng": 7.63412, "population": 3386}, {"name": "Tavannes", "lat": 47.22079, "lng": 7.19759, "population": 3367}, {"name": "Sulgen", "lat": 47.53967, "lng": 9.18585, "population": 3367}, {"name": "Zürich (Kreis 10) / Rütihof", "lat": 47.41444, "lng": 8.47928, "population": 3326}, {"name": "Pieterlen", "lat": 47.17501, "lng": 7.33791, "population": 3317}, {"name": "Schöftland", "lat": 47.3059, "lng": 8.05119, "population": 3310}, {"name": "Schmerikon", "lat": 47.22538, "lng": 8.94836, "population": 3307}, {"name": "Bassecourt", "lat": 47.33808, "lng": 7.24373, "population": 3305}, {"name": "Dagmersellen", "lat": 47.21405, "lng": 7.98519, "population": 3300}, {"name": "Rheineck", "lat": 47.4663, "lng": 9.59028, "population": 3298}, {"name": "Vouvry", "lat": 46.33746, "lng": 6.8895, "population": 3296}, {"name": "Entlebuch", "lat": 46.99559, "lng": 8.06354, "population": 3293}, {"name": "Luterbach", "lat": 47.21426, "lng": 7.58463, "population": 3292}, {"name": "Richterswil / Richterswil (Dorfkern)", "lat": 47.20323, "lng": 8.70516, "population": 3292}, {"name": "Seengen", "lat": 47.32503, "lng": 8.20724, "population": 3288}, {"name": "Uitikon", "lat": 47.36911, "lng": 8.45699, "population": 3282}, {"name": "Elgg", "lat": 47.49715, "lng": 8.86523, "population": 3282}, {"name": "Walchwil", "lat": 47.10169, "lng": 8.51693, "population": 3268}, {"name": "Hausen am Albis / Hausen (Dorf)", "lat": 47.24496, "lng": 8.53299, "population": 3253}, {"name": "Hegnau / Sunnebüel-Eich", "lat": 47.39246, "lng": 8.6791, "population": 3250}, {"name": "Schüpfen", "lat": 47.03661, "lng": 7.37723, "population": 3248}, {"name": "Ayent", "lat": 46.28249, "lng": 7.41028, "population": 3243}, {"name": "Breitenbach", "lat": 47.40668, "lng": 7.54554, "population": 3241}, {"name": "Gachnang", "lat": 47.53935, "lng": 8.85311, "population": 3235}, {"name": "Rafz", "lat": 47.60438, "lng": 8.54305, "population": 3233}, {"name": "Schötz", "lat": 47.16896, "lng": 7.9887, "population": 3231}, {"name": "Steckborn", "lat": 47.66667, "lng": 8.98333, "population": 3229}, {"name": "Oberkirch", "lat": 47.15642, "lng": 8.11567, "population": 3228}, {"name": "Küsnacht / Heslibach", "lat": 47.31307, "lng": 8.58849, "population": 3228}, {"name": "Stein am Rhein", "lat": 47.65933, "lng": 8.85964, "population": 3224}, {"name": "Jonschwil", "lat": 47.42402, "lng": 9.08689, "population": 3221}, {"name": "Beringen", "lat": 47.69763, "lng": 8.57431, "population": 3216}, {"name": "Safenwil", "lat": 47.32163, "lng": 7.98254, "population": 3201}, {"name": "Escholzmatt", "lat": 46.9135, "lng": 7.93426, "population": 3192}, {"name": "Schindellegi", "lat": 47.1746, "lng": 8.71345, "population": 3174}, {"name": "Prangins", "lat": 46.39518, "lng": 6.2496, "population": 3172}, {"name": "Neftenbach / Dorf Neftenbach", "lat": 47.52764, "lng": 8.6649, "population": 3171}, {"name": "Samstagern", "lat": 47.19167, "lng": 8.68196, "population": 3163}, {"name": "Randogne", "lat": 46.30952, "lng": 7.50058, "population": 3157}, {"name": "Hermiswil", "lat": 46.83125, "lng": 7.47775, "population": 3156}, {"name": "Bürglen", "lat": 47.54921, "lng": 9.1495, "population": 3149}, {"name": "Stadt Winterthur (Kreis 1) / Neuwiesen", "lat": 47.50207, "lng": 8.71625, "population": 3149}, {"name": "Waldkirch", "lat": 47.46859, "lng": 9.28665, "population": 3137}, {"name": "Dottikon", "lat": 47.38437, "lng": 8.23981, "population": 3125}, {"name": "Romanel-sur-Lausanne", "lat": 46.56403, "lng": 6.60538, "population": 3123}, {"name": "Bösingen", "lat": 46.89229, "lng": 7.2277, "population": 3118}, {"name": "Turbenthal", "lat": 47.43633, "lng": 8.84629, "population": 3109}, {"name": "Gipf-Oberfrick", "lat": 47.49875, "lng": 8.00497, "population": 3102}, {"name": "Unterkulm", "lat": 47.30998, "lng": 8.11371, "population": 3099}, {"name": "Vallorbe", "lat": 46.71256, "lng": 6.37894, "population": 3098}, {"name": "Zürich (Kreis 1) / Rathaus", "lat": 47.37161, "lng": 8.54501, "population": 3091}, {"name": "Brienz", "lat": 46.7545, "lng": 8.03847, "population": 3090}, {"name": "Saint-Blaise", "lat": 47.01511, "lng": 6.98832, "population": 3089}, {"name": "Courroux", "lat": 47.36069, "lng": 7.37371, "population": 3085}, {"name": "Rüti / Westlicher Dorfteil", "lat": 47.25548, "lng": 8.8449, "population": 3083}, {"name": "Klingnau", "lat": 47.58361, "lng": 8.2488, "population": 3069}, {"name": "Leysin", "lat": 46.34183, "lng": 7.01151, "population": 3066}, {"name": "Wald", "lat": 47.27595, "lng": 8.91405, "population": 3061}, {"name": "Erlen", "lat": 47.54814, "lng": 9.23415, "population": 3057}, {"name": "Satigny", "lat": 46.21462, "lng": 6.03553, "population": 3055}, {"name": "Beckenried", "lat": 46.96653, "lng": 8.47575, "population": 3050}, {"name": "Murgenthal", "lat": 47.27145, "lng": 7.83935, "population": 3044}, {"name": "Steinen", "lat": 47.04975, "lng": 8.61214, "population": 3041}, {"name": "Tann", "lat": 47.26898, "lng": 8.85024, "population": 3034}, {"name": "Château-d'Oex", "lat": 46.47455, "lng": 7.13155, "population": 3034}, {"name": "Stadt Winterthur (Kreis 1) / Heiligberg", "lat": 47.49409, "lng": 8.72334, "population": 3034}, {"name": "Mollis", "lat": 47.08878, "lng": 9.07242, "population": 3014}, {"name": "Givisiez", "lat": 46.81201, "lng": 7.12639, "population": 3010}, {"name": "Zizers", "lat": 46.93575, "lng": 9.56491, "population": 3009}, {"name": "Belmont-sur-Lausanne", "lat": 46.51891, "lng": 6.67636, "population": 3007}, {"name": "Bachenbülach", "lat": 47.50317, "lng": 8.54556, "population": 2985}, {"name": "Turgi", "lat": 47.49201, "lng": 8.25412, "population": 2982}, {"name": "Gams", "lat": 47.20429, "lng": 9.44172, "population": 2971}, {"name": "Illnau", "lat": 47.4113, "lng": 8.72125, "population": 2964}, {"name": "Embrach / Embrach (Dorfkern)", "lat": 47.504, "lng": 8.59477, "population": 2960}, {"name": "Berg", "lat": 47.57879, "lng": 9.16635, "population": 2942}, {"name": "Grosswangen", "lat": 47.1331, "lng": 8.05041, "population": 2941}, {"name": "Mosnang", "lat": 47.36252, "lng": 9.04296, "population": 2936}, {"name": "Egerkingen", "lat": 47.31957, "lng": 7.78424, "population": 2923}, {"name": "Mattenbach (Kreis 7) / Gutschick", "lat": 47.49104, "lng": 8.75258, "population": 2923}, {"name": "Seedorf", "lat": 47.03445, "lng": 7.31249, "population": 2920}, {"name": "Nottwil", "lat": 47.13469, "lng": 8.13774, "population": 2911}, {"name": "Oberburg", "lat": 47.03665, "lng": 7.62745, "population": 2901}, {"name": "Selzach", "lat": 47.20531, "lng": 7.45521, "population": 2900}, {"name": "Netstal", "lat": 47.06337, "lng": 9.05734, "population": 2900}, {"name": "Buttisholz", "lat": 47.11442, "lng": 8.09425, "population": 2890}, {"name": "Stettlen", "lat": 46.95835, "lng": 7.52508, "population": 2884}, {"name": "Hausen", "lat": 47.46396, "lng": 8.20988, "population": 2881}, {"name": "Reichenburg", "lat": 47.17097, "lng": 8.97704, "population": 2876}, {"name": "Beromünster", "lat": 47.20612, "lng": 8.19265, "population": 2876}, {"name": "Rüti / Oberdorf", "lat": 47.25894, "lng": 8.86512, "population": 2875}, {"name": "Obermeilen", "lat": 47.26574, "lng": 8.65567, "population": 2871}, {"name": "Oberdiessbach", "lat": 46.84117, "lng": 7.6173, "population": 2860}, {"name": "Subingen", "lat": 47.19852, "lng": 7.61949, "population": 2852}, {"name": "Rohr", "lat": 47.41029, "lng": 7.95333, "population": 2849}, {"name": "Niederhasli", "lat": 47.48012, "lng": 8.48576, "population": 2848}, {"name": "Chavornay", "lat": 46.70244, "lng": 6.5694, "population": 2841}, {"name": "Hedingen", "lat": 47.29794, "lng": 8.44833, "population": 2835}, {"name": "Tafers", "lat": 46.81483, "lng": 7.21852, "population": 2833}, {"name": "Trimmis", "lat": 46.90075, "lng": 9.5612, "population": 2831}, {"name": "Vandœuvres", "lat": 46.22179, "lng": 6.20285, "population": 2826}, {"name": "Ins", "lat": 47.00584, "lng": 7.10609, "population": 2826}, {"name": "Dietikon / Hofacker", "lat": 47.39718, "lng": 8.41609, "population": 2826}, {"name": "Signau", "lat": 46.91944, "lng": 7.72418, "population": 2821}, {"name": "Muralto", "lat": 46.17323, "lng": 8.80219, "population": 2818}, {"name": "Hegnau / Dammboden-Grindel", "lat": 47.38713, "lng": 8.66657, "population": 2817}, {"name": "Zweisimmen", "lat": 46.55539, "lng": 7.37302, "population": 2813}, {"name": "Couvet", "lat": 46.92525, "lng": 6.6327, "population": 2811}, {"name": "Grossaffoltern", "lat": 47.06534, "lng": 7.35689, "population": 2810}, {"name": "Mettmenstetten", "lat": 47.24529, "lng": 8.46347, "population": 2798}, {"name": "Cossonay", "lat": 46.61443, "lng": 6.50631, "population": 2795}, {"name": "Wattenwil", "lat": 46.76973, "lng": 7.50835, "population": 2788}, {"name": "Niederrohrdorf", "lat": 47.42409, "lng": 8.30404, "population": 2784}, {"name": "Gommiswald", "lat": 47.23128, "lng": 9.02355, "population": 2781}, {"name": "Mönchaltorf", "lat": 47.30958, "lng": 8.72029, "population": 2779}, {"name": "Gais", "lat": 47.3615, "lng": 9.45356, "population": 2778}, {"name": "Zürich (Kreis 2) / Unter-Leimbach", "lat": 47.33362, "lng": 8.51433, "population": 2778}, {"name": "Laupen", "lat": 46.90214, "lng": 7.23973, "population": 2774}, {"name": "Chermignon-d'en Haut", "lat": 46.28844, "lng": 7.47487, "population": 2773}, {"name": "Töss (Kreis 4) / Schlosstal", "lat": 47.49279, "lng": 8.70223, "population": 2762}, {"name": "Schafisheim", "lat": 47.37664, "lng": 8.14263, "population": 2758}, {"name": "Avenches", "lat": 46.88004, "lng": 7.04071, "population": 2758}, {"name": "Bätterkinden", "lat": 47.13164, "lng": 7.53817, "population": 2748}, {"name": "Mühleberg", "lat": 46.95466, "lng": 7.26102, "population": 2739}, {"name": "Grandson", "lat": 46.80946, "lng": 6.646, "population": 2735}, {"name": "Orsières", "lat": 46.02903, "lng": 7.14437, "population": 2725}, {"name": "Volketswil / Volketswil (Dorf)", "lat": 47.39016, "lng": 8.69085, "population": 2723}, {"name": "Quarten", "lat": 47.107, "lng": 9.24199, "population": 2715}, {"name": "Rickenbach bei Wil", "lat": 47.44856, "lng": 9.04902, "population": 2714}, {"name": "Wädenswil / Büelen", "lat": 47.23395, "lng": 8.66346, "population": 2710}, {"name": "Anières", "lat": 46.27673, "lng": 6.22204, "population": 2706}, {"name": "Aubonne", "lat": 46.49514, "lng": 6.39155, "population": 2703}, {"name": "Samedan", "lat": 46.53399, "lng": 9.87276, "population": 2700}, {"name": "Lauperswil", "lat": 46.96564, "lng": 7.74214, "population": 2700}, {"name": "Ennenda", "lat": 47.03363, "lng": 9.07888, "population": 2699}, {"name": "Sementina", "lat": 46.18363, "lng": 8.99162, "population": 2695}, {"name": "Horgen / Scheller-Stockerstrasse", "lat": 47.26584, "lng": 8.5876, "population": 2690}, {"name": "Unterengstringen", "lat": 47.41396, "lng": 8.44761, "population": 2675}, {"name": "Tuggen", "lat": 47.20291, "lng": 8.94896, "population": 2671}, {"name": "Niederhelfenschwil", "lat": 47.47487, "lng": 9.18543, "population": 2668}, {"name": "Chalais", "lat": 46.26758, "lng": 7.51145, "population": 2665}, {"name": "Chardonne", "lat": 46.47676, "lng": 6.8268, "population": 2659}, {"name": "Bonaduz", "lat": 46.81103, "lng": 9.39821, "population": 2654}, {"name": "Lauterbrunnen", "lat": 46.59307, "lng": 7.90938, "population": 2646}, {"name": "Glattbrugg", "lat": 47.4313, "lng": 8.56272, "population": 2642}, {"name": "Zunzgen", "lat": 47.44925, "lng": 7.80789, "population": 2632}, {"name": "Effretikon / Watt", "lat": 47.42797, "lng": 8.69822, "population": 2632}, {"name": "Seen (Kreis 3) / Büelwiesen", "lat": 47.48446, "lng": 8.76517, "population": 2632}, {"name": "Menznau", "lat": 47.08364, "lng": 8.03971, "population": 2628}, {"name": "Chamoson", "lat": 46.20275, "lng": 7.22319, "population": 2628}, {"name": "Dietikon / Vorstadt", "lat": 47.40819, "lng": 8.39719, "population": 2619}, {"name": "Schenkon", "lat": 47.17765, "lng": 8.13204, "population": 2616}, {"name": "Lenzerheide", "lat": 46.72215, "lng": 9.55905, "population": 2610}, {"name": "Küsnacht / Goldbach", "lat": 47.32729, "lng": 8.58077, "population": 2607}, {"name": "Wülflingen (Kreis 6) / Härti", "lat": 47.51262, "lng": 8.684, "population": 2602}, {"name": "Märstetten-Dorf", "lat": 47.59252, "lng": 9.06851, "population": 2600}, {"name": "Schlieren / Spital", "lat": 47.39489, "lng": 8.43027, "population": 2587}, {"name": "Glattfelden", "lat": 47.55871, "lng": 8.50167, "population": 2578}, {"name": "Thusis", "lat": 46.69724, "lng": 9.43938, "population": 2572}, {"name": "Au / Mittel-Dorf", "lat": 47.24303, "lng": 8.64591, "population": 2562}, {"name": "Eggiwil", "lat": 46.87575, "lng": 7.79567, "population": 2559}, {"name": "Wädenswil / Dorf (Wädenswil)", "lat": 47.22923, "lng": 8.6722, "population": 2556}, {"name": "Wülflingen (Kreis 6) / Lindenplatz", "lat": 47.51098, "lng": 8.6929, "population": 2555}, {"name": "Kirchlindach", "lat": 46.99965, "lng": 7.41735, "population": 2553}, {"name": "Fischingen", "lat": 47.41422, "lng": 8.96862, "population": 2548}, {"name": "Schwanden", "lat": 46.99541, "lng": 9.0701, "population": 2541}, {"name": "Adliswil / Adliswil (Stadtkern)", "lat": 47.31128, "lng": 8.52675, "population": 2538}, {"name": "Flims", "lat": 46.83705, "lng": 9.28458, "population": 2536}, {"name": "Horgen / Oberdorf", "lat": 47.25837, "lng": 8.59013, "population": 2524}, {"name": "Wetzikon / Unter-Wetzikon", "lat": 47.31637, "lng": 8.79369, "population": 2521}, {"name": "Ringgenberg", "lat": 46.70114, "lng": 7.89445, "population": 2514}, {"name": "Kloten / Rütlen", "lat": 47.44726, "lng": 8.58808, "population": 2510}, {"name": "Stein", "lat": 47.54403, "lng": 7.95256, "population": 2504}, {"name": "Villars-sur-Ollon", "lat": 46.29832, "lng": 7.05631, "population": 2500}, {"name": "Roggwil", "lat": 47.49981, "lng": 9.3958, "population": 2500}, {"name": "Müllheim", "lat": 47.60195, "lng": 9.00357, "population": 2493}, {"name": "Täuffelen", "lat": 47.0663, "lng": 7.19883, "population": 2492}, {"name": "Orpund", "lat": 47.13891, "lng": 7.30775, "population": 2488}, {"name": "Merenschwand", "lat": 47.25944, "lng": 8.37633, "population": 2479}, {"name": "Saint-Aubin-Sauges", "lat": 46.89419, "lng": 6.77251, "population": 2476}, {"name": "Birmenstorf", "lat": 47.46152, "lng": 8.24816, "population": 2462}, {"name": "Münsterlingen", "lat": 47.63197, "lng": 9.23271, "population": 2459}, {"name": "Meisterschwanden", "lat": 47.29489, "lng": 8.22867, "population": 2459}, {"name": "Ermatingen", "lat": 47.67057, "lng": 9.08573, "population": 2453}, {"name": "Maienfeld", "lat": 47.00472, "lng": 9.53115, "population": 2435}, {"name": "Rubigen", "lat": 46.89868, "lng": 7.5446, "population": 2426}, {"name": "Staufen", "lat": 47.38197, "lng": 8.16681, "population": 2424}, {"name": "Schiers", "lat": 46.96973, "lng": 9.6872, "population": 2423}, {"name": "Benken", "lat": 47.19942, "lng": 9.00735, "population": 2419}, {"name": "Russikon", "lat": 47.39669, "lng": 8.77515, "population": 2415}, {"name": "Wolfhausen", "lat": 47.25619, "lng": 8.7991, "population": 2402}, {"name": "Yvonand", "lat": 46.80034, "lng": 6.74249, "population": 2401}, {"name": "Matzingen", "lat": 47.51957, "lng": 8.93365, "population": 2399}, {"name": "Puidoux", "lat": 46.50093, "lng": 6.78249, "population": 2398}, {"name": "Küsnacht / Itschnach", "lat": 47.32714, "lng": 8.60068, "population": 2397}, {"name": "Novazzano", "lat": 45.84073, "lng": 8.98236, "population": 2395}, {"name": "Lotzwil", "lat": 47.19135, "lng": 7.79102, "population": 2391}, {"name": "Riva San Vitale", "lat": 45.90123, "lng": 8.97167, "population": 2390}, {"name": "Attalens", "lat": 46.50555, "lng": 6.85039, "population": 2380}, {"name": "Pfungen", "lat": 47.51394, "lng": 8.6423, "population": 2369}, {"name": "Seen (Kreis 3) / Ganzenbühl", "lat": 47.481, "lng": 8.76249, "population": 2362}, {"name": "Camorino", "lat": 46.16483, "lng": 9.00547, "population": 2358}, {"name": "Domdidier", "lat": 46.86716, "lng": 7.01337, "population": 2353}, {"name": "Sankt Niklaus", "lat": 46.17717, "lng": 7.80349, "population": 2352}, {"name": "Elgg / Städtchen und Umgebung", "lat": 47.49265, "lng": 8.8668, "population": 2342}, {"name": "Krauchthal", "lat": 47.00964, "lng": 7.5664, "population": 2339}, {"name": "Monte Carasso", "lat": 46.18649, "lng": 8.99892, "population": 2336}, {"name": "Grimisuat", "lat": 46.25938, "lng": 7.38408, "population": 2332}, {"name": "Rüderswil", "lat": 46.98374, "lng": 7.72167, "population": 2329}, {"name": "Evilard", "lat": 47.15046, "lng": 7.23895, "population": 2328}, {"name": "Sarmenstorf", "lat": 47.31109, "lng": 8.2495, "population": 2322}, {"name": "Ilanz", "lat": 46.77413, "lng": 9.20461, "population": 2321}, {"name": "Courrendlin", "lat": 47.33853, "lng": 7.37243, "population": 2314}, {"name": "Nürensdorf", "lat": 47.44814, "lng": 8.64908, "population": 2310}, {"name": "Unteriberg", "lat": 47.06258, "lng": 8.8052, "population": 2307}, {"name": "Arosa", "lat": 46.77793, "lng": 9.67621, "population": 2307}, {"name": "Ardon", "lat": 46.20951, "lng": 7.26012, "population": 2305}, {"name": "Urnäsch", "lat": 47.31669, "lng": 9.2795, "population": 2304}, {"name": "Wilderswil", "lat": 46.66369, "lng": 7.86175, "population": 2303}, {"name": "Untervaz", "lat": 46.9275, "lng": 9.53422, "population": 2303}, {"name": "Montana", "lat": 46.31338, "lng": 7.48839, "population": 2301}, {"name": "Montagnola", "lat": 45.98323, "lng": 8.91786, "population": 2297}, {"name": "Claro", "lat": 46.25763, "lng": 9.02252, "population": 2296}, {"name": "Reconvilier", "lat": 47.23431, "lng": 7.22239, "population": 2291}, {"name": "Neunkirch", "lat": 47.69012, "lng": 8.49981, "population": 2289}, {"name": "Belfaux", "lat": 46.82171, "lng": 7.10674, "population": 2286}, {"name": "Ballwil", "lat": 47.15371, "lng": 8.32233, "population": 2284}, {"name": "Ebmatingen", "lat": 47.34987, "lng": 8.64013, "population": 2278}, {"name": "Toffen", "lat": 46.86031, "lng": 7.49216, "population": 2277}, {"name": "Horn", "lat": 47.49425, "lng": 9.46246, "population": 2274}, {"name": "Lenk", "lat": 46.45826, "lng": 7.44298, "population": 2268}, {"name": "Othmarsingen", "lat": 47.40125, "lng": 8.21383, "population": 2267}, {"name": "Wallisellen / Rieden", "lat": 47.41738, "lng": 8.60028, "population": 2261}, {"name": "Bonstetten", "lat": 47.31505, "lng": 8.46836, "population": 2260}, {"name": "Erlinsbach", "lat": 47.39753, "lng": 8.00797, "population": 2258}, {"name": "Founex", "lat": 46.33277, "lng": 6.19243, "population": 2254}, {"name": "Udligenswil", "lat": 47.09005, "lng": 8.40335, "population": 2252}, {"name": "Hölstein", "lat": 47.4229, "lng": 7.77041, "population": 2249}, {"name": "Oberdorf", "lat": 47.39353, "lng": 7.75169, "population": 2248}, {"name": "Courtételle", "lat": 47.34074, "lng": 7.31827, "population": 2248}, {"name": "Kilchberg / Kilchberg (Dorfkern)", "lat": 47.32012, "lng": 8.54306, "population": 2244}, {"name": "Silenen", "lat": 46.7891, "lng": 8.67325, "population": 2243}, {"name": "Penthalaz", "lat": 46.61077, "lng": 6.52519, "population": 2241}, {"name": "Nebikon", "lat": 47.19185, "lng": 7.97769, "population": 2241}, {"name": "Kloten / Holberg", "lat": 47.44642, "lng": 8.57661, "population": 2239}, {"name": "Wimmis", "lat": 46.67587, "lng": 7.63972, "population": 2237}, {"name": "Bönigen", "lat": 46.68736, "lng": 7.8935, "population": 2233}, {"name": "Hettlingen", "lat": 47.5461, "lng": 8.70532, "population": 2221}, {"name": "Wiedlisbach", "lat": 47.25194, "lng": 7.6461, "population": 2213}, {"name": "Riddes", "lat": 46.17276, "lng": 7.2236, "population": 2213}, {"name": "Mogelsberg", "lat": 47.36222, "lng": 9.13541, "population": 2213}, {"name": "Wetzikon / Robenhausen", "lat": 47.33089, "lng": 8.78762, "population": 2213}, {"name": "Eggersriet", "lat": 47.44202, "lng": 9.46901, "population": 2209}, {"name": "Stadt Winterthur (Kreis 1) / Tössfeld", "lat": 47.4934, "lng": 8.71512, "population": 2207}, {"name": "Pfeffingen", "lat": 47.45984, "lng": 7.58975, "population": 2201}, {"name": "Saignelégier", "lat": 47.25619, "lng": 6.99648, "population": 2194}, {"name": "Leytron", "lat": 46.1866, "lng": 7.2078, "population": 2194}, {"name": "Wilchingen", "lat": 47.66745, "lng": 8.46774, "population": 2193}, {"name": "Disentis", "lat": 46.70341, "lng": 8.8509, "population": 2193}, {"name": "Waltenschwil", "lat": 47.33339, "lng": 8.29791, "population": 2192}, {"name": "Lucens", "lat": 46.70854, "lng": 6.83931, "population": 2192}, {"name": "Troinex", "lat": 46.16313, "lng": 6.14745, "population": 2192}, {"name": "Scuol", "lat": 46.79671, "lng": 10.29804, "population": 2184}, {"name": "Hägglingen", "lat": 47.38851, "lng": 8.25285, "population": 2183}, {"name": "Bülach / Seematt", "lat": 47.51716, "lng": 8.54651, "population": 2171}, {"name": "Mattenbach (Kreis 7) / Endliker", "lat": 47.48821, "lng": 8.74938, "population": 2169}, {"name": "Geuensee", "lat": 47.1997, "lng": 8.10689, "population": 2168}, {"name": "Hitzkirch", "lat": 47.22403, "lng": 8.26425, "population": 2165}, {"name": "Feuerthalen", "lat": 47.69054, "lng": 8.64357, "population": 2165}, {"name": "Inwil", "lat": 47.1253, "lng": 8.34885, "population": 2163}, {"name": "Puplinge", "lat": 46.21043, "lng": 6.23114, "population": 2163}, {"name": "Zwingen", "lat": 47.43825, "lng": 7.53027, "population": 2162}, {"name": "Castel San Pietro", "lat": 45.86211, "lng": 9.00843, "population": 2150}, {"name": "Broc", "lat": 46.60513, "lng": 7.09891, "population": 2148}, {"name": "Gattikon", "lat": 47.28439, "lng": 8.5483, "population": 2142}, {"name": "Kaisten", "lat": 47.5416, "lng": 8.04337, "population": 2140}, {"name": "Deitingen", "lat": 47.21515, "lng": 7.6188, "population": 2135}, {"name": "Affeltrangen", "lat": 47.52581, "lng": 9.03307, "population": 2135}, {"name": "Ueberstorf", "lat": 46.86587, "lng": 7.30998, "population": 2133}, {"name": "Chexbres", "lat": 46.48208, "lng": 6.77805, "population": 2133}, {"name": "Seen (Kreis 3) / Oberseen", "lat": 47.48205, "lng": 8.77289, "population": 2133}, {"name": "Coppet", "lat": 46.31682, "lng": 6.19114, "population": 2124}, {"name": "Walzenhausen", "lat": 47.44867, "lng": 9.60495, "population": 2120}, {"name": "Dietikon / Almend", "lat": 47.40477, "lng": 8.39168, "population": 2118}, {"name": "Courgenay", "lat": 47.40483, "lng": 7.12522, "population": 2106}, {"name": "Fällanden", "lat": 47.37169, "lng": 8.63869, "population": 2100}, {"name": "Rothenthurm", "lat": 47.1042, "lng": 8.67585, "population": 2098}, {"name": "Wynigen", "lat": 47.10586, "lng": 7.66681, "population": 2090}, {"name": "Hohenrain", "lat": 47.18083, "lng": 8.31802, "population": 2090}, {"name": "Felsberg", "lat": 46.84566, "lng": 9.47588, "population": 2088}, {"name": "Wolfenschiessen", "lat": 46.90322, "lng": 8.39423, "population": 2080}, {"name": "Cernier", "lat": 47.05878, "lng": 6.9004, "population": 2080}, {"name": "Tann / Tann (Dorfkern)", "lat": 47.26494, "lng": 8.85048, "population": 2080}, {"name": "Wolfwil", "lat": 47.26871, "lng": 7.79652, "population": 2079}, {"name": "Obergösgen", "lat": 47.36538, "lng": 7.95173, "population": 2076}, {"name": "Gontenschwil", "lat": 47.27166, "lng": 8.14396, "population": 2067}, {"name": "Bubikon", "lat": 47.26698, "lng": 8.8179, "population": 2052}, {"name": "Malans", "lat": 46.98096, "lng": 9.57527, "population": 2051}, {"name": "Pfaffnau", "lat": 47.22772, "lng": 7.89719, "population": 2047}, {"name": "Worben", "lat": 47.10279, "lng": 7.29518, "population": 2042}, {"name": "Wigoltingen", "lat": 47.5977, "lng": 9.03141, "population": 2040}, {"name": "Thierachern", "lat": 46.75319, "lng": 7.57442, "population": 2040}, {"name": "Ottenbach", "lat": 47.28228, "lng": 8.40432, "population": 2039}, {"name": "Grône", "lat": 46.25288, "lng": 7.45947, "population": 2039}, {"name": "Pfäffikon / Irgenhausen", "lat": 47.3624, "lng": 8.79265, "population": 2032}, {"name": "Diemtigen", "lat": 46.64928, "lng": 7.56477, "population": 2027}, {"name": "Wangen", "lat": 47.41182, "lng": 8.64516, "population": 2015}, {"name": "Seftigen", "lat": 46.78765, "lng": 7.53937, "population": 2014}, {"name": "Illnau / Unter-Illnau", "lat": 47.40787, "lng": 8.72607, "population": 2011}, {"name": "Bilten", "lat": 47.14995, "lng": 9.02551, "population": 2011}, {"name": "Riggisberg", "lat": 46.81028, "lng": 7.48014, "population": 2001}, {"name": "Verbier", "lat": 46.1002, "lng": 7.22651, "population": 2000}, {"name": "Hallau", "lat": 47.69648, "lng": 8.45827, "population": 2000}, {"name": "Flüelen", "lat": 46.90478, "lng": 8.62396, "population": 2000}, {"name": "Caux", "lat": 46.43241, "lng": 6.93855, "population": 2000}, {"name": "Aeschi b. Spiez", "lat": 46.65848, "lng": 7.6965, "population": 2000}, {"name": "Lauffohr (Brugg)", "lat": 47.50154, "lng": 8.23122, "population": 2000}, {"name": "Hindelbank", "lat": 47.0427, "lng": 7.54143, "population": 1994}, {"name": "Madiswil", "lat": 47.16463, "lng": 7.79858, "population": 1991}, {"name": "Affoltern / Unterdorf", "lat": 47.28277, "lng": 8.45409, "population": 1989}, {"name": "Sonnhalde", "lat": 47.45329, "lng": 8.46091, "population": 1984}, {"name": "Gersau", "lat": 46.99419, "lng": 8.525, "population": 1983}, {"name": "Koppigen", "lat": 47.13125, "lng": 7.60525, "population": 1977}, {"name": "Wädenswil / Untermosen-Fuhr", "lat": 47.22772, "lng": 8.66303, "population": 1976}, {"name": "Weisslingen", "lat": 47.43063, "lng": 8.76787, "population": 1975}, {"name": "Bas-Vully", "lat": 46.96194, "lng": 7.11251, "population": 1963}, {"name": "Oberrieden / Berg", "lat": 47.27628, "lng": 8.57257, "population": 1961}, {"name": "Dietikon / Kreuzacker", "lat": 47.39919, "lng": 8.40146, "population": 1955}, {"name": "Büron", "lat": 47.21192, "lng": 8.0942, "population": 1951}, {"name": "Rüthi", "lat": 47.2948, "lng": 9.53857, "population": 1945}, {"name": "Wangen an der Aare", "lat": 47.23208, "lng": 7.65253, "population": 1944}, {"name": "Raron", "lat": 46.31196, "lng": 7.80029, "population": 1944}, {"name": "Zell", "lat": 47.13673, "lng": 7.92495, "population": 1943}, {"name": "Kloten / Geissberg", "lat": 47.45424, "lng": 8.59066, "population": 1941}, {"name": "Nunningen", "lat": 47.3941, "lng": 7.61951, "population": 1939}, {"name": "Plaffeien", "lat": 46.74198, "lng": 7.28666, "population": 1938}, {"name": "Saint-Léonard", "lat": 46.25152, "lng": 7.41714, "population": 1937}, {"name": "Flühli", "lat": 46.88391, "lng": 8.01558, "population": 1937}, {"name": "Benglen", "lat": 47.36077, "lng": 8.63687, "population": 1937}, {"name": "Endingen", "lat": 47.53742, "lng": 8.29036, "population": 1935}, {"name": "Rüeggisberg", "lat": 46.82216, "lng": 7.4389, "population": 1933}, {"name": "Oberurnen", "lat": 47.11412, "lng": 9.05866, "population": 1932}, {"name": "Gunzwil", "lat": 47.21072, "lng": 8.17932, "population": 1925}, {"name": "Eiken", "lat": 47.53361, "lng": 7.98801, "population": 1923}, {"name": "Lungern", "lat": 46.78578, "lng": 8.15984, "population": 1921}, {"name": "Arzier", "lat": 46.45962, "lng": 6.20813, "population": 1919}, {"name": "Malleray", "lat": 47.23839, "lng": 7.27286, "population": 1918}, {"name": "Cressier", "lat": 47.04907, "lng": 7.03455, "population": 1912}, {"name": "Werthenstein", "lat": 47.05578, "lng": 8.10182, "population": 1909}, {"name": "Cadenazzo", "lat": 46.15172, "lng": 8.94719, "population": 1906}, {"name": "Riaz", "lat": 46.64224, "lng": 7.06183, "population": 1894}, {"name": "Thalwil / See", "lat": 47.29409, "lng": 8.56929, "population": 1893}, {"name": "Zürich (Kreis 2) / Mittel-Leimbach", "lat": 47.32538, "lng": 8.51391, "population": 1891}, {"name": "Altnau", "lat": 47.61052, "lng": 9.2616, "population": 1887}, {"name": "Römerswil", "lat": 47.16881, "lng": 8.24528, "population": 1882}, {"name": "Hildisrieden", "lat": 47.15068, "lng": 8.22582, "population": 1882}, {"name": "Bottighofen", "lat": 47.63643, "lng": 9.20882, "population": 1882}, {"name": "Oberlunkhofen", "lat": 47.31244, "lng": 8.39242, "population": 1880}, {"name": "Schlieren / Engstringerquartier", "lat": 47.40338, "lng": 8.44352, "population": 1877}, {"name": "Lichtensteig", "lat": 47.32381, "lng": 9.08758, "population": 1870}, {"name": "Canobbio", "lat": 46.03592, "lng": 8.96605, "population": 1869}, {"name": "Pontresina", "lat": 46.4955, "lng": 9.90126, "population": 1863}, {"name": "Büsserach", "lat": 47.39415, "lng": 7.54117, "population": 1863}, {"name": "Bülach / Gstückt", "lat": 47.52337, "lng": 8.54879, "population": 1863}, {"name": "Binzikon", "lat": 47.27632, "lng": 8.75851, "population": 1854}, {"name": "Alterswil", "lat": 46.79587, "lng": 7.25877, "population": 1850}, {"name": "Sankt Antoni", "lat": 46.82207, "lng": 7.26091, "population": 1849}, {"name": "Kollbrunn", "lat": 47.45793, "lng": 8.78295, "population": 1848}, {"name": "Zürich (Kreis 5) / Escher-Wyss", "lat": 47.39052, "lng": 8.51292, "population": 1846}, {"name": "Cevio", "lat": 46.31479, "lng": 8.60332, "population": 1844}, {"name": "Oberwinterthur (Kreis 2) / Zinzikon", "lat": 47.5195, "lng": 8.7564, "population": 1842}, {"name": "Urdorf / Bodenfeld", "lat": 47.3892, "lng": 8.42265, "population": 1840}, {"name": "Pfyn", "lat": 47.59693, "lng": 8.9542, "population": 1839}, {"name": "Vuadens", "lat": 46.61545, "lng": 7.01732, "population": 1835}, {"name": "Gorgier", "lat": 46.90143, "lng": 6.77985, "population": 1832}, {"name": "Brissago", "lat": 46.12013, "lng": 8.71181, "population": 1831}, {"name": "Wädenswil / Leihof-Mühlebach", "lat": 47.22364, "lng": 8.67149, "population": 1830}, {"name": "Oberegg", "lat": 47.42531, "lng": 9.55134, "population": 1827}, {"name": "Walkringen", "lat": 46.94856, "lng": 7.6204, "population": 1817}, {"name": "Saint-Cergue", "lat": 46.4459, "lng": 6.15737, "population": 1816}, {"name": "Sankt Gallenkappel", "lat": 47.24368, "lng": 8.96438, "population": 1811}, {"name": "Meinier", "lat": 46.24706, "lng": 6.23423, "population": 1811}, {"name": "Otelfingen", "lat": 47.46053, "lng": 8.39141, "population": 1808}, {"name": "Acquarossa", "lat": 46.45473, "lng": 8.94261, "population": 1808}, {"name": "Oberbuchsiten", "lat": 47.31334, "lng": 7.76836, "population": 1807}, {"name": "Oberrieden / Mitte", "lat": 47.27242, "lng": 8.58021, "population": 1807}, {"name": "Ormalingen", "lat": 47.46936, "lng": 7.87248, "population": 1803}, {"name": "Ettiswil", "lat": 47.15031, "lng": 8.01759, "population": 1801}, {"name": "Rorbas", "lat": 47.53092, "lng": 8.57555, "population": 1797}, {"name": "Uerikon", "lat": 47.23672, "lng": 8.7573, "population": 1794}, {"name": "Cully", "lat": 46.48892, "lng": 6.72945, "population": 1793}, {"name": "Bioggio", "lat": 46.01357, "lng": 8.91103, "population": 1784}, {"name": "Killwangen", "lat": 47.43223, "lng": 8.35097, "population": 1783}, {"name": "Glattbrugg / Rohr/Platten-Balsberg", "lat": 47.43721, "lng": 8.56642, "population": 1780}, {"name": "Rehetobel", "lat": 47.42611, "lng": 9.483, "population": 1779}, {"name": "Grellingen", "lat": 47.44231, "lng": 7.58906, "population": 1767}, {"name": "Uster / Gschwader", "lat": 47.36016, "lng": 8.7139, "population": 1763}, {"name": "Biglen", "lat": 46.92629, "lng": 7.62508, "population": 1759}, {"name": "Affoltern / Oberdorf", "lat": 47.27852, "lng": 8.45651, "population": 1759}, {"name": "Effretikon / Rappenhalde-Bannhalde", "lat": 47.42388, "lng": 8.69653, "population": 1758}, {"name": "Weiningen", "lat": 47.42022, "lng": 8.43644, "population": 1753}, {"name": "Röschenz", "lat": 47.42366, "lng": 7.48024, "population": 1753}, {"name": "Thalwil / Nord", "lat": 47.29748, "lng": 8.55634, "population": 1751}, {"name": "Itingen", "lat": 47.46651, "lng": 7.78502, "population": 1750}, {"name": "Vicques", "lat": 47.35, "lng": 7.41342, "population": 1741}, {"name": "Dallenwil", "lat": 46.9242, "lng": 8.38785, "population": 1738}, {"name": "Andwil", "lat": 47.43855, "lng": 9.27436, "population": 1737}, {"name": "Schinznach Dorf", "lat": 47.4465, "lng": 8.14089, "population": 1736}, {"name": "Bévilard", "lat": 47.23711, "lng": 7.28325, "population": 1736}, {"name": "La Sarraz", "lat": 46.65863, "lng": 6.51077, "population": 1734}, {"name": "Künten", "lat": 47.38887, "lng": 8.33045, "population": 1732}, {"name": "Martigny-Combe", "lat": 46.07817, "lng": 7.05099, "population": 1731}, {"name": "Erlenbach im Simmental", "lat": 46.66021, "lng": 7.55445, "population": 1730}, {"name": "Comano", "lat": 46.03635, "lng": 8.95526, "population": 1729}, {"name": "Hasle", "lat": 46.97787, "lng": 8.05326, "population": 1725}, {"name": "Schleitheim", "lat": 47.74818, "lng": 8.48213, "population": 1723}, {"name": "Waldstatt", "lat": 47.35627, "lng": 9.28345, "population": 1722}, {"name": "Knutwil", "lat": 47.19953, "lng": 8.07315, "population": 1722}, {"name": "Vionnaz", "lat": 46.31101, "lng": 6.90062, "population": 1719}, {"name": "Aesch", "lat": 47.3297, "lng": 8.6541, "population": 1717}, {"name": "Charmey", "lat": 46.61957, "lng": 7.16486, "population": 1713}, {"name": "Erlenbach / links des Dorfbachs oberhalb Bahnlinie", "lat": 47.2995, "lng": 8.60188, "population": 1709}, {"name": "Corminboeuf", "lat": 46.81029, "lng": 7.10535, "population": 1702}, {"name": "Corsier", "lat": 46.26297, "lng": 6.22461, "population": 1699}, {"name": "Rüschegg", "lat": 46.77977, "lng": 7.39167, "population": 1697}, {"name": "Alle", "lat": 47.42542, "lng": 7.13018, "population": 1693}, {"name": "Affoltern / Hasenbüel", "lat": 47.27324, "lng": 8.45218, "population": 1690}, {"name": "Pfaffhausen", "lat": 47.36476, "lng": 8.62375, "population": 1684}, {"name": "Jonen", "lat": 47.2975, "lng": 8.39282, "population": 1683}, {"name": "Dänikon", "lat": 47.44674, "lng": 8.40648, "population": 1682}, {"name": "Kloten / Kloten (Zentrum)", "lat": 47.45134, "lng": 8.58683, "population": 1681}, {"name": "Uttigen", "lat": 46.79435, "lng": 7.57789, "population": 1673}, {"name": "Laupersdorf", "lat": 47.3126, "lng": 7.65465, "population": 1670}, {"name": "Teufenthal", "lat": 47.32896, "lng": 8.11777, "population": 1665}, {"name": "Stadt Winterthur (Kreis 1) / Altstadt", "lat": 47.49951, "lng": 8.72872, "population": 1665}, {"name": "Vordemwald", "lat": 47.27585, "lng": 7.90114, "population": 1661}, {"name": "Dombresson", "lat": 47.07192, "lng": 6.9592, "population": 1659}, {"name": "Wauwil", "lat": 47.18457, "lng": 8.021, "population": 1657}, {"name": "Chézard-Saint-Martin", "lat": 47.06629, "lng": 6.93332, "population": 1655}, {"name": "Koblenz", "lat": 47.60972, "lng": 8.2375, "population": 1651}, {"name": "Wiesendangen / Wiesendangen (Dorf)", "lat": 47.5217, "lng": 8.78967, "population": 1649}, {"name": "Fontainemelon", "lat": 47.05495, "lng": 6.8868, "population": 1647}, {"name": "Gruyères", "lat": 46.58338, "lng": 7.08207, "population": 1646}, {"name": "Cazis", "lat": 46.7194, "lng": 9.43271, "population": 1641}, {"name": "Diegten", "lat": 47.4138, "lng": 7.81085, "population": 1633}, {"name": "Sorengo", "lat": 45.99766, "lng": 8.93783, "population": 1629}, {"name": "Guggisberg", "lat": 46.76756, "lng": 7.32946, "population": 1628}, {"name": "Eich", "lat": 47.15116, "lng": 8.16695, "population": 1627}, {"name": "Trogen", "lat": 47.40782, "lng": 9.46498, "population": 1618}, {"name": "Le Noirmont", "lat": 47.22464, "lng": 6.95784, "population": 1617}, {"name": "Freienstein", "lat": 47.53307, "lng": 8.58455, "population": 1617}, {"name": "Fraubrunnen", "lat": 47.0862, "lng": 7.52727, "population": 1616}, {"name": "Vernayaz", "lat": 46.13667, "lng": 7.03906, "population": 1612}, {"name": "Bühler", "lat": 47.37348, "lng": 9.42507, "population": 1612}, {"name": "Saas-Fee", "lat": 46.10805, "lng": 7.92741, "population": 1611}, {"name": "Wynau", "lat": 47.2557, "lng": 7.81626, "population": 1610}, {"name": "Auw", "lat": 47.21082, "lng": 8.36583, "population": 1610}, {"name": "Tagelswangen", "lat": 47.4307, "lng": 8.67284, "population": 1606}, {"name": "Gunzgen", "lat": 47.31375, "lng": 7.83102, "population": 1604}, {"name": "Binz", "lat": 47.35635, "lng": 8.62657, "population": 1601}, {"name": "Saillon", "lat": 46.17035, "lng": 7.18771, "population": 1598}, {"name": "Sattel", "lat": 47.08246, "lng": 8.63565, "population": 1597}, {"name": "Cadro", "lat": 46.04595, "lng": 8.98725, "population": 1596}, {"name": "Schwarzenberg", "lat": 47.01705, "lng": 8.17261, "population": 1591}, {"name": "Kloten / Freienberg (Chanzler-Chlini Chaseren)", "lat": 47.46584, "lng": 8.58145, "population": 1588}, {"name": "Dällikon / Dällikon (Dorf)", "lat": 47.43983, "lng": 8.43813, "population": 1583}, {"name": "Melide", "lat": 45.95455, "lng": 8.94725, "population": 1577}, {"name": "Riedholz", "lat": 47.23158, "lng": 7.56829, "population": 1576}, {"name": "Grolley", "lat": 46.8336, "lng": 7.07116, "population": 1575}, {"name": "Henggart", "lat": 47.56272, "lng": 8.68215, "population": 1574}, {"name": "Arch", "lat": 47.16533, "lng": 7.43139, "population": 1574}, {"name": "Küsnacht / Dorf", "lat": 47.31783, "lng": 8.58303, "population": 1574}, {"name": "Sellenbüren", "lat": 47.34361, "lng": 8.48301, "population": 1572}, {"name": "Marsens", "lat": 46.65644, "lng": 7.05948, "population": 1571}, {"name": "Heimiswil", "lat": 47.06755, "lng": 7.66665, "population": 1570}, {"name": "Thalwil / Berg", "lat": 47.29178, "lng": 8.55602, "population": 1568}, {"name": "Marthalen", "lat": 47.62913, "lng": 8.65326, "population": 1567}, {"name": "Giffers", "lat": 46.7623, "lng": 7.20845, "population": 1566}, {"name": "Grüt", "lat": 47.31151, "lng": 8.78339, "population": 1565}, {"name": "Nänikon", "lat": 47.36975, "lng": 8.68894, "population": 1560}, {"name": "Airolo", "lat": 46.52855, "lng": 8.61189, "population": 1559}, {"name": "Evolène", "lat": 46.11422, "lng": 7.49407, "population": 1557}, {"name": "Cornaux", "lat": 47.0396, "lng": 7.01872, "population": 1557}, {"name": "Amden", "lat": 47.14888, "lng": 9.14233, "population": 1557}, {"name": "Chippis", "lat": 46.2802, "lng": 7.53962, "population": 1556}, {"name": "Brütten", "lat": 47.47318, "lng": 8.67569, "population": 1556}, {"name": "Auvernier", "lat": 46.97545, "lng": 6.87903, "population": 1555}, {"name": "Adliswil / Hündli-Zopf", "lat": 47.31637, "lng": 8.51888, "population": 1553}, {"name": "Glattbrugg / Wydacker/Bettacker/Lättenwiesen", "lat": 47.42908, "lng": 8.56657, "population": 1551}, {"name": "Kallnach", "lat": 47.02032, "lng": 7.23545, "population": 1545}, {"name": "Oberwinterthur (Kreis 2) / Hegi", "lat": 47.50716, "lng": 8.77057, "population": 1539}, {"name": "Magadino", "lat": 46.14892, "lng": 8.8561, "population": 1538}, {"name": "Arisdorf", "lat": 47.51323, "lng": 7.76515, "population": 1538}, {"name": "Wädenswil / Boller-Giessen", "lat": 47.22115, "lng": 8.68385, "population": 1538}, {"name": "Zäziwil", "lat": 46.90196, "lng": 7.66185, "population": 1535}, {"name": "Tesserete", "lat": 46.06813, "lng": 8.96501, "population": 1533}, {"name": "Trubschachen", "lat": 46.92228, "lng": 7.8452, "population": 1530}, {"name": "Lodrino", "lat": 46.30016, "lng": 8.97986, "population": 1526}, {"name": "Fulenbach", "lat": 47.27103, "lng": 7.83136, "population": 1526}, {"name": "Wagenhausen", "lat": 47.66003, "lng": 8.84782, "population": 1524}, {"name": "Ligornetto", "lat": 45.86161, "lng": 8.95166, "population": 1524}, {"name": "Cugy", "lat": 46.81479, "lng": 6.88888, "population": 1523}, {"name": "Seedorf", "lat": 46.88199, "lng": 8.61611, "population": 1522}, {"name": "Froideville", "lat": 46.60123, "lng": 6.68085, "population": 1518}, {"name": "Schwellbrunn", "lat": 47.35255, "lng": 9.24894, "population": 1517}, {"name": "Attinghausen", "lat": 46.86255, "lng": 8.63036, "population": 1515}, {"name": "Faido", "lat": 46.477, "lng": 8.80125, "population": 1512}, {"name": "Reigoldswil", "lat": 47.39824, "lng": 7.68718, "population": 1509}, {"name": "Eschenz", "lat": 47.64793, "lng": 8.87472, "population": 1508}, {"name": "Courfaivre", "lat": 47.33461, "lng": 7.28186, "population": 1508}, {"name": "Ersigen", "lat": 47.09368, "lng": 7.59507, "population": 1507}, {"name": "Trub", "lat": 46.94168, "lng": 7.87996, "population": 1503}, {"name": "Corgémont", "lat": 47.19457, "lng": 7.14517, "population": 1503}, {"name": "Hittnau / Hittnau (Dorf)", "lat": 47.36334, "lng": 8.82418, "population": 1502}, {"name": "Genolier", "lat": 46.43537, "lng": 6.21809, "population": 1498}, {"name": "Buchholterberg", "lat": 46.81351, "lng": 7.67463, "population": 1498}, {"name": "Vitznau", "lat": 47.01014, "lng": 8.4842, "population": 1496}, {"name": "Adliswil / Sood", "lat": 47.3187, "lng": 8.52425, "population": 1494}, {"name": "Brislach", "lat": 47.41763, "lng": 7.5434, "population": 1493}, {"name": "Uttwil", "lat": 47.5844, "lng": 9.34101, "population": 1492}, {"name": "Bäch", "lat": 47.20388, "lng": 8.73224, "population": 1479}, {"name": "Oberengstringen / Sonnenberg", "lat": 47.41211, "lng": 8.46055, "population": 1477}, {"name": "Lütisburg", "lat": 47.39451, "lng": 9.08312, "population": 1476}, {"name": "Stadt Winterthur (Kreis 1) / Brühlberg", "lat": 47.49764, "lng": 8.71272, "population": 1476}, {"name": "Töss (Kreis 4) / Vorder-Dättnau", "lat": 47.48135, "lng": 8.69855, "population": 1476}, {"name": "Villnachern", "lat": 47.47098, "lng": 8.15975, "population": 1473}, {"name": "Dachsen", "lat": 47.66515, "lng": 8.6179, "population": 1470}, {"name": "Erlenbach / rechts des Dorfbachs oberhalb Bahnlinie", "lat": 47.30658, "lng": 8.60271, "population": 1470}, {"name": "Montagny", "lat": 46.79289, "lng": 6.61222, "population": 1467}, {"name": "Melchnau", "lat": 47.18213, "lng": 7.85128, "population": 1467}, {"name": "Embrach / Kellersacker", "lat": 47.51455, "lng": 8.59146, "population": 1467}, {"name": "Les Geneveys-sur-Coffrane", "lat": 47.01528, "lng": 6.8513, "population": 1458}, {"name": "Gimel", "lat": 46.50945, "lng": 6.30736, "population": 1454}, {"name": "Krummenau", "lat": 47.24755, "lng": 9.17064, "population": 1453}, {"name": "Boltigen", "lat": 46.62847, "lng": 7.39054, "population": 1443}, {"name": "Hochfelden", "lat": 47.52262, "lng": 8.51564, "population": 1442}, {"name": "Visperterminen", "lat": 46.25899, "lng": 7.90192, "population": 1440}, {"name": "Oberbipp", "lat": 47.2607, "lng": 7.66359, "population": 1440}, {"name": "Wettswil / Ausser-Dorf", "lat": 47.33197, "lng": 8.47732, "population": 1438}, {"name": "Steinmaur", "lat": 47.4971, "lng": 8.45216, "population": 1438}, {"name": "Boniswil", "lat": 47.31725, "lng": 8.18963, "population": 1436}, {"name": "Neerach", "lat": 47.51096, "lng": 8.47099, "population": 1435}, {"name": "Bülach / Soligänter", "lat": 47.52632, "lng": 8.54106, "population": 1434}, {"name": "Uster / Nossikon", "lat": 47.34088, "lng": 8.72555, "population": 1433}, {"name": "Bière", "lat": 46.53761, "lng": 6.33362, "population": 1428}, {"name": "Leukerbad", "lat": 46.37943, "lng": 7.62687, "population": 1427}, {"name": "Mumpf", "lat": 47.54563, "lng": 7.92123, "population": 1425}, {"name": "Jongny", "lat": 46.47883, "lng": 6.84114, "population": 1423}, {"name": "Seuzach / Seuzach (Dorf)", "lat": 47.53545, "lng": 8.73728, "population": 1419}, {"name": "Vex", "lat": 46.21239, "lng": 7.39826, "population": 1418}, {"name": "Niederbüren", "lat": 47.46547, "lng": 9.20568, "population": 1415}, {"name": "Eriswil", "lat": 47.07816, "lng": 7.85149, "population": 1414}, {"name": "Bowil", "lat": 46.89304, "lng": 7.69757, "population": 1414}, {"name": "Seltisberg", "lat": 47.46249, "lng": 7.72039, "population": 1412}, {"name": "Adliswil / Oberleimbach", "lat": 47.3202, "lng": 8.51508, "population": 1411}, {"name": "Gockhausen", "lat": 47.38098, "lng": 8.59978, "population": 1411}, {"name": "Wädenswil / Hangenmoos", "lat": 47.23367, "lng": 8.65251, "population": 1407}, {"name": "Homburg", "lat": 47.63469, "lng": 9.00756, "population": 1406}, {"name": "Gonten", "lat": 47.32725, "lng": 9.34705, "population": 1406}, {"name": "Oberglatt / Oberglatt (Dorfkern)", "lat": 47.47596, "lng": 8.51929, "population": 1406}, {"name": "La Roche", "lat": 46.6962, "lng": 7.13721, "population": 1405}, {"name": "Weesen", "lat": 47.13447, "lng": 9.09644, "population": 1402}, {"name": "Egliswil", "lat": 47.34922, "lng": 8.18553, "population": 1401}, {"name": "Elsau-Räterschen", "lat": 47.50238, "lng": 8.79874, "population": 1395}, {"name": "Luthern", "lat": 47.05753, "lng": 7.91692, "population": 1392}, {"name": "Kloten / Horainli", "lat": 47.45399, "lng": 8.58306, "population": 1391}, {"name": "Dübendorf / Vogelquartier", "lat": 47.39502, "lng": 8.61184, "population": 1391}, {"name": "Attiswil", "lat": 47.24673, "lng": 7.61353, "population": 1389}, {"name": "Kloten / Balsberg", "lat": 47.44233, "lng": 8.57496, "population": 1389}, {"name": "Wila", "lat": 47.41928, "lng": 8.84524, "population": 1387}, {"name": "Rohrbach", "lat": 47.13521, "lng": 7.81334, "population": 1386}, {"name": "Gampel", "lat": 46.31599, "lng": 7.7421, "population": 1386}, {"name": "Dietlikon / Eichwiesen", "lat": 47.4191, "lng": 8.62078, "population": 1386}, {"name": "Wahlen", "lat": 47.40226, "lng": 7.51511, "population": 1383}, {"name": "Villigen", "lat": 47.52682, "lng": 8.21486, "population": 1381}, {"name": "Hüttwilen", "lat": 47.60674, "lng": 8.87343, "population": 1381}, {"name": "Lyssach", "lat": 47.06445, "lng": 7.58228, "population": 1375}, {"name": "Veltheim", "lat": 47.43796, "lng": 8.14722, "population": 1374}, {"name": "Altishofen", "lat": 47.19916, "lng": 7.96964, "population": 1368}, {"name": "Grächen", "lat": 46.19529, "lng": 7.83745, "population": 1362}, {"name": "Jussy", "lat": 46.2359, "lng": 6.26701, "population": 1356}, {"name": "Sankt Stephan", "lat": 46.50827, "lng": 7.39559, "population": 1352}, {"name": "Paudex", "lat": 46.50548, "lng": 6.66819, "population": 1352}, {"name": "Cadempino", "lat": 46.03672, "lng": 8.93403, "population": 1351}, {"name": "Treyvaux", "lat": 46.72796, "lng": 7.13769, "population": 1349}, {"name": "Breíl", "lat": 46.76986, "lng": 9.06036, "population": 1344}, {"name": "Péry", "lat": 47.19398, "lng": 7.24913, "population": 1342}, {"name": "Rodersdorf", "lat": 47.48082, "lng": 7.45767, "population": 1338}, {"name": "Güttingen", "lat": 47.60349, "lng": 9.28742, "population": 1336}, {"name": "Müntschemier", "lat": 46.99548, "lng": 7.14626, "population": 1333}, {"name": "Oberglatt / Bahnhofquartier", "lat": 47.47143, "lng": 8.51289, "population": 1333}, {"name": "Hérémence", "lat": 46.18032, "lng": 7.40477, "population": 1331}, {"name": "Dardagny", "lat": 46.19564, "lng": 5.99497, "population": 1329}, {"name": "Andelfingen", "lat": 47.59447, "lng": 8.67826, "population": 1328}, {"name": "Court", "lat": 47.23956, "lng": 7.33655, "population": 1328}, {"name": "Schinznach Bad", "lat": 47.44992, "lng": 8.16833, "population": 1327}, {"name": "Sâles", "lat": 46.63473, "lng": 6.97336, "population": 1326}, {"name": "Avry-sur-Matran", "lat": 46.78753, "lng": 7.06735, "population": 1326}, {"name": "Begnins", "lat": 46.44152, "lng": 6.24762, "population": 1323}, {"name": "Seeberg", "lat": 47.15585, "lng": 7.66567, "population": 1321}, {"name": "Hadlikon", "lat": 47.2875, "lng": 8.85719, "population": 1321}, {"name": "Oberhelfenschwil", "lat": 47.35673, "lng": 9.11076, "population": 1318}, {"name": "Ramsen", "lat": 47.70797, "lng": 8.80949, "population": 1316}, {"name": "Perroy", "lat": 46.4669, "lng": 6.35349, "population": 1315}, {"name": "Linden", "lat": 46.8469, "lng": 7.67831, "population": 1315}, {"name": "Schönenbuch", "lat": 47.53853, "lng": 7.50572, "population": 1313}, {"name": "Bäretswil", "lat": 47.33709, "lng": 8.85645, "population": 1313}, {"name": "Aristau", "lat": 47.28692, "lng": 8.36356, "population": 1313}, {"name": "Dietikon / Guggenbühl", "lat": 47.40009, "lng": 8.40818, "population": 1312}, {"name": "Bellmund", "lat": 47.10852, "lng": 7.24608, "population": 1311}, {"name": "Ferenbalm", "lat": 46.9488, "lng": 7.21124, "population": 1310}, {"name": "Boncourt", "lat": 47.49493, "lng": 7.01297, "population": 1304}, {"name": "Uerkheim", "lat": 47.30353, "lng": 8.0232, "population": 1302}, {"name": "Zürich (Kreis 1) / Lindenhof", "lat": 47.37188, "lng": 8.54036, "population": 1298}, {"name": "Kleinlützel", "lat": 47.42518, "lng": 7.41607, "population": 1296}, {"name": "Salmsach", "lat": 47.55433, "lng": 9.37229, "population": 1293}, {"name": "Malvaglia", "lat": 46.40588, "lng": 8.9819, "population": 1290}, {"name": "Fontenais", "lat": 47.40292, "lng": 7.08108, "population": 1289}, {"name": "Leibstadt", "lat": 47.5879, "lng": 8.17611, "population": 1287}, {"name": "Dübendorf / Kunklerstrasse", "lat": 47.40109, "lng": 8.62724, "population": 1284}, {"name": "Adliswil / Sonnenberg", "lat": 47.30958, "lng": 8.52055, "population": 1283}, {"name": "Matzendorf", "lat": 47.30374, "lng": 7.6282, "population": 1282}, {"name": "Frauenkappelen", "lat": 46.95425, "lng": 7.33835, "population": 1281}, {"name": "Les Ponts-de-Martel", "lat": 46.99735, "lng": 6.73059, "population": 1278}, {"name": "Schachen", "lat": 47.32419, "lng": 8.47251, "population": 1278}, {"name": "Opfikon", "lat": 47.43169, "lng": 8.57588, "population": 1277}, {"name": "Les Breuleux", "lat": 47.21099, "lng": 7.00792, "population": 1277}, {"name": "Läufelfingen", "lat": 47.39457, "lng": 7.85578, "population": 1271}, {"name": "Oberengstringen / Zentrum", "lat": 47.40711, "lng": 8.46276, "population": 1271}, {"name": "Oberrüti", "lat": 47.16673, "lng": 8.39441, "population": 1268}, {"name": "Urdorf / Moos", "lat": 47.38977, "lng": 8.42886, "population": 1266}, {"name": "Mühlethurnen", "lat": 46.81345, "lng": 7.50881, "population": 1265}, {"name": "Unterlunkhofen", "lat": 47.3212, "lng": 8.38102, "population": 1263}, {"name": "Mesocco", "lat": 46.3939, "lng": 9.23333, "population": 1262}, {"name": "Affoltern / Sonnenberg", "lat": 47.28055, "lng": 8.46008, "population": 1262}, {"name": "Eichberg", "lat": 47.34374, "lng": 9.5314, "population": 1260}, {"name": "Andermatt", "lat": 46.63565, "lng": 8.59388, "population": 1258}, {"name": "Rhäzüns", "lat": 46.79891, "lng": 9.39764, "population": 1257}, {"name": "Thalwil / Süd", "lat": 47.28495, "lng": 8.56954, "population": 1255}, {"name": "Hochwald", "lat": 47.45389, "lng": 7.64459, "population": 1254}, {"name": "Laax", "lat": 46.80452, "lng": 9.25787, "population": 1252}, {"name": "Wädenswil / Eichweid", "lat": 47.21847, "lng": 8.6744, "population": 1252}, {"name": "Wyssachen", "lat": 47.07851, "lng": 7.82922, "population": 1251}, {"name": "Au / Unter-Dorf", "lat": 47.2473, "lng": 8.6327, "population": 1249}, {"name": "Sulz", "lat": 47.53954, "lng": 8.78887, "population": 1244}, {"name": "Trun", "lat": 46.74292, "lng": 8.98716, "population": 1243}, {"name": "Grüsch", "lat": 46.97965, "lng": 9.64639, "population": 1243}, {"name": "Celerina", "lat": 46.51217, "lng": 9.85794, "population": 1241}, {"name": "Schlieren / Boden", "lat": 47.39721, "lng": 8.45734, "population": 1241}, {"name": "Salgesch", "lat": 46.31155, "lng": 7.5712, "population": 1240}, {"name": "Travers", "lat": 46.94018, "lng": 6.67595, "population": 1233}, {"name": "Stalden", "lat": 46.23341, "lng": 7.87273, "population": 1232}, {"name": "Emmetten", "lat": 46.95658, "lng": 8.51467, "population": 1232}, {"name": "Wülflingen (Kreis 6) / Niederfeld", "lat": 47.50904, "lng": 8.67968, "population": 1227}, {"name": "Dorf", "lat": 47.239, "lng": 8.73567, "population": 1226}, {"name": "Praroman", "lat": 46.75145, "lng": 7.17778, "population": 1223}, {"name": "Wildhaus", "lat": 47.20583, "lng": 9.35402, "population": 1221}, {"name": "Flurlingen", "lat": 47.6839, "lng": 8.62995, "population": 1221}, {"name": "Mühlehalde", "lat": 47.28306, "lng": 8.53386, "population": 1220}, {"name": "Merlischachen", "lat": 47.0662, "lng": 8.4054, "population": 1219}, {"name": "Wikon", "lat": 47.26339, "lng": 7.96801, "population": 1218}, {"name": "Radelfingen", "lat": 47.02146, "lng": 7.27178, "population": 1218}, {"name": "Dietikon / Schönenwerd", "lat": 47.39706, "lng": 8.42576, "population": 1218}, {"name": "Häggenschwil", "lat": 47.49462, "lng": 9.34487, "population": 1216}, {"name": "Richterswil / Dorfkern", "lat": 47.20715, "lng": 8.70607, "population": 1216}, {"name": "Sulz", "lat": 47.53602, "lng": 8.09628, "population": 1215}, {"name": "Churwalden", "lat": 46.78143, "lng": 9.54377, "population": 1214}, {"name": "Schlieren / Freiestrasse", "lat": 47.39598, "lng": 8.44202, "population": 1212}, {"name": "Liesberg", "lat": 47.40398, "lng": 7.42787, "population": 1210}, {"name": "Zuoz", "lat": 46.60206, "lng": 9.95965, "population": 1209}, {"name": "Palézieux", "lat": 46.54191, "lng": 6.83989, "population": 1209}, {"name": "Sankt Peterzell", "lat": 47.31782, "lng": 9.17599, "population": 1207}, {"name": "Schlieren / Zentrum", "lat": 47.39779, "lng": 8.4477, "population": 1207}, {"name": "Varen", "lat": 46.3186, "lng": 7.60743, "population": 1203}, {"name": "Esslingen", "lat": 47.28325, "lng": 8.71038, "population": 1203}, {"name": "Cugnasco", "lat": 46.17473, "lng": 8.91684, "population": 1202}, {"name": "Apples", "lat": 46.55237, "lng": 6.42889, "population": 1201}, {"name": "Mauensee", "lat": 47.16703, "lng": 8.06793, "population": 1199}, {"name": "Glovelier", "lat": 47.33534, "lng": 7.20556, "population": 1199}, {"name": "Oron-la-Ville", "lat": 46.57094, "lng": 6.82557, "population": 1198}, {"name": "Meinisberg", "lat": 47.15965, "lng": 7.34801, "population": 1198}, {"name": "Champéry", "lat": 46.17543, "lng": 6.86903, "population": 1191}, {"name": "Lumino", "lat": 46.2302, "lng": 9.0642, "population": 1190}, {"name": "Bettingen", "lat": 47.57039, "lng": 7.66425, "population": 1189}, {"name": "Beatenberg", "lat": 46.69896, "lng": 7.79428, "population": 1188}, {"name": "Arzo", "lat": 45.87606, "lng": 8.94103, "population": 1188}, {"name": "Gutenswil", "lat": 47.38387, "lng": 8.71763, "population": 1188}, {"name": "Dürrenäsch", "lat": 47.32094, "lng": 8.15874, "population": 1187}, {"name": "Buttwil", "lat": 47.26828, "lng": 8.31064, "population": 1185}, {"name": "Seen (Kreis 3) / Waldegg", "lat": 47.48393, "lng": 8.75586, "population": 1184}, {"name": "Choulex", "lat": 46.22454, "lng": 6.22799, "population": 1182}, {"name": "Orvin", "lat": 47.16068, "lng": 7.21368, "population": 1181}, {"name": "Haag (Rheintal)", "lat": 47.20989, "lng": 9.48931, "population": 1180}, {"name": "Welschenrohr", "lat": 47.28052, "lng": 7.52664, "population": 1179}, {"name": "Thundorf", "lat": 47.54594, "lng": 8.96358, "population": 1179}, {"name": "Nänikon / Nänikon (Dorfkern)", "lat": 47.37099, "lng": 8.69254, "population": 1178}, {"name": "Männedorf / Ausserfeld", "lat": 47.24636, "lng": 8.70608, "population": 1175}, {"name": "Les Brenets", "lat": 47.06774, "lng": 6.70478, "population": 1169}, {"name": "Lavertezzo", "lat": 46.25893, "lng": 8.83756, "population": 1168}, {"name": "Leuzigen", "lat": 47.17458, "lng": 7.45775, "population": 1167}, {"name": "Courtelary", "lat": 47.17822, "lng": 7.07236, "population": 1163}, {"name": "Langnau / Vitaquartier", "lat": 47.29377, "lng": 8.53758, "population": 1161}, {"name": "Tamins", "lat": 46.82964, "lng": 9.40648, "population": 1160}, {"name": "Baltschieder", "lat": 46.30888, "lng": 7.8657, "population": 1158}, {"name": "Charrat", "lat": 46.1249, "lng": 7.13138, "population": 1156}, {"name": "Blumenstein", "lat": 46.7421, "lng": 7.52136, "population": 1154}, {"name": "Luzein", "lat": 46.91957, "lng": 9.7608, "population": 1153}, {"name": "Kloten / Spitz", "lat": 47.44455, "lng": 8.58724, "population": 1153}, {"name": "Brusio", "lat": 46.25953, "lng": 10.12385, "population": 1152}, {"name": "Niederglatt / Niederglatt (Dorfkern)", "lat": 47.49065, "lng": 8.50048, "population": 1147}, {"name": "Kilchberg / Bächler-Stocken", "lat": 47.32728, "lng": 8.53957, "population": 1147}, {"name": "Obfelden / Toussen", "lat": 47.26574, "lng": 8.43013, "population": 1146}, {"name": "Ganterschwil", "lat": 47.38103, "lng": 9.09239, "population": 1145}, {"name": "Zürich (Kreis 11) / Schwandenholz", "lat": 47.42476, "lng": 8.52125, "population": 1145}, {"name": "Seglingen", "lat": 47.57244, "lng": 8.52093, "population": 1144}, {"name": "Zürich (Kreis 12) / Auzelg", "lat": 47.41511, "lng": 8.57014, "population": 1143}, {"name": "Uhwiesen", "lat": 47.67074, "lng": 8.63542, "population": 1140}, {"name": "Richterswil / Burghalde", "lat": 47.20973, "lng": 8.69133, "population": 1137}, {"name": "Greifensee / Pfisterhölzli", "lat": 47.3643, "lng": 8.68979, "population": 1135}, {"name": "Melano", "lat": 45.92202, "lng": 8.98435, "population": 1133}, {"name": "Jenaz", "lat": 46.92892, "lng": 9.71275, "population": 1130}, {"name": "Schlieren / Kamp", "lat": 47.39358, "lng": 8.44453, "population": 1129}, {"name": "Meierskappel", "lat": 47.1247, "lng": 8.44274, "population": 1128}, {"name": "Salvan", "lat": 46.1189, "lng": 7.02078, "population": 1127}, {"name": "Oberengstringen / Rauchacher", "lat": 47.40919, "lng": 8.45627, "population": 1126}, {"name": "Adliswil / Tal", "lat": 47.31142, "lng": 8.53446, "population": 1125}, {"name": "Tanay", "lat": 46.34503, "lng": 6.83041, "population": 1124}, {"name": "Löhningen", "lat": 47.70121, "lng": 8.55236, "population": 1124}, {"name": "Kandersteg", "lat": 46.49467, "lng": 7.67326, "population": 1123}, {"name": "Gryon", "lat": 46.27377, "lng": 7.05975, "population": 1122}, {"name": "Regensdorf / Feldblumen-Riedthofstrasse", "lat": 47.43618, "lng": 8.46659, "population": 1122}, {"name": "Effretikon / Rikon", "lat": 47.43099, "lng": 8.68624, "population": 1120}, {"name": "Luchsingen", "lat": 46.9664, "lng": 9.03715, "population": 1119}, {"name": "Muolen", "lat": 47.52102, "lng": 9.32484, "population": 1118}, {"name": "Saas-Grund", "lat": 46.12281, "lng": 7.93651, "population": 1116}, {"name": "Kriegstetten", "lat": 47.17449, "lng": 7.59799, "population": 1116}, {"name": "Grand-Savagnier", "lat": 47.05101, "lng": 6.95489, "population": 1116}, {"name": "Hofstetten", "lat": 47.47778, "lng": 8.50646, "population": 1115}, {"name": "Rue", "lat": 46.61916, "lng": 6.82225, "population": 1108}, {"name": "Erlach", "lat": 47.0422, "lng": 7.09728, "population": 1108}, {"name": "Hinteregg", "lat": 47.30736, "lng": 8.68339, "population": 1107}, {"name": "Kindhausen / Kindhausen (Dorf)", "lat": 47.40644, "lng": 8.68296, "population": 1107}, {"name": "Heitenried", "lat": 46.82762, "lng": 7.29944, "population": 1106}, {"name": "Le Vaud", "lat": 46.47753, "lng": 6.23603, "population": 1104}, {"name": "Les Bois", "lat": 47.17715, "lng": 6.90498, "population": 1104}, {"name": "Obfelden / Oberlunnern", "lat": 47.26197, "lng": 8.41588, "population": 1103}, {"name": "Aire-la-Ville", "lat": 46.19057, "lng": 6.04287, "population": 1100}, {"name": "Oberschrot", "lat": 46.74126, "lng": 7.28149, "population": 1099}, {"name": "Kleinandelfingen", "lat": 47.60058, "lng": 8.68362, "population": 1094}, {"name": "Villaz-Saint-Pierre", "lat": 46.72074, "lng": 6.95638, "population": 1093}, {"name": "Trélex", "lat": 46.41538, "lng": 6.20813, "population": 1092}, {"name": "Regensdorf / Obstgarten", "lat": 47.42772, "lng": 8.46566, "population": 1090}, {"name": "Zürich (Kreis 1) / City", "lat": 47.37269, "lng": 8.53576, "population": 1089}, {"name": "Waldenburg", "lat": 47.38333, "lng": 7.75, "population": 1081}, {"name": "Wegenstetten", "lat": 47.49797, "lng": 7.93141, "population": 1080},