[{"name": "Douala", "lat": 4.04827, "lng": 9.70428, "population": 1338082}, {"name": "Yaoundé", "lat": 3.86667, "lng": 11.51667, "population": 1299369}, {"name": "Bamenda", "lat": 5.9597, "lng": 10.14597, "population": 420445}, {"name": "Bafoussam", "lat": 5.47775, "lng": 10.41759, "population": 373268}, {"name": "Maroua", "lat": 10.59095, "lng": 14.31593, "population": 314122}, {"name": "Ngaoundéré", "lat": 7.32765, "lng": 13.58472, "population": 238196}, {"name": "Kumba", "lat": 4.6363, "lng": 9.4469, "population": 225046}, {"name": "Nkongsamba", "lat": 4.9547, "lng": 9.9404, "population": 162309}, {"name": "Buea", "lat": 4.15342, "lng": 9.24231, "population": 140533}, {"name": "Kousséri", "lat": 12.07689, "lng": 15.03063, "population": 139024}, {"name": "Bertoua", "lat": 4.57728, "lng": 13.68459, "population": 137993}, {"name": "Limbe", "lat": 4.02356, "lng": 9.20607, "population": 131381}, {"name": "Foumban", "lat": 5.72662, "lng": 10.89865, "population": 130287}, {"name": "Kumbo", "lat": 6.2, "lng": 10.66667, "population": 125124}, {"name": "Edéa", "lat": 3.8, "lng": 10.13333, "population": 103861}, {"name": "Ébolowa", "lat": 2.9, "lng": 11.15, "population": 101363}, {"name": "Dschang", "lat": 5.44397, "lng": 10.05332, "population": 99582}, {"name": "Tiko", "lat": 4.075, "lng": 9.36005, "population": 94836}, {"name": "Kribi", "lat": 2.93725, "lng": 9.90765, "population": 93482}, {"name": "Mbalmayo", "lat": 3.51667, "lng": 11.5, "population": 82384}, {"name": "Guider", "lat": 9.9333, "lng": 13.94671, "population": 81608}, {"name": "Sangmélima", "lat": 2.93333, "lng": 11.98333, "population": 80036}, {"name": "Melong", "lat": 5.12181, "lng": 9.96143, "population": 76716}, {"name": "Foumbot", "lat": 5.50803, "lng": 10.6325, "population": 74319}, {"name": "Bafia", "lat": 4.75, "lng": 11.23333, "population": 74050}, {"name": "Mbouda", "lat": 5.62611, "lng": 10.25421, "population": 71867}, {"name": "Mutengene", "lat": 4.0913, "lng": 9.3144, "population": 64054}, {"name": "Mora", "lat": 11.04611, "lng": 14.14011, "population": 61523}, {"name": "Meïganga", "lat": 6.51667, "lng": 14.3, "population": 59426}, {"name": "Yagoua", "lat": 10.34107, "lng": 15.23288, "population": 59069}, {"name": "Loum", "lat": 4.7182, "lng": 9.7351, "population": 58554}, {"name": "Bafang", "lat": 5.15705, "lng": 10.1771, "population": 54505}, {"name": "Mokolo", "lat": 10.74244, "lng": 13.80227, "population": 51999}, {"name": "Batouri", "lat": 4.43333, "lng": 14.36667, "population": 49422}, {"name": "Banyo", "lat": 6.75, "lng": 11.81667, "population": 47936}, {"name": "Garoua Boulaï", "lat": 5.88333, "lng": 14.55, "population": 46615}, {"name": "Obala", "lat": 4.16667, "lng": 11.53333, "population": 45321}, {"name": "Oku", "lat": 6.25, "lng": 10.43333, "population": 44443}, {"name": "Mbanga", "lat": 4.5016, "lng": 9.5671, "population": 44155}, {"name": "Muyuka", "lat": 4.2898, "lng": 9.4103, "population": 43749}, {"name": "Bangangté", "lat": 5.14079, "lng": 10.52535, "population": 43694}, {"name": "Fundong", "lat": 6.28, "lng": 10.283, "population": 43509}, {"name": "Fontem", "lat": 5.4685, "lng": 9.8818, "population": 42689}, {"name": "Wum", "lat": 6.38333, "lng": 10.06667, "population": 42457}, {"name": "Manjo", "lat": 4.8428, "lng": 9.8217, "population": 41740}, {"name": "Ngaoundal", "lat": 6.5, "lng": 13.26667, "population": 40328}, {"name": "Ndop", "lat": 5.98843, "lng": 10.43859, "population": 40152}, {"name": "Tibati", "lat": 6.46504, "lng": 12.62843, "population": 35673}, {"name": "Tchéboa", "lat": 9.02871, "lng": 13.1848, "population": 35199}, {"name": "Garoua", "lat": 9.30143, "lng": 13.39771, "population": 34957}, {"name": "Pitoa", "lat": 9.3839, "lng": 13.50231, "population": 33610}, {"name": "Lagdo", "lat": 9.05828, "lng": 13.66605, "population": 33564}, {"name": "Yokadouma", "lat": 3.51667, "lng": 15.05, "population": 32900}, {"name": "Kaélé", "lat": 10.10917, "lng": 14.45083, "population": 32853}, {"name": "Bogo", "lat": 10.7336, "lng": 14.60928, "population": 32830}, {"name": "Bandjoun", "lat": 5.37568, "lng": 10.41326, "population": 31750}, {"name": "Figuil", "lat": 9.75574, "lng": 13.9647, "population": 31550}, {"name": "Magba", "lat": 5.95, "lng": 11.21667, "population": 30931}, {"name": "Akonolinga", "lat": 3.76667, "lng": 12.25, "population": 30078}, {"name": "Mbandjok", "lat": 4.45, "lng": 11.9, "population": 29281}, {"name": "Makak", "lat": 3.55, "lng": 11.03333, "population": 29135}, {"name": "Touboro", "lat": 7.7708, "lng": 15.3568, "population": 28987}, {"name": "Nanga Eboko", "lat": 4.68333, "lng": 12.36667, "population": 28518}, {"name": "Eséka", "lat": 3.65, "lng": 10.76667, "population": 27928}, {"name": "Nkoteng", "lat": 4.51667, "lng": 12.03333, "population": 27677}, {"name": "Bali", "lat": 5.88737, "lng": 10.01176, "population": 27473}, {"name": "Blangwa", "lat": 12.77515, "lng": 14.55328, "population": 27208}, {"name": "Njombé", "lat": 4.58056, "lng": 9.66472, "population": 27130}, {"name": "Kekem", "lat": 5.15689, "lng": 10.01996, "population": 27038}, {"name": "Nkambe", "lat": 6.63333, "lng": 10.66667, "population": 26816}, {"name": "Bafut", "lat": 6.08333, "lng": 10.1, "population": 25563}, {"name": "Ambam", "lat": 2.38333, "lng": 11.28333, "population": 25052}, {"name": "Souza Gare", "lat": 4.2344, "lng": 9.6164, "population": 24994}, {"name": "Bamusso", "lat": 4.4591, "lng": 8.9027, "population": 24741}, {"name": "Guidiguis", "lat": 10.13366, "lng": 14.70748, "population": 24554}, {"name": "Maga", "lat": 10.8434, "lng": 14.93962, "population": 24492}, {"name": "Abong Mbang", "lat": 3.98333, "lng": 13.18333, "population": 24433}, {"name": "Tombel", "lat": 4.7466, "lng": 9.6705, "population": 24384}, {"name": "Bélabo", "lat": 4.93333, "lng": 13.3, "population": 24359}, {"name": "Okoa", "lat": 3.98333, "lng": 11.6, "population": 24110}, {"name": "Ekondo Titi", "lat": 4.603, "lng": 9.0404, "population": 23975}, {"name": "Tcholliré", "lat": 8.4022, "lng": 14.1698, "population": 23187}, {"name": "Lolodorf", "lat": 3.23333, "lng": 10.73333, "population": 22252}, {"name": "Penja", "lat": 4.63911, "lng": 9.67987, "population": 21367}, {"name": "Mamfe", "lat": 5.75132, "lng": 9.3137, "population": 20350}, {"name": "Dizangué", "lat": 3.76667, "lng": 9.98333, "population": 19243}, {"name": "Tonga", "lat": 4.96667, "lng": 10.7, "population": 16036}, {"name": "Bazou", "lat": 5.06001, "lng": 10.46751, "population": 13058}, {"name": "Mundemba", "lat": 4.9479, "lng": 8.8724, "population": 11912}, {"name": "Bétaré Oya", "lat": 5.6, "lng": 14.08333, "population": 11866}, {"name": "Rey Bouba", "lat": 8.6724, "lng": 14.1786, "population": 11454}, {"name": "Oshie", "lat": 6.1273, "lng": 9.8681, "population": 10822}, {"name": "Mindif", "lat": 10.39812, "lng": 14.43635, "population": 10538}, {"name": "Babanki", "lat": 6.11667, "lng": 10.25, "population": 9851}, {"name": "Mbengwi", "lat": 6.01667, "lng": 10.0, "population": 9734}, {"name": "Akom II", "lat": 2.78333, "lng": 10.56667, "population": 9709}, {"name": "Batibo", "lat": 5.8358, "lng": 9.8553, "population": 9163}, {"name": "Belo", "lat": 6.175, "lng": 10.346, "population": 8705}, {"name": "Olamzé", "lat": 2.21667, "lng": 11.08333, "population": 8518}, {"name": "Dimako", "lat": 4.38333, "lng": 13.56667, "population": 8476}, {"name": "Njinikom", "lat": 6.23333, "lng": 10.28333, "population": 8247}, {"name": "Ndikiniméki", "lat": 4.76667, "lng": 10.83333, "population": 8247}, {"name": "Bonabéri", "lat": 4.07142, "lng": 9.68177, "population": 8091}, {"name": "Kontcha", "lat": 7.96667, "lng": 12.23333, "population": 8018}, {"name": "Yabassi", "lat": 4.45697, "lng": 9.96822, "population": 7560}, {"name": "Bansoa", "lat": 5.44836, "lng": 10.31355, "population": 7560}, {"name": "Ngou", "lat": 5.19685, "lng": 10.38595, "population": 7560}, {"name": "Makary", "lat": 12.57535, "lng": 14.45483, "population": 7331}, {"name": "Bekondo", "lat": 4.6819, "lng": 9.3214, "population": 7331}, {"name": "Bélel", "lat": 7.05, "lng": 14.43333, "population": 6831}, {"name": "Bamendjou", "lat": 5.38988, "lng": 10.33014, "population": 6643}, {"name": "Ngambé", "lat": 4.23343, "lng": 10.61532, "population": 6414}, {"name": "Ntui", "lat": 4.45, "lng": 11.63333, "population": 6185}, {"name": "Mme-Bafumen", "lat": 6.33333, "lng": 10.23333, "population": 6149}, {"name": "Saa", "lat": 4.36667, "lng": 11.45, "population": 5727}, {"name": "Poli", "lat": 8.4756, "lng": 13.24097, "population": 5727}, {"name": "Bankim", "lat": 6.08303, "lng": 11.4905, "population": 5727}, {"name": "Bana", "lat": 5.14655, "lng": 10.27545, "population": 5727}, {"name": "Doumé", "lat": 4.23333, "lng": 13.45, "population": 5581}, {"name": "Nguti", "lat": 5.3299, "lng": 9.4185, "population": 5498}, {"name": "Ndom", "lat": 4.4978, "lng": 9.5628, "population": 5498}, {"name": "Okola", "lat": 4.01667, "lng": 11.38333, "population": 5390}, {"name": "Yoko", "lat": 5.53333, "lng": 12.31667, "population": 5269}, {"name": "Jakiri", "lat": 6.1, "lng": 10.65, "population": 5269}, {"name": "Ndelele", "lat": 4.04065, "lng": 14.92501, "population": 5040}, {"name": "Minta", "lat": 4.58333, "lng": 12.8, "population": 4934}, {"name": "Djohong", "lat": 6.83333, "lng": 14.7, "population": 4813}, {"name": "Dibombari", "lat": 4.1787, "lng": 9.6561, "population": 4811}, {"name": "Tignère", "lat": 7.36667, "lng": 12.65, "population": 4353}, {"name": "Ngomedzap", "lat": 3.25, "lng": 11.2, "population": 4284}, {"name": "Akono", "lat": 3.5, "lng": 11.33333, "population": 3821}, {"name": "Essé", "lat": 4.1, "lng": 11.9, "population": 3803}, {"name": "Koza", "lat": 10.86846, "lng": 13.88205, "population": 3665}, {"name": "Mbankomo", "lat": 3.78333, "lng": 11.38333, "population": 2387}, {"name": "Ngoro", "lat": 4.95, "lng": 11.38333, "population": 2305}, {"name": "Diang", "lat": 4.25, "lng": 10.01667, "population": 2062}, {"name": "Somié", "lat": 6.45843, "lng": 11.43299, "population": 2000}, {"name": "Mvangué", "lat": 2.96667, "lng": 11.51667, "population": 1908}, {"name": "Ombésa", "lat": 4.6, "lng": 11.25, "population": 1833}, {"name": "Mouanko", "lat": 3.63972, "lng": 9.77694, "population": 1604}, {"name": "Évodoula", "lat": 4.08333, "lng": 11.2, "population": 1521}, {"name": "Mbang", "lat": 4.58333, "lng": 13.33333, "population": 1237}]