[{"name": "Shanghai", "lat": 31.22222, "lng": 121.45806, "population": 24874500}, {"name": "Beijing", "lat": 39.9075, "lng": 116.39723, "population": 18960744}, {"name": "Shenzhen", "lat": 22.54554, "lng": 114.0683, "population": 17494398}, {"name": "Guangzhou", "lat": 23.11667, "lng": 113.25, "population": 16096724}, {"name": "Chengdu", "lat": 30.66667, "lng": 104.06667, "population": 13568357}, {"name": "Tianjin", "lat": 39.14222, "lng": 117.17667, "population": 11090314}, {"name": "Wuhan", "lat": 30.58333, "lng": 114.26667, "population": 10392693}, {"name": "Dongguan", "lat": 23.01797, "lng": 113.74866, "population": 9644871}, {"name": "Xi’an", "lat": 34.25833, "lng": 108.92861, "population": 9600000}, {"name": "Nanjing", "lat": 32.06167, "lng": 118.77778, "population": 9314685}, {"name": "Hangzhou", "lat": 30.29365, "lng": 120.16142, "population": 9236032}, {"name": "Foshan", "lat": 23.02677, "lng": 113.13148, "population": 9042509}, {"name": "Chongqing", "lat": 29.56026, "lng": 106.55771, "population": 7457599}, {"name": "Qingdao", "lat": 36.06488, "lng": 120.38042, "population": 7172451}, {"name": "Shenyang", "lat": 41.79222, "lng": 123.43278, "population": 7050000}, {"name": "Suzhou", "lat": 31.30408, "lng": 120.59538, "population": 6715559}, {"name": "Harbin", "lat": 45.75, "lng": 126.65, "population": 5242897}, {"name": "Hefei", "lat": 31.86389, "lng": 117.28083, "population": 5050000}, {"name": "Dalian", "lat": 38.91222, "lng": 121.60222, "population": 4913879}, {"name": "Changchun", "lat": 43.88, "lng": 125.32278, "population": 4714996}, {"name": "Xiamen", "lat": 24.47979, "lng": 118.08187, "population": 4617251}, {"name": "Bao'an", "lat": 22.55213, "lng": 113.88288, "population": 4476554}, {"name": "Wuxi", "lat": 31.56887, "lng": 120.28857, "population": 4396835}, {"name": "Jinan", "lat": 36.66833, "lng": 116.99722, "population": 4335989}, {"name": "Taiyuan", "lat": 37.86944, "lng": 112.56028, "population": 4303673}, {"name": "Zhengzhou", "lat": 34.75778, "lng": 113.64861, "population": 4253913}, {"name": "Shijiazhuang", "lat": 38.04139, "lng": 114.47861, "population": 3938513}, {"name": "Kunming", "lat": 25.03889, "lng": 102.71833, "population": 3855346}, {"name": "Zhongshan", "lat": 22.52306, "lng": 113.37912, "population": 3841873}, {"name": "Nanning", "lat": 22.81667, "lng": 108.31667, "population": 3839800}, {"name": "Shantou", "lat": 23.35489, "lng": 116.67876, "population": 3838900}, {"name": "Fuzhou", "lat": 26.06139, "lng": 119.30611, "population": 3740000}, {"name": "Ningbo", "lat": 29.87819, "lng": 121.54945, "population": 3731203}, {"name": "Puyang", "lat": 29.45679, "lng": 119.88872, "population": 3590000}, {"name": "Shiyan", "lat": 32.6475, "lng": 110.77806, "population": 3460000}, {"name": "Tangshan", "lat": 39.64381, "lng": 118.18319, "population": 3372102}, {"name": "Lüliang", "lat": 37.5192, "lng": 111.14436, "population": 3346500}, {"name": "Changzhou", "lat": 31.77359, "lng": 119.95401, "population": 3290918}, {"name": "Zibo", "lat": 36.79056, "lng": 118.06333, "population": 3129228}, {"name": "Changsha", "lat": 28.19874, "lng": 112.97087, "population": 3093980}, {"name": "Guiyang", "lat": 26.58333, "lng": 106.71667, "population": 3037159}, {"name": "Ürümqi", "lat": 43.80096, "lng": 87.60046, "population": 3029372}, {"name": "Lanzhou", "lat": 36.05701, "lng": 103.83987, "population": 3000000}, {"name": "Huizhou", "lat": 23.11147, "lng": 114.41523, "population": 2900113}, {"name": "Haikou", "lat": 20.03421, "lng": 110.34651, "population": 2873358}, {"name": "Linyi", "lat": 35.06306, "lng": 118.34278, "population": 2743843}, {"name": "Baoding", "lat": 38.87288, "lng": 115.46246, "population": 2739887}, {"name": "Wenzhou", "lat": 27.99942, "lng": 120.66682, "population": 2650000}, {"name": "Yunfu", "lat": 22.92787, "lng": 112.03809, "population": 2612800}, {"name": "Huai'an", "lat": 33.58861, "lng": 119.01917, "population": 2494013}, {"name": "Nanchang", "lat": 28.68396, "lng": 115.85306, "population": 2357839}, {"name": "Hohhot", "lat": 40.81056, "lng": 111.65222, "population": 2350000}, {"name": "Shaoxing", "lat": 30.00237, "lng": 120.57864, "population": 2300000}, {"name": "Nantong", "lat": 32.03028, "lng": 120.87472, "population": 2273326}, {"name": "Yantai", "lat": 37.47649, "lng": 121.44081, "population": 2227733}, {"name": "Zhuhai", "lat": 22.27694, "lng": 113.56778, "population": 2207090}, {"name": "Baotou", "lat": 40.6516, "lng": 109.84389, "population": 2150000}, {"name": "Qingyang", "lat": 35.70976, "lng": 107.64455, "population": 2125400}, {"name": "Kunshan", "lat": 31.37762, "lng": 120.95431, "population": 2092496}, {"name": "Weifang", "lat": 36.71, "lng": 119.10194, "population": 2044028}, {"name": "Zunyi", "lat": 27.68667, "lng": 106.90722, "population": 2037775}, {"name": "Lianyungang", "lat": 34.59845, "lng": 119.21556, "population": 2001009}, {"name": "Ganzhou", "lat": 25.84664, "lng": 114.9326, "population": 1977253}, {"name": "Ordos", "lat": 39.6086, "lng": 109.78157, "population": 1940653}, {"name": "Jieyang", "lat": 23.5418, "lng": 116.36581, "population": 1899394}, {"name": "Jilin", "lat": 43.84652, "lng": 126.5608, "population": 1895865}, {"name": "Nanchong", "lat": 30.79508, "lng": 106.08473, "population": 1858875}, {"name": "Datong", "lat": 40.09361, "lng": 113.29139, "population": 1850000}, {"name": "Nanyang", "lat": 32.99472, "lng": 112.53278, "population": 1811812}, {"name": "Jiangmen", "lat": 22.58333, "lng": 113.08333, "population": 1795459}, {"name": "Jiangyin", "lat": 31.91102, "lng": 120.26302, "population": 1779515}, {"name": "Fuyang", "lat": 32.9, "lng": 115.81667, "population": 1768947}, {"name": "Bayan Nur", "lat": 40.74143, "lng": 107.38599, "population": 1760000}, {"name": "Chaozhou", "lat": 23.65396, "lng": 116.62262, "population": 1750945}, {"name": "Qingyuan", "lat": 23.7, "lng": 113.03333, "population": 1738424}, {"name": "Tai’an", "lat": 36.18528, "lng": 117.12, "population": 1735425}, {"name": "Xining", "lat": 36.62554, "lng": 101.75739, "population": 1677177}, {"name": "Changshu", "lat": 31.64615, "lng": 120.74221, "population": 1677050}, {"name": "Huainan", "lat": 32.62639, "lng": 116.99694, "population": 1666826}, {"name": "Suzhou", "lat": 33.63611, "lng": 116.97889, "population": 1647642}, {"name": "Lu’an", "lat": 31.73561, "lng": 116.51688, "population": 1644344}, {"name": "Yancheng", "lat": 33.3575, "lng": 120.1573, "population": 1615717}, {"name": "Taizhou", "lat": 32.49069, "lng": 119.90812, "population": 1607108}, {"name": "Daqing", "lat": 46.58333, "lng": 125.0, "population": 1604027}, {"name": "Wuhu", "lat": 31.35259, "lng": 118.42947, "population": 1598165}, {"name": "Dazhou", "lat": 31.2106, "lng": 107.46308, "population": 1589435}, {"name": "Yangzhou", "lat": 32.39722, "lng": 119.43583, "population": 1584237}, {"name": "Guilin", "lat": 25.28022, "lng": 110.29639, "population": 1572300}, {"name": "Zhaoqing", "lat": 23.04893, "lng": 112.46091, "population": 1553109}, {"name": "Mianyang", "lat": 31.46784, "lng": 104.68168, "population": 1550000}, {"name": "Wanzhou", "lat": 30.76451, "lng": 108.39586, "population": 1545900}, {"name": "Putian", "lat": 25.43944, "lng": 119.01028, "population": 1539389}, {"name": "Shangqiu", "lat": 34.45, "lng": 115.65, "population": 1536392}, {"name": "Yinchuan", "lat": 38.46806, "lng": 106.27306, "population": 1487579}, {"name": "Taizhou", "lat": 28.66266, "lng": 121.43312, "population": 1485502}, {"name": "Yiwu", "lat": 29.31506, "lng": 120.07676, "population": 1481384}, {"name": "Quanzhou", "lat": 24.91389, "lng": 118.58583, "population": 1469157}, {"name": "Jinhua", "lat": 29.10678, "lng": 119.64421, "population": 1463990}, {"name": "Cixi", "lat": 30.1764, "lng": 121.2457, "population": 1457510}, {"name": "Changde", "lat": 29.03205, "lng": 111.69844, "population": 1457419}, {"name": "Kaifeng", "lat": 34.7986, "lng": 114.30742, "population": 1451741}, {"name": "Anshan", "lat": 41.12361, "lng": 122.99, "population": 1450000}, {"name": "Baoji", "lat": 34.36775, "lng": 107.23705, "population": 1437802}, {"name": "Suqian", "lat": 33.94917, "lng": 118.29583, "population": 1437685}, {"name": "Liuzhou", "lat": 24.32405, "lng": 109.40698, "population": 1436599}, {"name": "Zhangjiagang", "lat": 31.865, "lng": 120.53889, "population": 1432044}, {"name": "Jinjiang", "lat": 24.81978, "lng": 118.57415, "population": 1416151}, {"name": "Bozhou", "lat": 33.87722, "lng": 115.77028, "population": 1409436}, {"name": "Qujing", "lat": 25.48333, "lng": 103.78333, "population": 1408500}, {"name": "Zhanjiang", "lat": 21.23391, "lng": 110.38749, "population": 1400709}, {"name": "Fushun", "lat": 41.88669, "lng": 123.94363, "population": 1400646}, {"name": "Luoyang", "lat": 34.67345, "lng": 112.43684, "population": 1390581}, {"name": "Guankou", "lat": 28.15861, "lng": 113.62709, "population": 1380000}, {"name": "Handan", "lat": 36.60999, "lng": 114.48764, "population": 1358318}, {"name": "Yichang", "lat": 30.71444, "lng": 111.28472, "population": 1350150}, {"name": "Heze", "lat": 35.23929, "lng": 115.47358, "population": 1346717}, {"name": "Liupanshui", "lat": 26.59444, "lng": 104.83333, "population": 1320825}, {"name": "Maoming", "lat": 21.66625, "lng": 110.91364, "population": 1307802}, {"name": "Qinzhou", "lat": 21.98247, "lng": 108.65061, "population": 1296300}, {"name": "Luohe", "lat": 33.56394, "lng": 114.04272, "population": 1294974}, {"name": "Xiangyang", "lat": 32.0422, "lng": 112.14479, "population": 1294733}, {"name": "Yangjiang", "lat": 21.85563, "lng": 111.96272, "population": 1292987}, {"name": "Yixing", "lat": 31.36059, "lng": 119.82016, "population": 1285785}, {"name": "Xuchang", "lat": 34.03189, "lng": 113.86299, "population": 1265536}, {"name": "Zigong", "lat": 29.34162, "lng": 104.77689, "population": 1262064}, {"name": "Xuzhou", "lat": 34.20442, "lng": 117.28386, "population": 1253991}, {"name": "Neijiang", "lat": 29.58354, "lng": 105.06216, "population": 1251095}, {"name": "Heshan", "lat": 28.56938, "lng": 112.34733, "population": 1249807}, {"name": "Jining", "lat": 35.405, "lng": 116.58139, "population": 1241012}, {"name": "Xinyang", "lat": 32.12278, "lng": 114.06556, "population": 1230042}, {"name": "Liaocheng", "lat": 36.45064, "lng": 116.00247, "population": 1229768}, {"name": "Jinzhong", "lat": 37.68403, "lng": 112.75471, "population": 1226617}, {"name": "Changzhi", "lat": 36.18389, "lng": 113.10528, "population": 1214940}, {"name": "Tianshui", "lat": 34.57952, "lng": 105.74238, "population": 1212791}, {"name": "Weinan", "lat": 34.50355, "lng": 109.50891, "population": 1199290}, {"name": "Jiaxing", "lat": 30.7522, "lng": 120.75, "population": 1180000}, {"name": "Jiujiang", "lat": 29.70475, "lng": 116.00206, "population": 1164268}, {"name": "Anyang", "lat": 36.096, "lng": 114.38278, "population": 1146839}, {"name": "Luohu District", "lat": 22.54721, "lng": 114.13149, "population": 1143801}, {"name": "Bijie", "lat": 27.30193, "lng": 105.28627, "population": 1137383}, {"name": "Zhuzhou", "lat": 27.83333, "lng": 113.15, "population": 1129687}, {"name": "Shangrao", "lat": 28.45179, "lng": 117.94287, "population": 1116486}, {"name": "Huaibei", "lat": 33.97444, "lng": 116.79167, "population": 1113321}, {"name": "Meishan", "lat": 30.04392, "lng": 103.83696, "population": 1107742}, {"name": "Fuzhou", "lat": 27.95999, "lng": 116.33333, "population": 1089888}, {"name": "Guigang", "lat": 23.11603, "lng": 109.59472, "population": 1086327}, {"name": "Hengyang", "lat": 26.88946, "lng": 112.61888, "population": 1075516}, {"name": "Yulin", "lat": 22.6305, "lng": 110.14686, "population": 1056743}, {"name": "Jingzhou", "lat": 30.35028, "lng": 112.19028, "population": 1052282}, {"name": "Xinxiang", "lat": 35.19033, "lng": 113.80151, "population": 1047088}, {"name": "Yichun", "lat": 27.83333, "lng": 114.4, "population": 1045952}, {"name": "Xianyang", "lat": 34.33778, "lng": 108.70261, "population": 1034081}, {"name": "Sanya", "lat": 18.25435, "lng": 109.50947, "population": 1031396}, {"name": "Shaoguan", "lat": 24.8, "lng": 113.58333, "population": 1028460}, {"name": "Longyan", "lat": 25.07485, "lng": 117.01775, "population": 1025087}, {"name": "Yongzhou", "lat": 26.42389, "lng": 111.61306, "population": 1020715}, {"name": "Huzhou", "lat": 30.8703, "lng": 120.0933, "population": 1015937}, {"name": "Wuwei", "lat": 37.92672, "lng": 102.63202, "population": 1010295}, {"name": "Hanzhong", "lat": 33.07507, "lng": 107.02214, "population": 1006557}, {"name": "Hezhou", "lat": 24.40357, "lng": 111.56675, "population": 1005490}, {"name": "Zhu Cheng City", "lat": 35.99502, "lng": 119.40259, "population": 1000000}, {"name": "Dongying", "lat": 37.46271, "lng": 118.49165, "population": 998968}, {"name": "Luzhou", "lat": 28.8903, "lng": 105.42575, "population": 998900}, {"name": "Meizhou", "lat": 24.28859, "lng": 116.11768, "population": 992351}, {"name": "Yueyang", "lat": 29.37455, "lng": 113.09481, "population": 991465}, {"name": "Laiwu", "lat": 36.19278, "lng": 117.65694, "population": 989535}, {"name": "Benxi", "lat": 41.28861, "lng": 123.765, "population": 987717}, {"name": "Pingdingshan", "lat": 33.73091, "lng": 113.31554, "population": 979130}, {"name": "Bengbu", "lat": 32.94083, "lng": 117.36083, "population": 972784}, {"name": "Sanhe", "lat": 39.98049, "lng": 117.06887, "population": 965075}, {"name": "Xiangtan", "lat": 27.85, "lng": 112.9, "population": 959303}, {"name": "Linfen", "lat": 36.08889, "lng": 111.51889, "population": 959198}, {"name": "Zhenjiang", "lat": 32.21086, "lng": 119.45508, "population": 950516}, {"name": "Huludao", "lat": 40.75243, "lng": 120.83552, "population": 944495}, {"name": "Baoshan", "lat": 25.11626, "lng": 99.16366, "population": 935618}, {"name": "Rui’an", "lat": 27.77605, "lng": 120.65859, "population": 927383}, {"name": "Laibin", "lat": 23.74743, "lng": 109.22222, "population": 910282}, {"name": "Xiaogan", "lat": 30.92689, "lng": 113.92221, "population": 908266}, {"name": "Ziyang", "lat": 30.12108, "lng": 104.64811, "population": 905729}, {"name": "Quzhou", "lat": 28.95944, "lng": 118.86861, "population": 902767}, {"name": "Zaozhuang", "lat": 34.86472, "lng": 117.55417, "population": 899753}, {"name": "Pingxiang", "lat": 27.61672, "lng": 113.85353, "population": 893550}, {"name": "Zhoushan", "lat": 29.98869, "lng": 122.20488, "population": 882932}, {"name": "Qiqihar", "lat": 47.33922, "lng": 123.96154, "population": 882364}, {"name": "Puning", "lat": 23.31072, "lng": 116.16869, "population": 874954}, {"name": "Ankang", "lat": 32.68, "lng": 109.01722, "population": 870126}, {"name": "Langfang", "lat": 39.52079, "lng": 116.71471, "population": 868066}, {"name": "Jiaozuo", "lat": 35.23925, "lng": 113.23914, "population": 865413}, {"name": "Wanxian", "lat": 30.81601, "lng": 108.37407, "population": 859662}, {"name": "Guang’an", "lat": 30.47413, "lng": 106.63696, "population": 858159}, {"name": "Weihai", "lat": 37.50914, "lng": 122.11356, "population": 844310}, {"name": "Zhabei", "lat": 31.25861, "lng": 121.45972, "population": 840000}, {"name": "Xinyu", "lat": 27.80429, "lng": 114.93335, "population": 839488}, {"name": "Yibin", "lat": 28.7593, "lng": 104.63994, "population": 836340}, {"name": "Taicang", "lat": 31.44778, "lng": 121.09389, "population": 831113}, {"name": "Chenzhou", "lat": 25.8, "lng": 113.03333, "population": 822534}, {"name": "Anqing", "lat": 30.51365, "lng": 117.04723, "population": 804493}, {"name": "Xingtai", "lat": 37.06217, "lng": 114.49272, "population": 798770}, {"name": "Zhaotong", "lat": 27.31667, "lng": 103.71667, "population": 787845}, {"name": "Panzhihua", "lat": 26.58509, "lng": 101.71276, "population": 787177}, {"name": "Chuzhou", "lat": 32.32194, "lng": 118.29778, "population": 782671}, {"name": "Xuancheng", "lat": 30.9525, "lng": 118.75528, "population": 774332}, {"name": "Shangyu", "lat": 30.01556, "lng": 120.87111, "population": 770000}, {"name": "Anshun", "lat": 26.25, "lng": 105.93333, "population": 765313}, {"name": "Wuzhou", "lat": 23.48054, "lng": 111.28848, "population": 761948}, {"name": "Qinhuangdao", "lat": 39.94104, "lng": 119.58936, "population": 759718}, {"name": "Shaoyang", "lat": 27.23818, "lng": 111.46214, "population": 753194}, {"name": "Hegang", "lat": 47.34727, "lng": 130.29033, "population": 743307}, {"name": "Ma’anshan", "lat": 31.68579, "lng": 118.51008, "population": 741531}, {"name": "Shizuishan", "lat": 38.98082, "lng": 106.3892, "population": 739400}, {"name": "Deyang", "lat": 31.13019, "lng": 104.38198, "population": 735070}, {"name": "Yangquan", "lat": 37.8575, "lng": 113.56333, "population": 731228}, {"name": "Zhumadian", "lat": 32.97944, "lng": 114.02944, "population": 721670}, {"name": "Changzhi", "lat": 35.20889, "lng": 111.73861, "population": 699514}, {"name": "Zhangjiakou", "lat": 40.78341, "lng": 114.87139, "population": 692602}, {"name": "Fuxin", "lat": 42.01556, "lng": 121.65889, "population": 689050}, {"name": "Changsha", "lat": 22.38124, "lng": 112.68492, "population": 688242}, {"name": "Huangshi", "lat": 30.24706, "lng": 115.04814, "population": 688090}, {"name": "Liaoyang", "lat": 41.27194, "lng": 123.17306, "population": 687890}, {"name": "Baise", "lat": 23.89013, "lng": 106.62684, "population": 686078}, {"name": "Binzhou", "lat": 37.36667, "lng": 118.01667, "population": 682717}, {"name": "Yuncheng", "lat": 35.02306, "lng": 110.99278, "population": 680036}, {"name": "Dezhou", "lat": 37.44661, "lng": 116.36706, "population": 679535}, {"name": "Sanmenxia", "lat": 34.78081, "lng": 111.19287, "population": 669307}, {"name": "E’zhou", "lat": 30.39607, "lng": 114.88655, "population": 668727}, {"name": "Mudanjiang", "lat": 44.54804, "lng": 129.62594, "population": 665915}, {"name": "Leshan", "lat": 29.56227, "lng": 103.76386, "population": 662814}, {"name": "Rizhao", "lat": 35.41414, "lng": 119.52908, "population": 661943}, {"name": "Suining", "lat": 30.50802, "lng": 105.57332, "population": 656760}, {"name": "Puyang", "lat": 35.75641, "lng": 115.04363, "population": 655674}, {"name": "Hebi", "lat": 35.73231, "lng": 114.28616, "population": 634721}, {"name": "Jingmen", "lat": 31.03361, "lng": 112.20472, "population": 632954}, {"name": "Dandong", "lat": 40.12917, "lng": 124.39472, "population": 631973}, {"name": "Panshan", "lat": 41.18806, "lng": 122.04944, "population": 625040}, {"name": "Jiaozhou", "lat": 36.28389, "lng": 120.00333, "population": 619266}, {"name": "Suizhou", "lat": 31.71111, "lng": 113.36306, "population": 618582}, {"name": "Chizhou", "lat": 30.66134, "lng": 117.47783, "population": 615274}, {"name": "Ya'an", "lat": 29.98521, "lng": 102.999, "population": 612056}, {"name": "Jinzhou", "lat": 41.10778, "lng": 121.14167, "population": 604269}, {"name": "Sanming", "lat": 26.24861, "lng": 117.61861, "population": 602166}, {"name": "Shuangyashan", "lat": 46.67686, "lng": 131.13273, "population": 600000}, {"name": "Luancheng", "lat": 37.88452, "lng": 114.64629, "population": 597130}, {"name": "Mengzi", "lat": 23.36779, "lng": 103.38212, "population": 595100}, {"name": "Yingkou", "lat": 40.66472, "lng": 122.23176, "population": 591159}, {"name": "Zhangzhou", "lat": 24.51333, "lng": 117.65556, "population": 589831}, {"name": "Shihezi", "lat": 44.3023, "lng": 86.03694, "population": 572772}, {"name": "Wenchang", "lat": 19.55158, "lng": 110.80279, "population": 560894}, {"name": "Siping", "lat": 43.16143, "lng": 124.37785, "population": 555609}, {"name": "Chuxiong", "lat": 25.03639, "lng": 101.54556, "population": 555081}, {"name": "Huaihua", "lat": 27.56337, "lng": 110.00404, "population": 552622}, {"name": "Ulanqab", "lat": 40.993, "lng": 113.133, "population": 550231}, {"name": "Jiamusi", "lat": 46.79711, "lng": 130.31118, "population": 549549}, {"name": "Korla", "lat": 41.76055, "lng": 86.15231, "population": 549324}, {"name": "Wanning", "lat": 18.79931, "lng": 110.3841, "population": 545992}, {"name": "Xinzhou", "lat": 38.40917, "lng": 112.73333, "population": 544683}, {"name": "Pingdu", "lat": 36.78444, "lng": 119.94639, "population": 542234}, {"name": "Ji’an", "lat": 27.11716, "lng": 114.97927, "population": 538699}, {"name": "Guli", "lat": 28.88162, "lng": 120.03308, "population": 536000}, {"name": "Aqsu", "lat": 41.18418, "lng": 80.27921, "population": 535657}, {"name": "Tanggu", "lat": 39.02111, "lng": 117.64694, "population": 535298}, {"name": "Shangluo", "lat": 33.86667, "lng": 109.93056, "population": 531696}, {"name": "Qionghai", "lat": 19.2425, "lng": 110.46417, "population": 528238}, {"name": "Cangzhou", "lat": 38.31124, "lng": 116.85334, "population": 527681}, {"name": "Beihai", "lat": 21.48349, "lng": 109.11549, "population": 525329}, {"name": "Hengshui", "lat": 37.73908, "lng": 115.68348, "population": 522147}, {"name": "Guangyuan", "lat": 32.44201, "lng": 105.823, "population": 516424}, {"name": "Xianning", "lat": 29.84347, "lng": 114.32201, "population": 512517}, {"name": "Tonghua", "lat": 41.71972, "lng": 125.92639, "population": 510000}, {"name": "Mianzhu, Deyang, Sichuan", "lat": 31.33786, "lng": 104.22057, "population": 510000}, {"name": "Banan", "lat": 29.37861, "lng": 106.54, "population": 508703}, {"name": "Zhangye", "lat": 38.93417, "lng": 100.45167, "population": 507433}, {"name": "Kashgar", "lat": 39.46718, "lng": 75.98675, "population": 506640}, {"name": "Zhoukou", "lat": 33.63333, "lng": 114.63333, "population": 505171}, {"name": "Pingliang", "lat": 35.53917, "lng": 106.68611, "population": 504848}, {"name": "Zhucheng", "lat": 35.99472, "lng": 119.3975, "population": 499285}, {"name": "Loudi", "lat": 27.73444, "lng": 111.99444, "population": 497171}, {"name": "Shanwei", "lat": 22.78199, "lng": 115.3475, "population": 491766}, {"name": "Jianshui", "lat": 24.2774, "lng": 101.224, "population": 490000}, {"name": "Xichang", "lat": 27.89642, "lng": 102.26341, "population": 481796}, {"name": "Chéngguān Qū", "lat": 29.63842, "lng": 91.04441, "population": 478275}, {"name": "Jincheng", "lat": 35.50222, "lng": 112.83278, "population": 476945}, {"name": "Yan’an", "lat": 36.59889, "lng": 109.49167, "population": 475234}, {"name": "Shouguang", "lat": 36.88, "lng": 118.7375, "population": 473620}, {"name": "Jingdezhen", "lat": 29.2947, "lng": 117.20789, "population": 473561}, {"name": "Jiaojiang", "lat": 28.69844, "lng": 121.47331, "population": 470804}, {"name": "Nanping", "lat": 26.645, "lng": 118.17361, "population": 467875}, {"name": "Longshan", "lat": 42.88545, "lng": 125.1367, "population": 465249}, {"name": "Heyuan", "lat": 23.73333, "lng": 114.68333, "population": 463907}, {"name": "Huangshan", "lat": 29.71139, "lng": 118.3125, "population": 460786}, {"name": "Wafangdian", "lat": 39.61833, "lng": 122.00806, "population": 454338}, {"name": "Lishui", "lat": 28.46042, "lng": 119.91029, "population": 451418}, {"name": "Wenshan City", "lat": 23.36306, "lng": 104.25047, "population": 450000}, {"name": "Chengde", "lat": 40.9519, "lng": 117.95883, "population": 449325}, {"name": "Basuo", "lat": 19.10267, "lng": 108.66565, "population": 444458}, {"name": "Zhangjiajie", "lat": 29.12944, "lng": 110.47833, "population": 441804}, {"name": "Bei’an", "lat": 48.26667, "lng": 126.6, "population": 436444}, {"name": "Ningde", "lat": 26.66167, "lng": 119.52278, "population": 429260}, {"name": "Jiuquan", "lat": 39.74318, "lng": 98.51736, "population": 428346}, {"name": "Dingxi", "lat": 35.57088, "lng": 104.62303, "population": 420614}, {"name": "Tongchuan", "lat": 34.8988, "lng": 108.95056, "population": 417740}, {"name": "Guyuan", "lat": 36.00667, "lng": 106.28083, "population": 411854}, {"name": "Chaoyang", "lat": 41.57028, "lng": 120.45861, "population": 410005}, {"name": "Gujangbagh", "lat": 37.10927, "lng": 79.93433, "population": 408894}, {"name": "Jixi", "lat": 45.29322, "lng": 130.96217, "population": 403759}, {"name": "Tongling", "lat": 30.95, "lng": 117.78333, "population": 402062}, {"name": "Gaomi", "lat": 36.38333, "lng": 119.75278, "population": 391986}, {"name": "Chongzuo", "lat": 22.38161, "lng": 107.3683, "population": 384905}, {"name": "Tanzhou", "lat": 22.25503, "lng": 113.46692, "population": 382445}, {"name": "Hechuan", "lat": 29.99228, "lng": 106.26461, "population": 377213}, {"name": "Xuanhua", "lat": 40.61205, "lng": 115.06463, "population": 373422}, {"name": "Fenghuang", "lat": 27.93557, "lng": 109.59961, "population": 370000}, {"name": "Huanggang", "lat": 30.45143, "lng": 114.87035, "population": 366769}, {"name": "Anqiu", "lat": 36.43417, "lng": 119.1925, "population": 364208}, {"name": "Jizhou", "lat": 37.55054, "lng": 115.56871, "population": 362013}, {"name": "Huocheng", "lat": 44.05305, "lng": 80.87173, "population": 360000}, {"name": "Lhoka", "lat": 29.24301, "lng": 91.77239, "population": 353700}, {"name": "Pengze", "lat": 29.89885, "lng": 116.54572, "population": 350000}, {"name": "Xilinhot", "lat": 43.93889, "lng": 116.07021, "population": 349953}, {"name": "Hulunbuir", "lat": 49.21141, "lng": 119.75582, "population": 349400}, {"name": "Daye", "lat": 30.08333, "lng": 114.95, "population": 347406}, {"name": "Chifeng", "lat": 42.26833, "lng": 118.96361, "population": 346654}, {"name": "Yunlong", "lat": 34.25281, "lng": 117.25167, "population": 345393}, {"name": "Qitaihe", "lat": 45.768, "lng": 130.9953, "population": 345033}, {"name": "Pizhou", "lat": 34.31139, "lng": 117.95028, "population": 343421}, {"name": "Shiqi", "lat": 22.51682, "lng": 113.38521, "population": 342306}, {"name": "Laixi", "lat": 36.85917, "lng": 120.52694, "population": 341470}, {"name": "Tieling", "lat": 42.29306, "lng": 123.84139, "population": 333907}, {"name": "Hechi", "lat": 24.69285, "lng": 108.08376, "population": 330131}, {"name": "Tongshan", "lat": 34.18045, "lng": 117.15707, "population": 329661}, {"name": "Yanji", "lat": 42.88825, "lng": 129.50241, "population": 326957}, {"name": "Lincang", "lat": 23.87972, "lng": 100.09455, "population": 323708}, {"name": "Xingyi", "lat": 25.09617, "lng": 104.90639, "population": 322890}, {"name": "Tantou", "lat": 22.75121, "lng": 113.83496, "population": 320304}, {"name": "Baicheng", "lat": 45.61751, "lng": 122.83302, "population": 316970}, {"name": "Lianshan", "lat": 40.76432, "lng": 120.85327, "population": 313247}, {"name": "Changyi", "lat": 36.85361, "lng": 119.39083, "population": 302072}, {"name": "Xinyi", "lat": 34.38424, "lng": 118.34617, "population": 300511}, {"name": "Yangshuo", "lat": 24.78081, "lng": 110.48967, "population": 300000}, {"name": "Linqu", "lat": 36.51556, "lng": 118.53972, "population": 299646}, {"name": "Simao", "lat": 22.78863, "lng": 100.97481, "population": 296565}, {"name": "Baiyin", "lat": 36.54696, "lng": 104.17023, "population": 294400}, {"name": "Gaozhou", "lat": 21.91965, "lng": 110.85678, "population": 292164}, {"name": "Xiuying", "lat": 20.00073, "lng": 110.29359, "population": 290000}, {"name": "Dengzhou", "lat": 32.68273, "lng": 112.08873, "population": 285032}, {"name": "Artux", "lat": 39.70842, "lng": 76.17971, "population": 285000}, {"name": "Xinyuan", "lat": 43.42649, "lng": 83.24959, "population": 282718}, {"name": "Enshi", "lat": 30.3, "lng": 109.48333, "population": 279185}, {"name": "Binhe", "lat": 32.68833, "lng": 112.8275, "population": 278055}, {"name": "Zoucheng", "lat": 35.40056, "lng": 116.96556, "population": 277400}, {"name": "Fangchenggang", "lat": 21.76945, "lng": 108.35661, "population": 276315}, {"name": "Kaili", "lat": 26.58583, "lng": 107.97972, "population": 275745}, {"name": "Xingning", "lat": 24.1483, "lng": 115.72272, "population": 274499}, {"name": "Linxia Chengguanzhen", "lat": 35.60028, "lng": 103.20639, "population": 274466}, {"name": "Turpan", "lat": 42.94769, "lng": 89.17886, "population": 273385}, {"name": "Longling County", "lat": 24.58663, "lng": 98.68934, "population": 270000}, {"name": "Ghulja", "lat": 43.91515, "lng": 81.32151, "population": 269158}, {"name": "Fuling", "lat": 29.70997, "lng": 107.39391, "population": 268658}, {"name": "Chengzhong", "lat": 30.94454, "lng": 113.55284, "population": 265886}, {"name": "Hulan Ergi", "lat": 47.20417, "lng": 123.63333, "population": 265344}, {"name": "Donghai", "lat": 22.94593, "lng": 115.64204, "population": 264709}, {"name": "Dongtai", "lat": 32.85231, "lng": 120.30947, "population": 262873}, {"name": "Karamay", "lat": 45.58473, "lng": 84.88724, "population": 261445}, {"name": "Tongliao", "lat": 43.6125, "lng": 122.26528, "population": 261110}, {"name": "Nianbo", "lat": 36.48, "lng": 102.41639, "population": 260184}, {"name": "Changle", "lat": 36.70583, "lng": 118.8275, "population": 259161}, {"name": "Jining", "lat": 41.0275, "lng": 113.10583, "population": 258757}, {"name": "Rugao", "lat": 32.37035, "lng": 120.57649, "population": 257400}, {"name": "Suicheng", "lat": 33.8963, "lng": 117.93307, "population": 256665}, {"name": "Nada", "lat": 19.52134, "lng": 109.57895, "population": 256652}, {"name": "Yanzhou", "lat": 35.55278, "lng": 116.82861, "population": 254788}, {"name": "Laohekou", "lat": 32.38583, "lng": 111.66778, "population": 253112}, {"name": "Suihua", "lat": 46.64814, "lng": 126.96656, "population": 252245}, {"name": "Beibei", "lat": 29.82739, "lng": 106.43645, "population": 247702}, {"name": "Shijie", "lat": 23.09546, "lng": 113.79195, "population": 246960}, {"name": "Hami", "lat": 42.83393, "lng": 93.50601, "population": 246373}, {"name": "Huayin", "lat": 34.56528, "lng": 110.06639, "population": 242488}, {"name": "Jiyuan", "lat": 35.08912, "lng": 112.58815, "population": 242143}, {"name": "Xiantao", "lat": 30.3708, "lng": 113.44294, "population": 239406}, {"name": "Qingzhou", "lat": 36.69667, "lng": 118.47972, "population": 236406}, {"name": "Yuci", "lat": 37.68028, "lng": 112.73194, "population": 235929}, {"name": "Bole", "lat": 44.89334, "lng": 82.06993, "population": 235585}, {"name": "Dali", "lat": 25.58474, "lng": 100.21229, "population": 235305}, {"name": "Jiayuguan", "lat": 39.81121, "lng": 98.28618, "population": 231853}, {"name": "Changzheng", "lat": 31.23913, "lng": 121.36779, "population": 229925}, {"name": "Jinchang", "lat": 38.50062, "lng": 102.19379, "population": 228561}, {"name": "Fendou", "lat": 46.64142, "lng": 124.86283, "population": 226298}, {"name": "Huanggang", "lat": 23.67704, "lng": 116.99961, "population": 225956}, {"name": "Jingling", "lat": 30.65, "lng": 113.1, "population": 224871}, {"name": "Heihe", "lat": 50.24413, "lng": 127.49016, "population": 223832}, {"name": "Tongchuanshi", "lat": 35.07474, "lng": 109.08495, "population": 223603}, {"name": "Xintai", "lat": 35.90056, "lng": 117.75194, "population": 222459}, {"name": "Wuxue", "lat": 29.85058, "lng": 115.5525, "population": 220661}, {"name": "Wuhai", "lat": 39.68442, "lng": 106.81583, "population": 218427}, {"name": "Yintai", "lat": 35.11524, "lng": 109.09702, "population": 217509}, {"name": "Jinzhou", "lat": 39.1, "lng": 121.71667, "population": 215386}, {"name": "Longgang", "lat": 22.72289, "lng": 114.26326, "population": 215273}, {"name": "Yingtan", "lat": 28.23333, "lng": 117.0, "population": 214229}, {"name": "Zitong", "lat": 30.1782, "lng": 105.82991, "population": 212819}, {"name": "Luojiang", "lat": 31.30497, "lng": 104.50484, "population": 212186}, {"name": "Lijiang", "lat": 26.86879, "lng": 100.22072, "population": 211151}, {"name": "Hailar", "lat": 49.2, "lng": 119.7, "population": 211066}, {"name": "Daliang", "lat": 22.84067, "lng": 113.2503, "population": 210411}, {"name": "Bachuan", "lat": 29.84863, "lng": 106.05046, "population": 208520}, {"name": "Hangu", "lat": 39.24889, "lng": 117.78917, "population": 208369}, {"name": "Gunan", "lat": 29.0231, "lng": 106.648, "population": 208010}, {"name": "Jinghong", "lat": 22.00265, "lng": 100.7697, "population": 205523}, {"name": "Gongheyong", "lat": 22.75923, "lng": 113.79452, "population": 204881}, {"name": "Nanchuan", "lat": 29.15201, "lng": 107.10335, "population": 204775}, {"name": "Bishan", "lat": 29.59491, "lng": 106.22476, "population": 204702}, {"name": "Gaoping", "lat": 30.77576, "lng": 106.10294, "population": 204368}, {"name": "Nyingchi", "lat": 29.64885, "lng": 94.35509, "population": 200000}, {"name": "Beiliu", "lat": 22.70722, "lng": 110.34917, "population": 199769}, {"name": "Changji", "lat": 44.00782, "lng": 87.30461, "population": 198776}, {"name": "Duyun", "lat": 26.26667, "lng": 107.51667, "population": 198516}, {"name": "Kaiyuan", "lat": 23.69767, "lng": 103.30372, "population": 198423}, {"name": "Mentougou", "lat": 39.93819, "lng": 116.09307, "population": 197772}, {"name": "Lushui", "lat": 25.8232, "lng": 98.85853, "population": 197000}, {"name": "Jijiang", "lat": 29.28993, "lng": 106.25001, "population": 196787}, {"name": "Hanfeng", "lat": 31.16946, "lng": 108.4031, "population": 196528}, {"name": "Peicheng", "lat": 34.73611, "lng": 116.92472, "population": 195363}, {"name": "Ezhou", "lat": 30.4, "lng": 114.83333, "population": 193652}, {"name": "Zhengding", "lat": 38.14501, "lng": 114.56556, "population": 193524}, {"name": "Yongchuan", "lat": 29.35376, "lng": 105.89392, "population": 192954}, {"name": "Hepu", "lat": 21.65921, "lng": 109.20011, "population": 192813}, {"name": "Aihui", "lat": 49.97946, "lng": 127.48119, "population": 192764}, {"name": "Fuding", "lat": 27.32734, "lng": 120.21399, "population": 192352}, {"name": "Humen", "lat": 22.81899, "lng": 113.67306, "population": 191891}, {"name": "Haicheng", "lat": 40.85158, "lng": 122.74754, "population": 191651}, {"name": "Beipiao", "lat": 41.79194, "lng": 120.77917, "population": 190315}, {"name": "Jinshanlu", "lat": 47.8505, "lng": 88.13286, "population": 190064}, {"name": "Guixi", "lat": 30.33355, "lng": 107.34545, "population": 188980}, {"name": "Laizhou", "lat": 37.18073, "lng": 119.94217, "population": 188000}, {"name": "Huixing", "lat": 29.68403, "lng": 106.61486, "population": 186972}, {"name": "Changyuan", "lat": 29.40499, "lng": 105.58827, "population": 186653}, {"name": "Shangri-La", "lat": 27.82511, "lng": 99.70779, "population": 186400}, {"name": "Yangcheng", "lat": 29.99968, "lng": 106.25604, "population": 186242}, {"name": "Dunhuang", "lat": 40.16667, "lng": 94.68333, "population": 186027}, {"name": "Jing’an", "lat": 22.21072, "lng": 113.29218, "population": 186000}, {"name": "Zaoyang", "lat": 32.12722, "lng": 112.75417, "population": 184509}, {"name": "Baishan", "lat": 41.93853, "lng": 126.41965, "population": 183880}, {"name": "Zhenping", "lat": 33.03457, "lng": 112.22763, "population": 181528}, {"name": "Anda", "lat": 46.44867, "lng": 125.30161, "population": 181271}, {"name": "Pingwu County", "lat": 32.40732, "lng": 104.52738, "population": 180000}, {"name": "Qianjiang", "lat": 30.421, "lng": 112.8919, "population": 179079}, {"name": "Zhenzhou", "lat": 32.28034, "lng": 119.16999, "population": 176006}, {"name": "Xindi", "lat": 29.81667, "lng": 113.46667, "population": 175761}, {"name": "Fengcheng", "lat": 29.82587, "lng": 107.06019, "population": 175576}, {"name": "Jiutai", "lat": 44.15127, "lng": 125.82975, "population": 175115}, {"name": "Licheng", "lat": 23.29549, "lng": 113.82465, "population": 172775}, {"name": "Dongling", "lat": 41.81444, "lng": 123.57583, "population": 171454}, {"name": "Laiyang", "lat": 36.97583, "lng": 120.71361, "population": 169594}, {"name": "Ulanhot", "lat": 46.08333, "lng": 122.08333, "population": 165846}, {"name": "Songcheng", "lat": 26.88194, "lng": 120.00111, "population": 165730}, {"name": "Hengshan", "lat": 45.20837, "lng": 130.89808, "population": 164844}, {"name": "Tongzhou", "lat": 39.90395, "lng": 116.66183, "population": 163326}, {"name": "Anbu", "lat": 23.44895, "lng": 116.68092, "population": 162964}, {"name": "Ning’er", "lat": 23.04053, "lng": 101.03683, "population": 162711}, {"name": "Fengcheng", "lat": 34.70388, "lng": 116.58717, "population": 161850}, {"name": "Tacheng", "lat": 46.74535, "lng": 82.95847, "population": 161037}, {"name": "Zhicheng", "lat": 30.29556, "lng": 111.50472, "population": 159383}, {"name": "Nanpiao", "lat": 41.09822, "lng": 120.74792, "population": 157044}, {"name": "Lizhi", "lat": 29.70317, "lng": 107.39521, "population": 156753}, {"name": "Yizhou", "lat": 24.5, "lng": 108.66667, "population": 155872}, {"name": "Yichun", "lat": 47.72143, "lng": 128.87529, "population": 155762}, {"name": "Lianghu", "lat": 29.99152, "lng": 120.89845, "population": 155000}, {"name": "Guangshui", "lat": 31.6199, "lng": 113.9978, "population": 154771}, {"name": "Fu’an", "lat": 27.09131, "lng": 119.64446, "population": 154439}, {"name": "Zhaodong", "lat": 46.05223, "lng": 125.9552, "population": 154406}, {"name": "Wujiaqu", "lat": 44.16279, "lng": 87.52174, "population": 154400}, {"name": "Sanshui", "lat": 23.15486, "lng": 112.89161, "population": 153714}, {"name": "Boshan", "lat": 36.48333, "lng": 117.83333, "population": 153596}, {"name": "Yangchun", "lat": 22.16667, "lng": 111.78333, "population": 153547}, {"name": "Dingzhou", "lat": 38.51473, "lng": 114.9868, "population": 152934}, {"name": "Pengpu", "lat": 31.2855, "lng": 121.4367, "population": 152725}, {"name": "Chenghua", "lat": 23.46132, "lng": 116.77007, "population": 152453}, {"name": "Longfeng", "lat": 46.53168, "lng": 125.1038, "population": 152074}, {"name": "Beining", "lat": 41.59556, "lng": 121.79278, "population": 152033}, {"name": "Dunhua", "lat": 43.36954, "lng": 128.22861, "population": 148844}, {"name": "Sujiatun", "lat": 41.65917, "lng": 123.33917, "population": 148113}, {"name": "Honggang", "lat": 46.3974, "lng": 124.88447, "population": 147977}, {"name": "Taozhou", "lat": 30.90641, "lng": 119.40865, "population": 146610}, {"name": "Xinji", "lat": 37.92595, "lng": 115.21907, "population": 145911}, {"name": "Taishan", "lat": 22.25135, "lng": 112.7799, "population": 145440}, {"name": "Acheng", "lat": 45.54558, "lng": 126.95191, "population": 144665}, {"name": "Hailin", "lat": 44.57149, "lng": 129.38539, "population": 144443}, {"name": "Yong’an", "lat": 31.01894, "lng": 109.45949, "population": 144314}, {"name": "Nanjin", "lat": 29.98497, "lng": 106.26529, "population": 143766}, {"name": "Qianjiang", "lat": 29.53284, "lng": 108.77478, "population": 143727}, {"name": "Jieshou", "lat": 33.26338, "lng": 115.36108, "population": 141993}, {"name": "Yushu", "lat": 33.00118, "lng": 97.00893, "population": 141308}, {"name": "Sanhe", "lat": 29.86864, "lng": 107.73027, "population": 140954}, {"name": "Gongzhuling", "lat": 43.50075, "lng": 124.81979, "population": 140909}, {"name": "Shuizhai", "lat": 23.92961, "lng": 115.76499, "population": 140493}, {"name": "Shanhaiguan", "lat": 40.00119, "lng": 119.75395, "population": 140000}, {"name": "Huadian", "lat": 42.97213, "lng": 126.74107, "population": 139047}, {"name": "Liuzhi", "lat": 26.2342, "lng": 105.426, "population": 138826}, {"name": "Fuyu", "lat": 45.18333, "lng": 124.81667, "population": 138704}, {"name": "Chaohu", "lat": 31.6, "lng": 117.86667, "population": 138463}, {"name": "Liangping", "lat": 30.66108, "lng": 107.7661, "population": 137620}, {"name": "Doilungdêqên", "lat": 29.65505, "lng": 90.99177, "population": 137451}, {"name": "Jieshi", "lat": 22.81027, "lng": 115.83058, "population": 137444}, {"name": "Hejiang", "lat": 28.81161, "lng": 105.83359, "population": 137437}, {"name": "Wuyishan", "lat": 27.75995, "lng": 118.03066, "population": 137133}, {"name": "Jiashan", "lat": 30.84918, "lng": 120.92583, "population": 137112}, {"name": "Huinong", "lat": 39.23333, "lng": 106.76944, "population": 136570}, {"name": "Gejiu", "lat": 23.36085, "lng": 103.15372, "population": 136135}, {"name": "Jiagedaqi", "lat": 50.41667, "lng": 124.11667, "population": 135760}, {"name": "Tumxuk", "lat": 39.86984, "lng": 79.06118, "population": 135727}, {"name": "Shiqiao", "lat": 22.9464, "lng": 113.35769, "population": 135308}, {"name": "Shenglilu", "lat": 29.35048, "lng": 105.8775, "population": 134218}, {"name": "Jiawang", "lat": 34.43278, "lng": 117.44194, "population": 133861}, {"name": "Puqi", "lat": 29.71667, "lng": 113.88333, "population": 132891}, {"name": "Wugang", "lat": 26.7279, "lng": 110.63198, "population": 132457}, {"name": "Zhalantun", "lat": 48.00945, "lng": 122.73651, "population": 132224}, {"name": "Fuji", "lat": 29.14819, "lng": 105.37391, "population": 131927}, {"name": "Dawukou", "lat": 39.04194, "lng": 106.39583, "population": 131880}, {"name": "Majie", "lat": 25.0319, "lng": 102.638, "population": 131696}, {"name": "Hepo", "lat": 23.43077, "lng": 115.82991, "population": 131238}, {"name": "Shangzhi", "lat": 45.20562, "lng": 128.00242, "population": 131006}, {"name": "Shuangcheng", "lat": 45.3798, "lng": 126.30711, "population": 130710}, {"name": "Dongyang", "lat": 29.26778, "lng": 120.22528, "population": 130387}, {"name": "Nantou", "lat": 22.72171, "lng": 113.29261, "population": 130370}, {"name": "Jiazi", "lat": 22.87932, "lng": 116.07318, "population": 130298}, {"name": "Songjiang", "lat": 31.03443, "lng": 121.22326, "population": 130218}, {"name": "Wuda", "lat": 39.49944, "lng": 106.71167, "population": 129922}, {"name": "Pingxiang", "lat": 22.09694, "lng": 106.75667, "population": 129843}, {"name": "Santo António", "lat": 22.20208, "lng": 113.54394, "population": 129800}, {"name": "Leiyang", "lat": 26.40238, "lng": 112.85908, "population": 129116}, {"name": "Shuanglonghu", "lat": 29.71617, "lng": 106.60684, "population": 128563}, {"name": "Shache", "lat": 38.41667, "lng": 77.24056, "population": 128145}, {"name": "Jiangyou", "lat": 31.76667, "lng": 104.71667, "population": 127225}, {"name": "Tengyue", "lat": 24.99492, "lng": 98.51276, "population": 127133}, {"name": "Shajing", "lat": 22.74628, "lng": 113.81903, "population": 127089}, {"name": "Jinfeng", "lat": 28.2385, "lng": 116.60054, "population": 127076}, {"name": "Jingzhi", "lat": 36.31, "lng": 119.3875, "population": 126703}, {"name": "Danshui", "lat": 22.7984, "lng": 114.46716, "population": 126701}, {"name": "Macheng", "lat": 31.18013, "lng": 115.02213, "population": 126366}, {"name": "Ālā'ĕr", "lat": 40.54184, "lng": 81.26566, "population": 126259}, {"name": "Nossa Senhora de Fátima", "lat": 22.20769, "lng": 113.54831, "population": 126000}, {"name": "Huicheng", "lat": 23.03845, "lng": 116.28988, "population": 125919}, {"name": "Xiazhen", "lat": 34.80222, "lng": 117.11167, "population": 125667}, {"name": "Haimen", "lat": 23.19346, "lng": 116.61219, "population": 125427}, {"name": "Shahecheng", "lat": 36.93833, "lng": 114.50583, "population": 125132}, {"name": "Yushu", "lat": 44.82751, "lng": 126.54063, "population": 124736}, {"name": "Lecheng", "lat": 25.128, "lng": 113.35041, "population": 124268}, {"name": "Nancun", "lat": 36.53278, "lng": 120.13389, "population": 124210}, {"name": "Jiupu", "lat": 41.06667, "lng": 122.95, "population": 123843}, {"name": "Baoshan", "lat": 46.57472, "lng": 131.39318, "population": 123791}, {"name": "Luoyang", "lat": 23.16244, "lng": 114.27342, "population": 123144}, {"name": "Jiaohe", "lat": 43.72133, "lng": 127.33473, "population": 123018}, {"name": "Huangzhou", "lat": 30.45, "lng": 114.8, "population": 122563}, {"name": "Xiulin", "lat": 29.71667, "lng": 112.4, "population": 122411}, {"name": "Zhoucun", "lat": 36.81667, "lng": 117.81667, "population": 122402}, {"name": "Xiangcheng", "lat": 25.46687, "lng": 100.56248, "population": 121959}, {"name": "Longshui", "lat": 29.56555, "lng": 105.76205, "population": 121609}, {"name": "Lianhe", "lat": 47.13333, "lng": 129.27426, "population": 121367}, {"name": "Xilin Hot", "lat": 43.96667, "lng": 116.03333, "population": 120965}, {"name": "Lichuan", "lat": 30.3, "lng": 108.85, "population": 120587}, {"name": "Fengcheng", "lat": 40.45361, "lng": 124.07167, "population": 120514}, {"name": "Bao'an Centre", "lat": 22.57953, "lng": 113.9163, "population": 120170}, {"name": "Zhaoyuan", "lat": 37.36497, "lng": 120.40997, "population": 120000}, {"name": "Lhasa", "lat": 29.65, "lng": 91.1, "population": 118721}, {"name": "Xunchang", "lat": 28.45433, "lng": 104.71498, "population": 118664}, {"name": "Nanbin", "lat": 29.9994, "lng": 108.10913, "population": 118597}, {"name": "Shaoshan", "lat": 27.91667, "lng": 112.51667, "population": 118000}, {"name": "Wushan", "lat": 31.07749, "lng": 109.87639, "population": 117873}, {"name": "Shunyi", "lat": 40.12175, "lng": 116.64783, "population": 117623}, {"name": "Longjing", "lat": 42.77131, "lng": 129.42307, "population": 117185}, {"name": "Gulin", "lat": 28.04223, "lng": 105.81038, "population": 116527}, {"name": "Chenggu", "lat": 33.14917, "lng": 107.32583, "population": 116375}, {"name": "Dasha", "lat": 23.11037, "lng": 113.4418, "population": 116307}, {"name": "Yakeshi", "lat": 49.28333, "lng": 120.73333, "population": 116284}, {"name": "Baisha", "lat": 29.06226, "lng": 106.1189, "population": 115761}, {"name": "Anliu", "lat": 23.69824, "lng": 115.67953, "population": 115560}, {"name": "Lengshuijiang", "lat": 27.68806, "lng": 111.42944, "population": 115399}, {"name": "Tianfu", "lat": 37.26366, "lng": 122.05228, "population": 115370}, {"name": "Mingshui", "lat": 36.71667, "lng": 117.5, "population": 114858}, {"name": "Qiaotou", "lat": 36.935, "lng": 101.67361, "population": 114712}, {"name": "Yuyao", "lat": 30.05, "lng": 121.14944, "population": 114177}, {"name": "Zhaozhou", "lat": 45.70595, "lng": 125.26606, "population": 114009}, {"name": "Wansheng", "lat": 28.9629, "lng": 106.92844, "population": 113751}, {"name": "Wayaobu", "lat": 37.13611, "lng": 109.65972, "population": 113698}, {"name": "Pingshan", "lat": 22.99376, "lng": 114.71311, "population": 113631}, {"name": "Songyuan", "lat": 45.12902, "lng": 124.82769, "population": 113611}, {"name": "Maba", "lat": 24.68413, "lng": 113.59839, "population": 113609}, {"name": "Taonan", "lat": 45.33319, "lng": 122.78464, "population": 112819}, {"name": "Haikou", "lat": 24.77985, "lng": 102.57548, "population": 112644}, {"name": "Shaowu", "lat": 27.34089, "lng": 117.4831, "population": 112585}, {"name": "Mengmao", "lat": 24.00139, "lng": 97.86499, "population": 112578}, {"name": "Kaiyuan", "lat": 42.53306, "lng": 124.04028, "population": 112462}, {"name": "Wuzhishan", "lat": 18.78229, "lng": 109.5013, "population": 112269}, {"name": "Xigang", "lat": 38.55258, "lng": 106.34805, "population": 112061}, {"name": "Chóngfú", "lat": 30.53113, "lng": 120.4309, "population": 112060}, {"name": "Encheng", "lat": 22.18659, "lng": 112.30424, "population": 110921}, {"name": "Zhuji", "lat": 29.71877, "lng": 120.24233, "population": 110721}, {"name": "Datun", "lat": 34.80923, "lng": 116.90174, "population": 110258}, {"name": "Qingnian", "lat": 36.84092, "lng": 115.71087, "population": 110046}, {"name": "Linshui", "lat": 36.42472, "lng": 114.20472, "population": 109955}, {"name": "Hailun", "lat": 47.44663, "lng": 126.92475, "population": 109881}, {"name": "Shilong", "lat": 23.11444, "lng": 113.84722, "population": 109733}, {"name": "Didao", "lat": 45.34725, "lng": 130.83693, "population": 109561}, {"name": "Jianchang", "lat": 27.55831, "lng": 116.63978, "population": 109108}, {"name": "Hulan", "lat": 45.89326, "lng": 126.57836, "population": 109104}, {"name": "Zhongxiang", "lat": 31.16611, "lng": 112.58306, "population": 108883}, {"name": "Dehui", "lat": 44.53674, "lng": 125.69427, "population": 108818}, {"name": "Hanjia", "lat": 29.29524, "lng": 108.16132, "population": 108430}, {"name": "Taibai", "lat": 30.82482, "lng": 108.35783, "population": 108387}, {"name": "Xuyong", "lat": 28.16992, "lng": 105.43452, "population": 108352}, {"name": "Nehe", "lat": 48.4793, "lng": 124.87016, "population": 108253}, {"name": "Jalai Nur", "lat": 49.45, "lng": 117.7, "population": 107828}, {"name": "Tieli", "lat": 46.97544, "lng": 128.04804, "population": 107621}, {"name": "Shaping", "lat": 22.77019, "lng": 112.95776, "population": 107589}, {"name": "Anning", "lat": 24.92271, "lng": 102.48496, "population": 106795}, {"name": "Longjiang", "lat": 47.33601, "lng": 123.196, "population": 106384}, {"name": "Buhe", "lat": 30.28757, "lng": 112.22979, "population": 106347}, {"name": "Xinghua", "lat": 32.93917, "lng": 119.83417, "population": 105918}, {"name": "Chengtangcun", "lat": 35.08357, "lng": 117.19071, "population": 105456}, {"name": "Yidu", "lat": 36.77121, "lng": 118.42454, "population": 105070}, {"name": "Zhonghe", "lat": 28.45049, "lng": 108.98901, "population": 105003}, {"name": "Puyang Chengguanzhen", "lat": 35.70622, "lng": 115.0279, "population": 104994}, {"name": "Daxing", "lat": 39.74025, "lng": 116.32693, "population": 104904}, {"name": "Yezhou", "lat": 30.60369, "lng": 109.72333, "population": 104839}, {"name": "Pailou", "lat": 30.79641, "lng": 108.3858, "population": 104351}, {"name": "Pulandian", "lat": 39.39528, "lng": 121.96694, "population": 104277}, {"name": "Wuchuan", "lat": 21.45713, "lng": 110.76591, "population": 104168}, {"name": "Salaqi", "lat": 40.54139, "lng": 110.51083, "population": 104090}, {"name": "Jishu", "lat": 44.31667, "lng": 126.8, "population": 103988}, {"name": "Yuxi", "lat": 24.355, "lng": 102.54222, "population": 103829}, {"name": "Bashan", "lat": 27.76823, "lng": 116.05017, "population": 103748}, {"name": "Tongren", "lat": 35.51483, "lng": 102.016, "population": 103700}, {"name": "Gangu Chengguanzhen", "lat": 34.73564, "lng": 105.32632, "population": 103589}, {"name": "Xincheng", "lat": 41.71497, "lng": 82.93249, "population": 102752}, {"name": "Jishou", "lat": 28.31925, "lng": 109.73346, "population": 102332}, {"name": "Shuifu", "lat": 28.63215, "lng": 104.40783, "population": 102143}, {"name": "Hedong", "lat": 23.9196, "lng": 115.7801, "population": 101825}, {"name": "Huacheng", "lat": 24.06703, "lng": 115.61309, "population": 101165}, {"name": "Lianjiang", "lat": 21.64673, "lng": 110.28172, "population": 100341}, {"name": "Linxi", "lat": 39.71183, "lng": 118.44954, "population": 100316}, {"name": "Xinzhai", "lat": 36.4, "lng": 118.61667, "population": 100168}, {"name": "Kangding", "lat": 30.00222, "lng": 101.9569, "population": 100000}, {"name": "Qincheng", "lat": 27.2127, "lng": 116.53008, "population": 99987}, {"name": "Menghuan", "lat": 24.43532, "lng": 98.58375, "population": 99970}, {"name": "Xixiang", "lat": 32.98703, "lng": 107.764, "population": 99867}, {"name": "Dongsheng", "lat": 39.81609, "lng": 109.97763, "population": 99809}, {"name": "Wangkui", "lat": 46.83214, "lng": 126.47657, "population": 99617}, {"name": "Meihekou", "lat": 42.52869, "lng": 125.67876, "population": 99419}, {"name": "Xinle", "lat": 38.34898, "lng": 114.68531, "population": 99347}, {"name": "Linghe", "lat": 36.36417, "lng": 119.07694, "population": 99069}, {"name": "Xingcheng", "lat": 40.61667, "lng": 120.71667, "population": 98968}, {"name": "Renqiu", "lat": 38.70941, "lng": 116.10086, "population": 98569}, {"name": "Suifenhe", "lat": 44.39982, "lng": 131.14775, "population": 98561}, {"name": "Xinshi", "lat": 31.04704, "lng": 113.14098, "population": 98422}, {"name": "Xinyi", "lat": 22.37303, "lng": 110.94746, "population": 98259}, {"name": "Chengzihe", "lat": 45.33611, "lng": 131.00489, "population": 98188}, {"name": "Xishan", "lat": 27.66667, "lng": 113.5, "population": 98162}, {"name": "Yeyuan", "lat": 36.41667, "lng": 118.5, "population": 97936}, {"name": "Guanhu", "lat": 34.42528, "lng": 117.99528, "population": 97705}, {"name": "Jiudian", "lat": 36.9918, "lng": 120.20412, "population": 97604}, {"name": "Xinxing", "lat": 34.77597, "lng": 105.32216, "population": 97483}, {"name": "Fangshan", "lat": 39.68699, "lng": 115.99658, "population": 97026}, {"name": "Jinniu", "lat": 25.80062, "lng": 100.57435, "population": 96883}, {"name": "Houzhen", "lat": 36.99136, "lng": 118.96582, "population": 96737}, {"name": "Gongguan", "lat": 21.8, "lng": 109.6, "population": 96492}, {"name": "Nanxi", "lat": 28.84209, "lng": 104.97958, "population": 96061}, {"name": "Lubu", "lat": 23.17233, "lng": 112.28298, "population": 95820}, {"name": "Jinsha", "lat": 32.08982, "lng": 121.07355, "population": 95647}, {"name": "Ducheng", "lat": 23.24212, "lng": 111.5284, "population": 95525}, {"name": "Shenjiamen", "lat": 29.95763, "lng": 122.29802, "population": 95433}, {"name": "Boli", "lat": 45.7529, "lng": 130.58452, "population": 95260}, {"name": "Xiaoshan", "lat": 30.16746, "lng": 120.25883, "population": 95234}, {"name": "Xingguo", "lat": 34.85861, "lng": 105.66861, "population": 95211}, {"name": "Wuchang", "lat": 44.92754, "lng": 127.16039, "population": 94786}, {"name": "Dunhou", "lat": 27.05, "lng": 114.9, "population": 94445}, {"name": "Bayan Hot", "lat": 38.83861, "lng": 105.66861, "population": 94445}, {"name": "Ximeicun", "lat": 24.98773, "lng": 118.3858, "population": 94326}, {"name": "Yishui", "lat": 35.78472, "lng": 118.62806, "population": 94115}, {"name": "Zhongduo", "lat": 28.8466, "lng": 108.76416, "population": 93928}, {"name": "Fangcheng Chengguanzhen", "lat": 33.25322, "lng": 113.0012, "population": 93808}, {"name": "Daotian", "lat": 36.83389, "lng": 118.89778, "population": 93728}, {"name": "Baijiantan", "lat": 45.69298, "lng": 85.13942, "population": 93697}, {"name": "Yunnanyi", "lat": 25.4245, "lng": 100.689, "population": 93671}, {"name": "Shuangliao", "lat": 43.51067, "lng": 123.50069, "population": 93666}, {"name": "Zhaoyuan", "lat": 45.51971, "lng": 125.07633, "population": 93505}, {"name": "Dalai", "lat": 45.5, "lng": 124.3, "population": 93297}, {"name": "Tangwu", "lat": 36.44667, "lng": 118.85972, "population": 93260}, {"name": "Jiayue", "lat": 36.02361, "lng": 119.17611, "population": 93228}, {"name": "Changping", "lat": 40.21612, "lng": 116.23471, "population": 93174}, {"name": "Lianzhou", "lat": 24.78186, "lng": 112.3712, "population": 92827}, {"name": "Yingqiu", "lat": 36.52663, "lng": 118.99285, "population": 92564}, {"name": "Dongcun", "lat": 36.77667, "lng": 121.15972, "population": 92282}, {"name": "Danjiangkou", "lat": 32.54278, "lng": 111.50861, "population": 92008}, {"name": "Bai’anba", "lat": 30.76283, "lng": 108.43717, "population": 91947}, {"name": "Zhongshu", "lat": 24.51667, "lng": 103.76667, "population": 91750}, {"name": "Huazhou", "lat": 21.63333, "lng": 110.58333, "population": 91701}, {"name": "Xingren", "lat": 25.43333, "lng": 105.23333, "population": 91579}, {"name": "Longquan", "lat": 24.67193, "lng": 102.1613, "population": 91534}, {"name": "Yatou", "lat": 37.1566, "lng": 122.43762, "population": 91517}, {"name": "Tanfang", "lat": 36.69977, "lng": 118.67087, "population": 91460}, {"name": "Lingyuan", "lat": 41.24, "lng": 119.40111, "population": 91418}, {"name": "Gaoyou", "lat": 32.78933, "lng": 119.44182, "population": 90911}, {"name": "Yulinshi", "lat": 38.29181, "lng": 109.73753, "population": 90870}, {"name": "Hanting", "lat": 36.77083, "lng": 119.21083, "population": 90637}, {"name": "Tongren", "lat": 27.71722, "lng": 109.18528, "population": 90593}, {"name": "Xihe", "lat": 31.68635, "lng": 113.46585, "population": 90422}, {"name": "Duobao", "lat": 30.67, "lng": 112.68952, "population": 90257}, {"name": "Sishui", "lat": 35.64889, "lng": 117.27583, "population": 90175}, {"name": "Gantang", "lat": 27.4375, "lng": 111.97306, "population": 90000}, {"name": "Luomen", "lat": 34.75417, "lng": 105.02472, "population": 89998}, {"name": "Huaidian", "lat": 33.43333, "lng": 115.03333, "population": 89978}, {"name": "Baisha", "lat": 21.71667, "lng": 109.68333, "population": 89759}, {"name": "Fujin", "lat": 47.24723, "lng": 132.02957, "population": 89442}, {"name": "Huaicheng", "lat": 23.91952, "lng": 112.17629, "population": 89294}, {"name": "Micheng", "lat": 25.34294, "lng": 100.48725, "population": 89144}, {"name": "Lucheng", "lat": 31.23357, "lng": 117.28057, "population": 89119}, {"name": "Hede", "lat": 33.7722, "lng": 120.26176, "population": 89107}, {"name": "Chengxiang", "lat": 31.39798, "lng": 109.57063, "population": 89080}, {"name": "Nandajie", "lat": 29.33773, "lng": 105.89237, "population": 88948}, {"name": "Lengshuitan", "lat": 26.4111, "lng": 111.59559, "population": 88935}, {"name": "Wangqing", "lat": 43.31077, "lng": 129.76334, "population": 88732}, {"name": "Xiazhuang", "lat": 36.44917, "lng": 119.83556, "population": 88710}, {"name": "Dongxing", "lat": 21.55, "lng": 107.96667, "population": 88607}, {"name": "Linjiacun", "lat": 35.99389, "lng": 119.65028, "population": 88509}, {"name": "Zhoujiaba", "lat": 30.84349, "lng": 108.36642, "population": 88494}, {"name": "Honghe", "lat": 36.40278, "lng": 118.91806, "population": 88458}, {"name": "Baixi", "lat": 28.6997, "lng": 104.54917, "population": 88251}, {"name": "Lidu", "lat": 29.73861, "lng": 107.29477, "population": 88124}, {"name": "Yingchuan", "lat": 34.16278, "lng": 113.46389, "population": 87961}, {"name": "Gusong", "lat": 28.3133, "lng": 105.2377, "population": 87882}, {"name": "Hanchuan", "lat": 30.65, "lng": 113.76667, "population": 87737}, {"name": "Tiefu", "lat": 34.53333, "lng": 118.03333, "population": 87689}, {"name": "Qiongshan", "lat": 20.00864, "lng": 110.35384, "population": 87657}, {"name": "Xiangxiang", "lat": 27.73333, "lng": 112.53333, "population": 87592}, {"name": "Deqing", "lat": 30.54485, "lng": 119.9599, "population": 87576}, {"name": "Xujiang", "lat": 26.83945, "lng": 116.32011, "population": 87459}, {"name": "Mishan", "lat": 45.55, "lng": 131.88333, "population": 87257}, {"name": "Nenjiang", "lat": 49.17405, "lng": 125.21967, "population": 87236}, {"name": "Menglang", "lat": 22.56214, "lng": 99.91029, "population": 86877}, {"name": "Shizilu", "lat": 35.17111, "lng": 118.82889, "population": 86749}, {"name": "Jiangshan", "lat": 36.67806, "lng": 120.52917, "population": 86642}, {"name": "Zhaogezhuang", "lat": 39.76538, "lng": 118.41191, "population": 86555}, {"name": "Anlong", "lat": 25.1, "lng": 105.51667, "population": 86416}, {"name": "Qamdo", "lat": 31.1304, "lng": 97.17982, "population": 86280}, {"name": "Nanfeng", "lat": 23.72695, "lng": 111.79723, "population": 86129}, {"name": "Zhonggulou", "lat": 30.82491, "lng": 108.38413, "population": 85873}, {"name": "Longnan", "lat": 33.39791, "lng": 104.91703, "population": 85826}, {"name": "Helong", "lat": 42.53974, "lng": 128.99722, "population": 85756}, {"name": "Nanding", "lat": 36.74833, "lng": 118.05583, "population": 85495}, {"name": "Guozhen", "lat": 34.36591, "lng": 107.35904, "population": 85415}, {"name": "Dengzhou", "lat": 37.80822, "lng": 120.75908, "population": 85279}, {"name": "Qufu", "lat": 35.59667, "lng": 116.99111, "population": 85144}, {"name": "Laojunmiao", "lat": 39.83333, "lng": 97.73333, "population": 84769}, {"name": "Dacheng", "lat": 19.50927, "lng": 109.39275, "population": 84620}, {"name": "Mianyang", "lat": 33.15703, "lng": 106.69445, "population": 84606}, {"name": "Dazhong", "lat": 33.19973, "lng": 120.4578, "population": 84323}, {"name": "Liaolan", "lat": 36.67444, "lng": 119.87528, "population": 84306}, {"name": "Jinxiang", "lat": 27.43265, "lng": 120.60625, "population": 84231}, {"name": "Dongxia", "lat": 36.74918, "lng": 118.58268, "population": 84083}, {"name": "Degan", "lat": 29.27846, "lng": 106.23157, "population": 83950}, {"name": "Xiannü", "lat": 32.42806, "lng": 119.56048, "population": 83936}, {"name": "Yinma", "lat": 36.66083, "lng": 119.4625, "population": 83872}, {"name": "Lingdong", "lat": 46.55428, "lng": 131.14493, "population": 83636}, {"name": "Nanzhang Chengguanzhen", "lat": 31.78394, "lng": 111.82752, "population": 83604}, {"name": "Xucheng", "lat": 20.33025, "lng": 110.16643, "population": 83267}, {"name": "Wensu", "lat": 41.27548, "lng": 80.23612, "population": 83110}, {"name": "Hecun", "lat": 36.53333, "lng": 114.11111, "population": 83009}, {"name": "Ningyang", "lat": 35.76417, "lng": 116.79139, "population": 82994}, {"name": "Jinshi", "lat": 29.60487, "lng": 111.87012, "population": 82906}, {"name": "Yuanping", "lat": 38.71528, "lng": 112.7575, "population": 82883}, {"name": "Aoxi", "lat": 27.42589, "lng": 115.83643, "population": 82717}, {"name": "Liping", "lat": 26.23111, "lng": 109.13139, "population": 82710}, {"name": "Changqing", "lat": 36.5575, "lng": 116.72722, "population": 82598}, {"name": "Dali Old Town", "lat": 25.68863, "lng": 100.15894, "population": 82566}, {"name": "Xindian", "lat": 36.7975, "lng": 118.29444, "population": 82555}, {"name": "Yima", "lat": 34.73806, "lng": 111.88389, "population": 82509}, {"name": "Qiaoguan", "lat": 36.56444, "lng": 118.88389, "population": 82467}, {"name": "Nangong", "lat": 37.35464, "lng": 115.38881, "population": 82386}, {"name": "Lüshun", "lat": 38.8, "lng": 121.26667, "population": 82345}, {"name": "Anguo", "lat": 34.83056, "lng": 116.81944, "population": 82181}, {"name": "Shiwan", "lat": 23.00107, "lng": 113.077, "population": 82031}, {"name": "Donghe", "lat": 32.23341, "lng": 106.30126, "population": 81953}, {"name": "Huaiyang", "lat": 37.76145, "lng": 114.51703, "population": 81861}, {"name": "Tangping", "lat": 22.03177, "lng": 111.93537, "population": 81729}, {"name": "Yudong", "lat": 29.385, "lng": 106.51944, "population": 81408}, {"name": "Changning", "lat": 28.57773, "lng": 104.92087, "population": 81248}, {"name": "Xiugu", "lat": 27.91132, "lng": 116.77637, "population": 81153}, {"name": "Feicheng", "lat": 35.26056, "lng": 117.9675, "population": 80929}, {"name": "Shanting", "lat": 35.07528, "lng": 117.45778, "population": 80843}, {"name": "Junlian", "lat": 28.17106, "lng": 104.51162, "population": 80708}, {"name": "Nianzhuang", "lat": 34.29722, "lng": 117.77222, "population": 80617}, {"name": "Yingjiang", "lat": 24.71022, "lng": 97.93671, "population": 80481}, {"name": "Zhuanghe", "lat": 39.70083, "lng": 122.99111, "population": 80384}, {"name": "Loushanguan", "lat": 28.1368, "lng": 106.822, "population": 80344}, {"name": "Baoying", "lat": 33.22917, "lng": 119.30917, "population": 80292}, {"name": "Dashiqiao", "lat": 40.63732, "lng": 122.50251, "population": 80223}, {"name": "Panshi", "lat": 42.93719, "lng": 126.05743, "population": 80200}, {"name": "Xichang", "lat": 21.63333, "lng": 108.95, "population": 80064}, {"name": "Huanglou", "lat": 36.64709, "lng": 118.60554, "population": 80055}, {"name": "Dushan", "lat": 25.83333, "lng": 107.53333, "population": 80045}, {"name": "Rikaze", "lat": 29.25, "lng": 88.88333, "population": 80000}, {"name": "Songlou", "lat": 34.57231, "lng": 116.60239, "population": 79763}, {"name": "Taixing", "lat": 32.16667, "lng": 120.01361, "population": 79655}, {"name": "Tangjiazhuang", "lat": 39.74326, "lng": 118.45099, "population": 79489}, {"name": "Yanta", "lat": 36.24111, "lng": 115.66722, "population": 79196}, {"name": "Zhuangyuan", "lat": 37.30553, "lng": 120.82747, "population": 79106}, {"name": "Wuyang", "lat": 31.9925, "lng": 116.24722, "population": 79070}, {"name": "Xiongzhou", "lat": 25.11667, "lng": 114.3, "population": 79050}, {"name": "Chaigou", "lat": 36.24889, "lng": 119.62417, "population": 79043}, {"name": "Xinzhou", "lat": 30.86667, "lng": 114.8, "population": 78767}, {"name": "Shitanjing", "lat": 39.23417, "lng": 106.34389, "population": 78765}, {"name": "Tumen", "lat": 42.96562, "lng": 129.84199, "population": 78719}, {"name": "Qinggang", "lat": 29.4677, "lng": 106.23618, "population": 78582}, {"name": "Hengbei", "lat": 23.87968, "lng": 115.72546, "population": 78575}, {"name": "Yishan", "lat": 36.22107, "lng": 118.69663, "population": 78408}, {"name": "Youhao", "lat": 47.85306, "lng": 128.83565, "population": 78402}, {"name": "Pingyi", "lat": 35.50056, "lng": 117.63083, "population": 78254}, {"name": "Wulong", "lat": 29.32431, "lng": 107.76056, "population": 78225}, {"name": "Linping", "lat": 30.4225, "lng": 120.29722, "population": 78180}, {"name": "Xixiang", "lat": 22.59306, "lng": 113.8889, "population": 78022}, {"name": "Huankou", "lat": 34.87, "lng": 116.66972, "population": 77758}, {"name": "Linkou", "lat": 45.2762, "lng": 130.27332, "population": 77754}, {"name": "Huangmei", "lat": 30.19235, "lng": 116.02496, "population": 77633}, {"name": "Feicheng", "lat": 36.24861, "lng": 116.76583, "population": 77606}, {"name": "Songling", "lat": 31.1933, "lng": 120.71758, "population": 77566}, {"name": "Jishui", "lat": 33.73333, "lng": 115.4, "population": 77540}, {"name": "Shulan", "lat": 44.41134, "lng": 126.94827, "population": 77420}, {"name": "Baicheng", "lat": 36.32743, "lng": 119.77875, "population": 77235}, {"name": "Damiao", "lat": 34.26411, "lng": 117.36379, "population": 77179}, {"name": "Jiexiu", "lat": 37.02444, "lng": 111.9125, "population": 77178}, {"name": "Hunchun", "lat": 42.86736, "lng": 130.35689, "population": 77028}, {"name": "Sandu", "lat": 19.7894, "lng": 109.215, "population": 76757}, {"name": "Liangxiang", "lat": 39.73598, "lng": 116.13295, "population": 76744}, {"name": "Zhaodun", "lat": 34.3027, "lng": 117.85699, "population": 76691}, {"name": "Fenghua", "lat": 29.65628, "lng": 121.4064, "population": 76653}, {"name": "Yaxing", "lat": 19.44778, "lng": 109.26273, "population": 76427}, {"name": "Yangliuqing", "lat": 39.1375, "lng": 116.99972, "population": 76387}, {"name": "Qiuji", "lat": 33.8, "lng": 118.0, "population": 76343}, {"name": "Qingquan", "lat": 30.45113, "lng": 115.25593, "population": 76154}, {"name": "Shouxian", "lat": 34.84648, "lng": 116.45884, "population": 76030}, {"name": "Lintong", "lat": 34.37803, "lng": 109.20892, "population": 75882}, {"name": "Kageleke", "lat": 37.30096, "lng": 79.60128, "population": 75730}, {"name": "Kanjia", "lat": 36.37227, "lng": 119.58208, "population": 75669}, {"name": "Yinzhu", "lat": 35.87861, "lng": 119.97528, "population": 75656}, {"name": "Chaoyang", "lat": 42.66223, "lng": 126.0263, "population": 75347}, {"name": "Shangmei", "lat": 27.74278, "lng": 111.29556, "population": 75233}, {"name": "Fuyu", "lat": 47.79494, "lng": 124.45773, "population": 75147}, {"name": "Maozhou", "lat": 22.76361, "lng": 113.81288, "population": 74910}, {"name": "Huilong", "lat": 31.81111, "lng": 121.655, "population": 74818}, {"name": "Beidao", "lat": 34.56861, "lng": 105.89333, "population": 74767}, {"name": "Yanggu", "lat": 36.11056, "lng": 115.77528, "population": 74725}, {"name": "Longgang", "lat": 29.69744, "lng": 105.71369, "population": 74605}, {"name": "Shancheng", "lat": 34.79528, "lng": 116.08167, "population": 74459}, {"name": "Zhangzhai", "lat": 34.61667, "lng": 116.95, "population": 74433}, {"name": "Nanma", "lat": 36.18478, "lng": 118.15486, "population": 74406}, {"name": "Huicheng", "lat": 29.86925, "lng": 118.43364, "population": 74349}, {"name": "Yuanshang", "lat": 36.76833, "lng": 120.34556, "population": 74253}, {"name": "Suixi", "lat": 33.89067, "lng": 116.77473, "population": 74172}, {"name": "Xinmin", "lat": 41.99083, "lng": 122.82528, "population": 74139}, {"name": "Zhangzhuang", "lat": 34.51944, "lng": 117.00556, "population": 74114}, {"name": "Gucheng Chengguanzhen", "lat": 32.26604, "lng": 111.63476, "population": 74038}, {"name": "Xianshuigu", "lat": 38.985, "lng": 117.38278, "population": 74028}, {"name": "Yunyang", "lat": 33.44743, "lng": 112.71422, "population": 73922}, {"name": "Huayuan", "lat": 28.28635, "lng": 117.20656, "population": 73732}, {"name": "Lanxi", "lat": 29.21588, "lng": 119.47156, "population": 73706}, {"name": "Genhe", "lat": 50.78333, "lng": 121.51667, "population": 73631}, {"name": "Luocheng", "lat": 29.38481, "lng": 104.02862, "population": 73581}, {"name": "Heguan", "lat": 36.88998, "lng": 118.57379, "population": 73470}, {"name": "Juegang", "lat": 32.31737, "lng": 121.18552, "population": 73317}, {"name": "Shixing", "lat": 24.94824, "lng": 114.06572, "population": 72996}, {"name": "Dongdu", "lat": 35.85, "lng": 117.7, "population": 72957}, {"name": "Yanjia", "lat": 29.82758, "lng": 106.99734, "population": 72825}, {"name": "Dongkan", "lat": 33.99972, "lng": 119.83083, "population": 72789}, {"name": "Dingcheng", "lat": 32.12722, "lng": 115.03944, "population": 72663}, {"name": "Wusu", "lat": 44.43105, "lng": 84.67623, "population": 72587}, {"name": "Lanxi", "lat": 46.25773, "lng": 126.28065, "population": 72528}, {"name": "Miyang", "lat": 24.40417, "lng": 103.44278, "population": 72485}, {"name": "Jiangzhuang", "lat": 36.49444, "lng": 119.79417, "population": 72453}, {"name": "Beichengqu", "lat": 40.43944, "lng": 113.15361, "population": 72444}, {"name": "Xinzhi", "lat": 36.49889, "lng": 111.70472, "population": 72303}, {"name": "Licheng", "lat": 31.42813, "lng": 119.48353, "population": 72276}, {"name": "Zhoucheng", "lat": 35.91222, "lng": 116.31167, "population": 72070}, {"name": "Caidian", "lat": 30.58333, "lng": 114.03333, "population": 71891}, {"name": "Xiuyan", "lat": 40.29278, "lng": 123.27444, "population": 71614}, {"name": "Luohuang", "lat": 29.34662, "lng": 106.43514, "population": 71515}, {"name": "Shangsi", "lat": 22.15627, "lng": 107.97953, "population": 71468}, {"name": "Qarasu", "lat": 44.20276, "lng": 80.41639, "population": 71446}, {"name": "Changtu", "lat": 42.77884, "lng": 124.09545, "population": 71284}, {"name": "Huashan", "lat": 34.63, "lng": 116.73583, "population": 71281}, {"name": "Anlu", "lat": 31.2575, "lng": 113.67833, "population": 71198}, {"name": "Yilan", "lat": 46.3223, "lng": 129.56081, "population": 71180}, {"name": "Linjiang", "lat": 31.09956, "lng": 108.21964, "population": 71149}, {"name": "Guiping", "lat": 23.39483, "lng": 110.07434, "population": 71066}, {"name": "Kuandian", "lat": 40.72861, "lng": 124.78472, "population": 70867}, {"name": "Shenzhen City Centre", "lat": 22.53589, "lng": 114.0771, "population": 70826}, {"name": "Poyang", "lat": 28.99242, "lng": 116.66754, "population": 70787}, {"name": "Yongfeng", "lat": 27.45493, "lng": 112.16943, "population": 70783}, {"name": "Gongchangling", "lat": 41.11667, "lng": 123.45, "population": 70761}, {"name": "Jimo", "lat": 36.38972, "lng": 120.46222, "population": 70733}, {"name": "Baiquan", "lat": 47.60659, "lng": 126.08231, "population": 70472}, {"name": "Jiangyan", "lat": 32.50611, "lng": 120.14278, "population": 70375}, {"name": "Shiguai", "lat": 40.70583, "lng": 110.28556, "population": 70357}, {"name": "Fuyang", "lat": 30.05333, "lng": 119.95194, "population": 70183}, {"name": "Haining", "lat": 30.53629, "lng": 120.68638, "population": 70171}, {"name": "Shankou", "lat": 21.6, "lng": 109.71667, "population": 70153}, {"name": "Pan’an", "lat": 34.75472, "lng": 105.11167, "population": 70072}, {"name": "Mengcheng Chengguanzhen", "lat": 33.26611, "lng": 116.56605, "population": 69916}, {"name": "Xinhe", "lat": 36.925, "lng": 119.59306, "population": 69884}, {"name": "Shima", "lat": 28.98773, "lng": 105.92441, "population": 69881}, {"name": "Fengping", "lat": 24.39735, "lng": 98.5177, "population": 69586}, {"name": "Chengxian Chengguanzhen", "lat": 33.74775, "lng": 105.73294, "population": 69427}, {"name": "Xininglu", "lat": 44.33957, "lng": 84.90425, "population": 69361}, {"name": "Xuantan", "lat": 29.20856, "lng": 105.56974, "population": 69250}, {"name": "Jiehu", "lat": 35.54278, "lng": 118.455, "population": 69245}, {"name": "Linjiang", "lat": 41.80694, "lng": 126.90778, "population": 69149}, {"name": "Tantou", "lat": 26.03033, "lng": 119.59739, "population": 69050}, {"name": "Xiaoshi", "lat": 41.29711, "lng": 124.12092, "population": 68994}, {"name": "Jinjiang", "lat": 19.72878, "lng": 110.00851, "population": 68720}, {"name": "Yunmen", "lat": 30.08274, "lng": 106.32376, "population": 68698}, {"name": "Wushan", "lat": 34.72083, "lng": 104.88583, "population": 68643}, {"name": "Heishan", "lat": 41.68917, "lng": 122.11278, "population": 68603}, {"name": "Pengcheng", "lat": 36.43111, "lng": 114.17, "population": 68442}, {"name": "Wenjiang", "lat": 28.38812, "lng": 104.56339, "population": 68433}, {"name": "Shima", "lat": 24.44647, "lng": 117.81216, "population": 68375}, {"name": "Mingguang", "lat": 32.78017, "lng": 117.96378, "population": 68351}, {"name": "Ninghai", "lat": 29.28917, "lng": 121.42472, "population": 68330}, {"name": "Chaihe", "lat": 44.7598, "lng": 129.67826, "population": 67963}, {"name": "Minggang", "lat": 32.45861, "lng": 114.04861, "population": 67945}, {"name": "Tangzhai", "lat": 34.43278, "lng": 116.59111, "population": 67936}, {"name": "Xunyang", "lat": 32.82389, "lng": 109.36528, "population": 67929}, {"name": "Yanghe", "lat": 38.27852, "lng": 106.24776, "population": 67901}, {"name": "Dongfeng", "lat": 42.67387, "lng": 125.52885, "population": 67820}, {"name": "Jiang’an", "lat": 28.73335, "lng": 105.0683, "population": 67776}, {"name": "Zhenlai", "lat": 45.84963, "lng": 123.19791, "population": 67760}, {"name": "Shuangfengqiao", "lat": 29.71859, "lng": 106.62712, "population": 67717}, {"name": "Songjianghe", "lat": 42.1859, "lng": 127.47895, "population": 67672}, {"name": "Luorong", "lat": 24.40583, "lng": 109.60861, "population": 67593}, {"name": "Lüeyang Chengguanzhen", "lat": 33.33205, "lng": 106.15496, "population": 67496}, {"name": "Wenling", "lat": 28.37524, "lng": 121.38416, "population": 67433}, {"name": "Fuqing", "lat": 25.7294, "lng": 119.37469, "population": 67397}, {"name": "Caohe", "lat": 30.2297, "lng": 115.43346, "population": 67370}, {"name": "Gaoliu", "lat": 36.8, "lng": 118.5, "population": 67339}, {"name": "Xinzhou", "lat": 19.71446, "lng": 109.31146, "population": 67316}, {"name": "Pingzhuang", "lat": 42.03722, "lng": 119.28889, "population": 67273}, {"name": "Tianliu", "lat": 37.0, "lng": 118.78333, "population": 67165}, {"name": "Lushar", "lat": 36.48416, "lng": 101.56328, "population": 67153}, {"name": "Wanggou", "lat": 34.67147, "lng": 116.49213, "population": 67140}, {"name": "Fengkou", "lat": 30.08268, "lng": 113.33346, "population": 67139}, {"name": "Shajing Town", "lat": 22.73846, "lng": 113.80755, "population": 67093}, {"name": "Liuhe", "lat": 42.28473, "lng": 125.74544, "population": 66975}, {"name": "Hanyin Chengguanzhen", "lat": 32.89139, "lng": 108.50472, "population": 66926}, {"name": "Wacheng Neighborhood", "lat": 33.78333, "lng": 114.51667, "population": 66848}, {"name": "Duoba", "lat": 36.65795, "lng": 101.53374, "population": 66767}, {"name": "Shaozhuang", "lat": 36.74701, "lng": 118.31655, "population": 66728}, {"name": "Tailai", "lat": 46.39004, "lng": 123.40849, "population": 66623}, {"name": "Lishi", "lat": 29.07888, "lng": 106.262, "population": 66620}, {"name": "Chengyang", "lat": 35.57944, "lng": 118.83278, "population": 66588}, {"name": "Sanchazi", "lat": 42.08167, "lng": 126.60028, "population": 66576}, {"name": "Daxu", "lat": 34.28239, "lng": 117.55266, "population": 66563}, {"name": "Qaraqash", "lat": 37.27246, "lng": 79.73438, "population": 66541}, {"name": "Taihe", "lat": 30.09949, "lng": 106.0489, "population": 66506}, {"name": "Lianyuan", "lat": 27.68833, "lng": 111.66417, "population": 66501}, {"name": "Wuxi", "lat": 26.5844, "lng": 111.859, "population": 66442}, {"name": "Qipan", "lat": 34.24469, "lng": 118.22113, "population": 66419}, {"name": "Tangxiang", "lat": 29.70226, "lng": 105.72363, "population": 66325}, {"name": "Huinan", "lat": 42.6225, "lng": 126.26139, "population": 66315}, {"name": "Beimeng", "lat": 36.60444, "lng": 119.49556, "population": 66277}, {"name": "Luoyang", "lat": 24.95938, "lng": 118.683, "population": 66188}, {"name": "Muling", "lat": 44.91647, "lng": 130.51707, "population": 66170}, {"name": "Huanren", "lat": 41.26472, "lng": 125.36667, "population": 66147}, {"name": "Qionghu", "lat": 28.84122, "lng": 112.35505, "population": 66145}, {"name": "Huanan", "lat": 46.23624, "lng": 130.54642, "population": 66087}, {"name": "Xiaolingwei", "lat": 32.03244, "lng": 118.854, "population": 66031}, {"name": "Ganshui", "lat": 28.74222, "lng": 106.71111, "population": 65994}, {"name": "Yaoji", "lat": 34.06667, "lng": 117.81667, "population": 65897}, {"name": "Qiantang", "lat": 30.18424, "lng": 106.3165, "population": 65894}, {"name": "Mengyin", "lat": 35.70694, "lng": 117.92639, "population": 65889}, {"name": "Jietou", "lat": 25.4274, "lng": 98.65324, "population": 65843}, {"name": "Xiangcheng Chengguanzhen", "lat": 33.84703, "lng": 113.4778, "population": 65833}, {"name": "Bayiji", "lat": 34.26667, "lng": 117.68333, "population": 65830}, {"name": "Shangkou", "lat": 36.96556, "lng": 118.88306, "population": 65770}, {"name": "Ligezhuang", "lat": 36.35778, "lng": 120.14278, "population": 65714}, {"name": "Dashitou", "lat": 43.30667, "lng": 128.51139, "population": 65683}, {"name": "Huanghua", "lat": 35.88917, "lng": 119.45778, "population": 65646}, {"name": "Qingyang", "lat": 37.49583, "lng": 121.25806, "population": 65622}, {"name": "Babu", "lat": 24.41667, "lng": 111.51667, "population": 65603}, {"name": "Yebaishou", "lat": 41.3975, "lng": 119.64083, "population": 65536}, {"name": "Huaiyuan Chengguanzhen", "lat": 32.95893, "lng": 117.16566, "population": 65530}, {"name": "Xincheng", "lat": 33.63333, "lng": 115.18333, "population": 65411}, {"name": "Bianzhuang", "lat": 34.84861, "lng": 118.04472, "population": 65381}, {"name": "Suyangshan", "lat": 34.39278, "lng": 117.75556, "population": 65333}, {"name": "Hepingjie", "lat": 42.05972, "lng": 126.91583, "population": 65298}, {"name": "Liuxin", "lat": 34.36861, "lng": 117.115, "population": 65258}, {"name": "Caoqiao", "lat": 34.3405, "lng": 118.11038, "population": 65243}, {"name": "Fengrun", "lat": 39.82664, "lng": 118.13822, "population": 65150}, {"name": "Kunyang", "lat": 27.66583, "lng": 120.56583, "population": 65009}, {"name": "Tianzhuang", "lat": 36.79583, "lng": 119.73667, "population": 64957}, {"name": "Lingao", "lat": 19.90873, "lng": 109.68717, "population": 64874}, {"name": "Shikang", "lat": 21.76667, "lng": 109.31667, "population": 64818}, {"name": "Fenggang", "lat": 27.54566, "lng": 116.21456, "population": 64715}, {"name": "Picheng", "lat": 34.46667, "lng": 117.96667, "population": 64585}, {"name": "Renzhao", "lat": 36.63861, "lng": 120.20361, "population": 64569}, {"name": "Changli", "lat": 39.70647, "lng": 119.1603, "population": 64476}, {"name": "Kaihua", "lat": 23.3695, "lng": 104.27721, "population": 64404}, {"name": "Yunmeng Chengguanzhen", "lat": 31.06251, "lng": 113.76545, "population": 64390}, {"name": "Yangzhou", "lat": 33.22192, "lng": 107.54267, "population": 64349}, {"name": "Qinggang", "lat": 46.69833, "lng": 126.0921, "population": 64182}, {"name": "Dengbu", "lat": 28.2084, "lng": 116.81717, "population": 63814}, {"name": "Yangcun", "lat": 39.36389, "lng": 117.06028, "population": 63756}, {"name": "Zhicheng", "lat": 31.00751, "lng": 119.90851, "population": 63753}, {"name": "Lulou", "lat": 34.71667, "lng": 116.76667, "population": 63704}, {"name": "Baihecun", "lat": 22.11321, "lng": 107.23592, "population": 63629}, {"name": "Guanyin", "lat": 29.09926, "lng": 104.39416, "population": 63606}, {"name": "Mabai", "lat": 23.01279, "lng": 104.45081, "population": 63569}, {"name": "Nanlong", "lat": 31.35333, "lng": 106.06309, "population": 63405}, {"name": "Youxi", "lat": 29.20936, "lng": 106.14428, "population": 63386}, {"name": "Xiazhuang", "lat": 34.91611, "lng": 118.63889, "population": 63285}, {"name": "Changcheng", "lat": 36.09056, "lng": 119.45167, "population": 63208}, {"name": "Shanwang", "lat": 36.5454, "lng": 118.711, "population": 63195}, {"name": "Botou", "lat": 38.07366, "lng": 116.56667, "population": 63045}, {"name": "Liuku", "lat": 25.8505, "lng": 98.85567, "population": 63013}, {"name": "Baoqing", "lat": 46.32452, "lng": 132.1897, "population": 62991}, {"name": "Shizhai", "lat": 34.80556, "lng": 116.63889, "population": 62956}, {"name": "Jinggou", "lat": 36.28176, "lng": 119.55185, "population": 62917}, {"name": "Fanlou", "lat": 34.48091, "lng": 116.85248, "population": 62859}, {"name": "Changle", "lat": 21.83333, "lng": 109.41667, "population": 62763}, {"name": "Miaojie", "lat": 25.31232, "lng": 100.27983, "population": 62540}, {"name": "Kaitong", "lat": 44.80913, "lng": 123.08108, "population": 62537}, {"name": "Zhangjiachuan", "lat": 34.98756, "lng": 106.20902, "population": 62497}, {"name": "Pingnan", "lat": 23.5418, "lng": 110.38929, "population": 62483}, {"name": "Dêqên", "lat": 29.96178, "lng": 90.71875, "population": 62400}, {"name": "Songyang", "lat": 34.45549, "lng": 113.03194, "population": 62375}, {"name": "Yucheng", "lat": 34.92889, "lng": 116.46528, "population": 62365}, {"name": "Shuikou", "lat": 23.98372, "lng": 115.89581, "population": 62321}, {"name": "Shuangyang", "lat": 43.52259, "lng": 125.65948, "population": 62137}, {"name": "Nianzishan", "lat": 47.51344, "lng": 122.88788, "population": 62131}, {"name": "Pingyin", "lat": 36.28306, "lng": 116.44528, "population": 62050}, {"name": "Bin Xian", "lat": 45.74274, "lng": 127.46053, "population": 62017}, {"name": "Qingshuping", "lat": 27.38083, "lng": 112.02056, "population": 62000}, {"name": "Zhaobaoshan", "lat": 29.9695, "lng": 121.68753, "population": 61979}, {"name": "Hushitai", "lat": 41.94175, "lng": 123.50266, "population": 61979}, {"name": "Zhangji", "lat": 34.1375, "lng": 117.37556, "population": 61929}, {"name": "Huoqiu Chengguanzhen", "lat": 32.35473, "lng": 116.2939, "population": 61904}, {"name": "Mudu", "lat": 31.25597, "lng": 120.51857, "population": 61902}, {"name": "Fengyi", "lat": 25.58399, "lng": 100.31181, "population": 61890}, {"name": "Nandu", "lat": 22.8525, "lng": 110.82333, "population": 61881}, {"name": "Longfeng", "lat": 30.38793, "lng": 109.50706, "population": 61862}, {"name": "Taoluo", "lat": 35.27389, "lng": 119.37028, "population": 61852}, {"name": "Yingshang Chengguanzhen", "lat": 32.62945, "lng": 116.27013, "population": 61771}, {"name": "Xiangzhou", "lat": 36.16444, "lng": 119.41889, "population": 61748}, {"name": "Yongning", "lat": 22.76101, "lng": 108.48359, "population": 61690}, {"name": "Xinye", "lat": 32.52875, "lng": 112.36514, "population": 61633}, {"name": "Lishu", "lat": 43.30727, "lng": 124.33371, "population": 61584}, {"name": "Oroqen Zizhiqi", "lat": 50.56667, "lng": 123.71667, "population": 61582}, {"name": "Xianju", "lat": 28.8547, "lng": 120.73168, "population": 61532}, {"name": "Jianguang", "lat": 28.19377, "lng": 115.7836, "population": 61469}, {"name": "Dongning", "lat": 44.08436, "lng": 131.11841, "population": 61440}, {"name": "Dashi", "lat": 30.09372, "lng": 106.22227, "population": 61426}, {"name": "Tianchang", "lat": 37.99806, "lng": 114.01556, "population": 61292}, {"name": "Xifeng", "lat": 42.73722, "lng": 124.72222, "population": 61087}, {"name": "Datong", "lat": 32.62082, "lng": 117.06319, "population": 61085}, {"name": "Nanhu", "lat": 35.48778, "lng": 119.34583, "population": 61034}, {"name": "Yicheng", "lat": 31.70472, "lng": 112.25611, "population": 61027}, {"name": "Xiema", "lat": 29.77415, "lng": 106.3688, "population": 60933}, {"name": "Yanliang", "lat": 34.65918, "lng": 109.22921, "population": 60891}, {"name": "Tahe", "lat": 52.32148, "lng": 124.69761, "population": 60874}, {"name": "Erdaojiang", "lat": 41.77639, "lng": 126.03194, "population": 60831}, {"name": "Tianpeng", "lat": 30.98664, "lng": 103.93933, "population": 60797}, {"name": "Xixiang", "lat": 35.16278, "lng": 112.865, "population": 60745}, {"name": "Yaowan", "lat": 34.18333, "lng": 118.06667, "population": 60668}, {"name": "Mujiayingzi", "lat": 42.11667, "lng": 118.78333, "population": 60627}, {"name": "Dingjia", "lat": 29.409, "lng": 106.14228, "population": 60585}, {"name": "Langzhong", "lat": 31.55037, "lng": 105.99381, "population": 60542}, {"name": "Liancheng", "lat": 25.71826, "lng": 116.74892, "population": 60504}, {"name": "Jiangbei", "lat": 29.7283, "lng": 106.63506, "population": 60466}, {"name": "Longgang", "lat": 37.65181, "lng": 120.33063, "population": 60444}, {"name": "Taitou", "lat": 37.02733, "lng": 118.63392, "population": 60354}, {"name": "Gushu", "lat": 31.56055, "lng": 118.48147, "population": 60335}, {"name": "Fenshui", "lat": 30.7197, "lng": 108.08333, "population": 60308}, {"name": "Wujing", "lat": 36.45, "lng": 118.4, "population": 60260}, {"name": "Wucheng", "lat": 29.60077, "lng": 118.17495, "population": 60212}, {"name": "Yuxia", "lat": 34.06153, "lng": 108.62905, "population": 60206}, {"name": "Runing", "lat": 33.00111, "lng": 114.35417, "population": 60202}, {"name": "Zhijiang", "lat": 30.42139, "lng": 111.75333, "population": 60169}, {"name": "Gucheng", "lat": 36.95347, "lng": 118.76246, "population": 60149}, {"name": "Taozhuang", "lat": 34.85, "lng": 117.33333, "population": 60137}, {"name": "Sandaohezi", "lat": 44.32597, "lng": 85.62009, "population": 60129}, {"name": "Yongbei", "lat": 26.64623, "lng": 100.78073, "population": 60099}, {"name": "Dazeshan", "lat": 36.98874, "lng": 119.92224, "population": 60034}, {"name": "Zhujiajiao", "lat": 31.10757, "lng": 121.05696, "population": 60000}, {"name": "Wuzhen", "lat": 30.74536, "lng": 120.4851, "population": 60000}, {"name": "Jiangkou", "lat": 25.48694, "lng": 119.19834, "population": 59902}, {"name": "Maqin County", "lat": 34.47442, "lng": 100.24496, "population": 59900}, {"name": "Pucheng", "lat": 27.92333, "lng": 118.53333, "population": 59832}, {"name": "Baimajing", "lat": 19.71195, "lng": 109.21801, "population": 59585}, {"name": "Tuanbao", "lat": 30.33675, "lng": 109.13465, "population": 59580}, {"name": "Wenshang", "lat": 35.7275, "lng": 116.49611, "population": 59455}, {"name": "Mingshui", "lat": 47.17944, "lng": 125.90284, "population": 59369}, {"name": "Huiqu", "lat": 36.27136, "lng": 119.04903, "population": 59323}, {"name": "Gannan", "lat": 47.92038, "lng": 123.50046, "population": 59239}, {"name": "Hongjiang", "lat": 27.11, "lng": 109.99556, "population": 59199}, {"name": "Jian’ou", "lat": 27.04146, "lng": 118.31897, "population": 59187}, {"name": "Tashan", "lat": 34.33611, "lng": 117.56667, "population": 59162}, {"name": "Jixian", "lat": 46.72594, "lng": 131.13308, "population": 59160}, {"name": "Hezuo", "lat": 34.98556, "lng": 102.90944, "population": 59148}, {"name": "Haizhou", "lat": 34.58167, "lng": 119.12889, "population": 59098}, {"name": "Longgu", "lat": 34.90333, "lng": 116.80667, "population": 59086}, {"name": "Yigou", "lat": 35.81139, "lng": 114.31667, "population": 59073}, {"name": "Langtoucun", "lat": 40.04068, "lng": 124.33525, "population": 59046}, {"name": "Xiaoweizhai", "lat": 26.19028, "lng": 107.5125, "population": 58913}, {"name": "Antu", "lat": 43.10247, "lng": 128.90848, "population": 58872}, {"name": "Suozhen", "lat": 36.95389, "lng": 118.10472, "population": 58766}, {"name": "Taifu", "lat": 28.98198, "lng": 105.63702, "population": 58663}, {"name": "Shiqiaozi", "lat": 36.16167, "lng": 119.26306, "population": 58538}, {"name": "Jidong", "lat": 45.256, "lng": 131.11637, "population": 58520}, {"name": "Fenyi", "lat": 27.81117, "lng": 114.66805, "population": 58478}, {"name": "Chonglong", "lat": 29.78062, "lng": 104.85224, "population": 58441}, {"name": "Xinglongshan", "lat": 43.95611, "lng": 125.46611, "population": 58432}, {"name": "Tongchuan", "lat": 31.09407, "lng": 105.08731, "population": 58346}, {"name": "Shibuzi", "lat": 36.12389, "lng": 119.10278, "population": 58333}, {"name": "Lixian", "lat": 34.19, "lng": 105.1725, "population": 58300}, {"name": "Hongqiao", "lat": 26.76837, "lng": 112.10814, "population": 58287}, {"name": "Zhutuo", "lat": 29.0184, "lng": 105.84877, "population": 58262}, {"name": "Dingtao", "lat": 35.07436, "lng": 115.56582, "population": 58206}, {"name": "Dongxi", "lat": 28.76139, "lng": 106.66111, "population": 58169}, {"name": "Juye", "lat": 35.38737, "lng": 116.07168, "population": 58107}, {"name": "Hancheng", "lat": 35.46028, "lng": 110.42917, "population": 58049}, {"name": "Santangpu", "lat": 27.40556, "lng": 111.98694, "population": 58000}, {"name": "Jing'an", "lat": 34.49621, "lng": 116.92249, "population": 57825}, {"name": "Emin", "lat": 46.52582, "lng": 83.63418, "population": 57782}, {"name": "Longtan", "lat": 28.75716, "lng": 108.96414, "population": 57769}, {"name": "Shenliu", "lat": 29.41369, "lng": 112.16435, "population": 57769}, {"name": "Maocun", "lat": 34.37667, "lng": 117.25056, "population": 57649}, {"name": "Huangpi", "lat": 30.88453, "lng": 114.37789, "population": 57554}, {"name": "Shanhecun", "lat": 45.71131, "lng": 128.58029, "population": 57550}, {"name": "Yantongshan", "lat": 43.29194, "lng": 126.00944, "population": 57515}, {"name": "Guiren", "lat": 33.66972, "lng": 118.18889, "population": 57446}, {"name": "Zhongxing", "lat": 33.70389, "lng": 118.67917, "population": 57338}, {"name": "Langxiang", "lat": 46.94985, "lng": 128.86849, "population": 57318}, {"name": "Bageqi", "lat": 37.14071, "lng": 79.83509, "population": 57153}, {"name": "Suiling", "lat": 47.23489, "lng": 127.10769, "population": 57124}, {"name": "Wenxing", "lat": 28.68208, "lng": 112.87864, "population": 57117}, {"name": "Yingli", "lat": 37.065, "lng": 118.81029, "population": 57091}, {"name": "Baishishan", "lat": 43.58333, "lng": 127.56667, "population": 56992}, {"name": "Ninghai", "lat": 37.38422, "lng": 121.60859, "population": 56937}, {"name": "Zhuzhai", "lat": 34.76111, "lng": 116.81389, "population": 56908}, {"name": "Jinji", "lat": 23.22806, "lng": 110.82611, "population": 56816}, {"name": "Weining", "lat": 26.85, "lng": 104.23333, "population": 56744}, {"name": "Qingfu", "lat": 28.43701, "lng": 104.51622, "population": 56650}, {"name": "Daokou", "lat": 35.56895, "lng": 114.51593, "population": 56637}, {"name": "Yashan", "lat": 22.1975, "lng": 109.94194, "population": 56629}, {"name": "Nantai", "lat": 40.9241, "lng": 122.80437, "population": 56478}, {"name": "Changleng", "lat": 28.7, "lng": 115.81667, "population": 56429}, {"name": "Hutang", "lat": 31.53429, "lng": 119.49, "population": 56370}, {"name": "Sanchuan", "lat": 26.75041, "lng": 100.65894, "population": 56345}, {"name": "Sitou", "lat": 36.31275, "lng": 118.41185, "population": 56289}, {"name": "Zibihu", "lat": 26.1143, "lng": 99.95267, "population": 56246}, {"name": "Baidi", "lat": 31.05761, "lng": 109.59088, "population": 56216}, {"name": "Gaogou", "lat": 34.0175, "lng": 119.18861, "population": 56214}, {"name": "Linghai", "lat": 41.16528, "lng": 121.36667, "population": 56176}, {"name": "Longshi", "lat": 30.21469, "lng": 106.45743, "population": 56142}, {"name": "Xuzhuang", "lat": 34.29614, "lng": 117.45798, "population": 56099}, {"name": "Gongyi", "lat": 34.75534, "lng": 113.01137, "population": 56033}, {"name": "Qinnan", "lat": 33.25306, "lng": 119.91333, "population": 55975}, {"name": "Gelan", "lat": 30.03589, "lng": 107.11612, "population": 55938}, {"name": "Dalianwan", "lat": 39.02861, "lng": 121.695, "population": 55841}, {"name": "Changling", "lat": 44.27295, "lng": 123.97559, "population": 55841}, {"name": "Bonan", "lat": 25.46335, "lng": 99.52826, "population": 55685}, {"name": "Zhuyi", "lat": 31.02543, "lng": 109.38562, "population": 55627}, {"name": "Yongqing", "lat": 34.74806, "lng": 106.12694, "population": 55595}, {"name": "Linqiong", "lat": 30.41587, "lng": 103.46089, "population": 55587}, {"name": "Qishan", "lat": 29.84431, "lng": 117.71937, "population": 55500}, {"name": "Lanshan", "lat": 33.93611, "lng": 117.725, "population": 55442}, {"name": "Anjiang", "lat": 27.31944, "lng": 110.10306, "population": 55421}, {"name": "Xinqing", "lat": 48.28701, "lng": 129.52337, "population": 55415}, {"name": "Dorbod", "lat": 46.86135, "lng": 124.442, "population": 55316}, {"name": "Yutan", "lat": 28.25831, "lng": 112.56048, "population": 55312}, {"name": "Ahu", "lat": 34.37664, "lng": 118.60308, "population": 55298}, {"name": "Bayan", "lat": 46.07622, "lng": 127.39369, "population": 55186}, {"name": "Licha", "lat": 36.05722, "lng": 119.78333, "population": 55140}, {"name": "Pingjin", "lat": 30.61176, "lng": 107.54497, "population": 55139}, {"name": "Shilin", "lat": 24.81878, "lng": 103.33237, "population": 55000}, {"name": "Liguo", "lat": 34.55287, "lng": 117.33296, "population": 54960}, {"name": "Huangnihe", "lat": 43.55833, "lng": 128.02389, "population": 54959}, {"name": "Manzhouli", "lat": 49.6, "lng": 117.43333, "population": 54808}, {"name": "Huguo", "lat": 28.58626, "lng": 105.36663, "population": 54795}, {"name": "Liuji", "lat": 34.35833, "lng": 117.05278, "population": 54785}, {"name": "Liangzhai", "lat": 34.5, "lng": 116.75, "population": 54742}, {"name": "Liaozhong", "lat": 41.50611, "lng": 122.72417, "population": 54691}, {"name": "Wangji", "lat": 33.98333, "lng": 117.75, "population": 54578}, {"name": "Nanzhou", "lat": 29.36382, "lng": 112.40654, "population": 54449}, {"name": "Yunjin", "lat": 29.0818, "lng": 105.64329, "population": 54385}, {"name": "Fangcun", "lat": 34.08639, "lng": 117.47361, "population": 54035}, {"name": "Yongjian", "lat": 25.42543, "lng": 100.21244, "population": 53970}, {"name": "Xiazhuang", "lat": 25.4, "lng": 100.83333, "population": 53954}, {"name": "Mingcun", "lat": 36.75361, "lng": 119.64083, "population": 53926}, {"name": "Lingcheng", "lat": 33.81639, "lng": 118.11361, "population": 53841}, {"name": "Jinding", "lat": 26.43903, "lng": 99.44061, "population": 53667}, {"name": "Qingxichang", "lat": 28.40417, "lng": 108.90442, "population": 53552}, {"name": "Jinhua", "lat": 26.538, "lng": 99.91715, "population": 53523}, {"name": "Buzhuang", "lat": 36.91218, "lng": 119.5566, "population": 53474}, {"name": "Shiquan", "lat": 33.04083, "lng": 108.23639, "population": 53422}, {"name": "Yangtun", "lat": 34.88333, "lng": 116.88333, "population": 53417}, {"name": "Zhangfeng", "lat": 24.19064, "lng": 97.80191, "population": 53370}, {"name": "Yousuo", "lat": 26.02527, "lng": 100.06771, "population": 53233}, {"name": "Zhaozhuang", "lat": 34.73889, "lng": 116.45556, "population": 53193}, {"name": "Tangzhang", "lat": 34.14779, "lng": 117.25395, "population": 52985}, {"name": "Lingwu", "lat": 38.10191, "lng": 106.34017, "population": 52863}, {"name": "Taoyuan", "lat": 33.85278, "lng": 117.77028, "population": 52861}, {"name": "Beisu", "lat": 38.15479, "lng": 114.80689, "population": 52752}, {"name": "Wulingyuan", "lat": 29.34936, "lng": 110.54407, "population": 52712}, {"name": "Malingshan", "lat": 34.20351, "lng": 118.3565, "population": 52711}, {"name": "Hualong", "lat": 36.94589, "lng": 118.58864, "population": 52660}, {"name": "Dianbu", "lat": 36.70167, "lng": 120.35111, "population": 52613}, {"name": "Daxing", "lat": 27.26369, "lng": 100.86387, "population": 52568}, {"name": "Puji", "lat": 36.13194, "lng": 119.72111, "population": 52563}, {"name": "Xingqiao", "lat": 30.39943, "lng": 120.25171, "population": 52400}, {"name": "Songlingcun", "lat": 40.29394, "lng": 118.27143, "population": 52277}, {"name": "Yunshan", "lat": 36.82417, "lng": 120.22611, "population": 52249}, {"name": "Dapeng", "lat": 34.28436, "lng": 117.07522, "population": 52219}, {"name": "Sanzhuang", "lat": 35.50333, "lng": 119.17167, "population": 52214}, {"name": "Zhawa", "lat": 37.21421, "lng": 79.62897, "population": 52165}, {"name": "Jitai", "lat": 36.75724, "lng": 118.73866, "population": 52144}, {"name": "Zizhuang", "lat": 34.36152, "lng": 117.48816, "population": 52063}, {"name": "Liangji", "lat": 33.96389, "lng": 117.96944, "population": 52048}, {"name": "Dashahe", "lat": 34.53847, "lng": 116.62453, "population": 51916}, {"name": "Duzhou", "lat": 29.87848, "lng": 107.0784, "population": 51888}, {"name": "Zhongxin", "lat": 26.61667, "lng": 101.27154, "population": 51866}, {"name": "Weimiao", "lat": 34.58333, "lng": 117.06667, "population": 51820}, {"name": "Qishan", "lat": 34.63333, "lng": 116.8, "population": 51750}, {"name": "São Lourenço", "lat": 22.18851, "lng": 113.53488, "population": 51700}, {"name": "Zepu", "lat": 38.18867, "lng": 77.27075, "population": 51691}, {"name": "Liuquan", "lat": 34.43417, "lng": 117.29833, "population": 51657}, {"name": "Zhefang", "lat": 24.26667, "lng": 98.28333, "population": 51477}, {"name": "Sanhui", "lat": 30.08167, "lng": 106.5912, "population": 51413}, {"name": "Dianzi", "lat": 36.9011, "lng": 119.86572, "population": 51267}, {"name": "Panlong", "lat": 29.50025, "lng": 105.37066, "population": 51177}, {"name": "Gangshang", "lat": 34.52147, "lng": 118.11835, "population": 51114}, {"name": "Guanshan", "lat": 33.79833, "lng": 117.86639, "population": 51086}, {"name": "Datong", "lat": 28.59648, "lng": 106.66749, "population": 51025}, {"name": "Shuijiang", "lat": 29.2476, "lng": 107.28443, "population": 50918}, {"name": "Guanzhuang", "lat": 36.26333, "lng": 119.19389, "population": 50826}, {"name": "Shanji", "lat": 34.20472, "lng": 117.59556, "population": 50617}, {"name": "Lhünzhub", "lat": 29.8931, "lng": 91.26166, "population": 50596}, {"name": "Hanyuan", "lat": 32.834, "lng": 106.25035, "population": 50440}, {"name": "Yanghe", "lat": 36.13806, "lng": 119.91353, "population": 50371}, {"name": "Nanjian", "lat": 25.04493, "lng": 100.51437, "population": 50083}, {"name": "Naxi", "lat": 28.77422, "lng": 105.36488, "population": 50020}, {"name": "Zhenxi", "lat": 29.89929, "lng": 107.46452, "population": 50017}, {"name": "Yongxin", "lat": 28.96667, "lng": 106.53333, "population": 49951}, {"name": "Changdian", "lat": 34.77586, "lng": 116.58339, "population": 49772}, {"name": "Xinglou", "lat": 34.56667, "lng": 117.82778, "population": 49653}, {"name": "Mihe", "lat": 36.62096, "lng": 118.52872, "population": 49545}, {"name": "Maizhokunggar", "lat": 29.83774, "lng": 91.72889, "population": 49511}, {"name": "Shuanghe", "lat": 29.32074, "lng": 105.56942, "population": 49411}, {"name": "Guangshun", "lat": 29.37483, "lng": 105.52653, "population": 49388}, {"name": "Gaoliang", "lat": 30.82394, "lng": 108.30224, "population": 49357}, {"name": "Dongcheng", "lat": 19.70868, "lng": 109.4561, "population": 49252}, {"name": "Jinjiang", "lat": 28.40051, "lng": 116.89983, "population": 49245}, {"name": "Gao’an", "lat": 30.29019, "lng": 107.46197, "population": 49218}, {"name": "Jiawang Zhen", "lat": 34.42202, "lng": 117.46764, "population": 49005}, {"name": "Haiyang", "lat": 29.78612, "lng": 118.17698, "population": 48928}, {"name": "Gupi", "lat": 34.11389, "lng": 117.88278, "population": 48748}, {"name": "Xinhe", "lat": 34.18613, "lng": 117.98775, "population": 48712}, {"name": "Ningdong", "lat": 38.16143, "lng": 106.58502, "population": 48587}, {"name": "Xianfeng", "lat": 29.21004, "lng": 106.30012, "population": 48586}, {"name": "Gaoliu", "lat": 34.31667, "lng": 118.51667, "population": 48485}, {"name": "Liutuan", "lat": 36.93333, "lng": 119.38333, "population": 48469}, {"name": "Da’an", "lat": 29.3831, "lng": 106.01476, "population": 48371}, {"name": "Chenlou", "lat": 34.38889, "lng": 118.05, "population": 48327}, {"name": "Qing’an", "lat": 33.96944, "lng": 117.88056, "population": 48234}, {"name": "Shiyan", "lat": 30.08345, "lng": 107.17221, "population": 48193}, {"name": "Dalu", "lat": 29.72984, "lng": 106.2177, "population": 48145}, {"name": "Qianliu", "lat": 22.9, "lng": 100.2, "population": 48090}, {"name": "Weiji", "lat": 34.03333, "lng": 117.95, "population": 48069}, {"name": "Wangfen", "lat": 36.55, "lng": 118.38333, "population": 48052}, {"name": "Jielong", "lat": 29.24946, "lng": 106.77663, "population": 48018}, {"name": "Shuangfu", "lat": 29.41359, "lng": 106.27014, "population": 47962}, {"name": "Damxung", "lat": 30.47797, "lng": 91.1055, "population": 47900}, {"name": "Baizi", "lat": 30.09403, "lng": 105.71297, "population": 47879}, {"name": "Yuexi", "lat": 30.91127, "lng": 108.15926, "population": 47802}, {"name": "Cuijiaji", "lat": 36.62528, "lng": 119.71333, "population": 47651}, {"name": "Jieshi", "lat": 29.38958, "lng": 106.60783, "population": 47636}, {"name": "Damoujia", "lat": 36.54356, "lng": 119.81326, "population": 47569}, {"name": "Shunhe", "lat": 34.84184, "lng": 116.55722, "population": 47330}, {"name": "Gongqingcheng", "lat": 29.24915, "lng": 115.80953, "population": 47284}, {"name": "Hekou", "lat": 34.57778, "lng": 116.81389, "population": 47281}, {"name": "Hanwang", "lat": 34.19444, "lng": 117.08333, "population": 47205}, {"name": "Diaoyucheng", "lat": 29.99878, "lng": 106.26613, "population": 47205}, {"name": "Changsha", "lat": 30.99997, "lng": 108.30463, "population": 47170}, {"name": "Kongtan", "lat": 29.14408, "lng": 104.67474, "population": 47125}, {"name": "Sunlou", "lat": 34.66667, "lng": 116.58333, "population": 46941}, {"name": "Qabqa", "lat": 36.28139, "lng": 100.61306, "population": 46907}, {"name": "Nanpeng", "lat": 29.33472, "lng": 106.65222, "population": 46786},