[{"name": "Prague", "lat": 50.08804, "lng": 14.42076, "population": 1165581}, {"name": "Brno", "lat": 49.19522, "lng": 16.60796, "population": 379466}, {"name": "Ostrava", "lat": 49.83465, "lng": 18.28204, "population": 279791}, {"name": "Pilsen", "lat": 49.74747, "lng": 13.37759, "population": 168733}, {"name": "Liberec", "lat": 50.76711, "lng": 15.05619, "population": 102951}, {"name": "Olomouc", "lat": 49.59552, "lng": 17.25175, "population": 99496}, {"name": "České Budějovice", "lat": 48.97447, "lng": 14.47434, "population": 93426}, {"name": "Hradec Králové", "lat": 50.20923, "lng": 15.83277, "population": 90596}, {"name": "Ústí nad Labem", "lat": 50.6607, "lng": 14.03227, "population": 90378}, {"name": "Pardubice", "lat": 50.04075, "lng": 15.77659, "population": 88520}, {"name": "Brno střed", "lat": 49.19343, "lng": 16.60712, "population": 86685}, {"name": "Havířov", "lat": 49.77984, "lng": 18.43688, "population": 82768}, {"name": "Zlín", "lat": 49.22645, "lng": 17.67065, "population": 72973}, {"name": "Kladno", "lat": 50.14734, "lng": 14.10285, "population": 69664}, {"name": "Most", "lat": 50.50301, "lng": 13.63617, "population": 63474}, {"name": "Stodůlky", "lat": 50.05, "lng": 14.31667, "population": 60758}, {"name": "Opava", "lat": 49.93866, "lng": 17.90257, "population": 60252}, {"name": "Frýdek-Místek", "lat": 49.68333, "lng": 18.35, "population": 59416}, {"name": "Žižkov", "lat": 50.08333, "lng": 14.45, "population": 58267}, {"name": "Teplice", "lat": 50.6404, "lng": 13.82451, "population": 50912}, {"name": "Jihlava", "lat": 49.3961, "lng": 15.59124, "population": 50108}, {"name": "Chodov", "lat": 50.03669, "lng": 14.50444, "population": 50043}, {"name": "Královské Vinohrady", "lat": 50.07438, "lng": 14.44367, "population": 48805}, {"name": "Karviná", "lat": 49.854, "lng": 18.54169, "population": 48637}, {"name": "Chomutov", "lat": 50.46048, "lng": 13.41779, "population": 46771}, {"name": "Děčín", "lat": 50.78215, "lng": 14.21478, "population": 46376}, {"name": "Jablonec nad Nisou", "lat": 50.72431, "lng": 15.17108, "population": 46209}, {"name": "Karlovy Vary", "lat": 50.23271, "lng": 12.87117, "population": 45500}, {"name": "Mladá Boleslav", "lat": 50.41135, "lng": 14.90318, "population": 43684}, {"name": "Prostějov", "lat": 49.47188, "lng": 17.11184, "population": 43408}, {"name": "Přerov", "lat": 49.45511, "lng": 17.4509, "population": 40906}, {"name": "Třinec", "lat": 49.67763, "lng": 18.67078, "population": 38415}, {"name": "Staré Strašnice", "lat": 50.07649, "lng": 14.51037, "population": 37665}, {"name": "Holešovice", "lat": 50.10468, "lng": 14.44946, "population": 37664}, {"name": "Vršovice", "lat": 50.06732, "lng": 14.46026, "population": 36836}, {"name": "Česká Lípa", "lat": 50.68551, "lng": 14.53764, "population": 36815}, {"name": "Tábor", "lat": 49.41441, "lng": 14.6578, "population": 36264}, {"name": "Libeň", "lat": 50.10819, "lng": 14.47457, "population": 36151}, {"name": "Znojmo", "lat": 48.8555, "lng": 16.0488, "population": 35280}, {"name": "Záběhlice", "lat": 50.0573, "lng": 14.5038, "population": 35228}, {"name": "Nusle", "lat": 50.06458, "lng": 14.4399, "population": 35150}, {"name": "Smíchov", "lat": 50.07204, "lng": 14.40415, "population": 34987}, {"name": "Třebíč", "lat": 49.21492, "lng": 15.88166, "population": 34530}, {"name": "Orlová", "lat": 49.84527, "lng": 18.43011, "population": 34282}, {"name": "Modřany", "lat": 50.01116, "lng": 14.4096, "population": 33574}, {"name": "Kolín", "lat": 50.02806, "lng": 15.1998, "population": 33444}, {"name": "Cheb", "lat": 50.07963, "lng": 12.37392, "population": 32808}, {"name": "Příbram", "lat": 49.68988, "lng": 14.01043, "population": 32773}, {"name": "Trutnov", "lat": 50.56101, "lng": 15.9127, "population": 31398}, {"name": "Písek", "lat": 49.3088, "lng": 14.1475, "population": 29774}, {"name": "Šumperk", "lat": 49.96528, "lng": 16.97061, "population": 28768}, {"name": "Vsetín", "lat": 49.33871, "lng": 17.99619, "population": 28575}, {"name": "Kroměříž", "lat": 49.29785, "lng": 17.39312, "population": 27917}, {"name": "Valašské Meziříčí", "lat": 49.47181, "lng": 17.97113, "population": 27481}, {"name": "Krč", "lat": 50.0416, "lng": 14.44573, "population": 27344}, {"name": "Nové Město", "lat": 50.07829, "lng": 14.42089, "population": 27105}, {"name": "Kobylisy", "lat": 50.12366, "lng": 14.45209, "population": 27030}, {"name": "Nový Jičín", "lat": 49.59438, "lng": 18.01028, "population": 26547}, {"name": "Břeclav", "lat": 48.75897, "lng": 16.88203, "population": 25789}, {"name": "Český Těšín", "lat": 49.74613, "lng": 18.62613, "population": 25750}, {"name": "Uherské Hradiště", "lat": 49.06975, "lng": 17.45969, "population": 24887}, {"name": "Líšeň", "lat": 49.20711, "lng": 16.69484, "population": 24563}, {"name": "Litoměřice", "lat": 50.53348, "lng": 14.1318, "population": 24489}, {"name": "Havlíčkův Brod", "lat": 49.6069, "lng": 15.57937, "population": 24356}, {"name": "Královo Pole", "lat": 49.22522, "lng": 16.58987, "population": 24212}, {"name": "Chrudim", "lat": 49.95109, "lng": 15.79558, "population": 23630}, {"name": "Hodonín", "lat": 48.84893, "lng": 17.13244, "population": 23517}, {"name": "Hlubočepy", "lat": 50.04364, "lng": 14.40162, "population": 23461}, {"name": "Kopřivnice", "lat": 49.59947, "lng": 18.1448, "population": 23424}, {"name": "Dejvice", "lat": 50.10079, "lng": 14.39071, "population": 23401}, {"name": "Bohumín", "lat": 49.90411, "lng": 18.35755, "population": 23075}, {"name": "Starý Bohumín", "lat": 49.9169, "lng": 18.33619, "population": 23034}, {"name": "Jindřichův Hradec", "lat": 49.14404, "lng": 15.00301, "population": 22812}, {"name": "Klatovy", "lat": 49.39552, "lng": 13.29505, "population": 22763}, {"name": "Bystrc", "lat": 49.22645, "lng": 16.5303, "population": 22685}, {"name": "Krnov", "lat": 50.08967, "lng": 17.70385, "population": 22518}, {"name": "Černý Most", "lat": 50.10475, "lng": 14.57974, "population": 22466}, {"name": "Řepy", "lat": 50.07064, "lng": 14.30051, "population": 22461}, {"name": "Litvínov", "lat": 50.6042, "lng": 13.61812, "population": 22387}, {"name": "Strakonice", "lat": 49.26141, "lng": 13.90237, "population": 22355}, {"name": "Háje", "lat": 50.03611, "lng": 14.52672, "population": 22059}, {"name": "Sokolov", "lat": 50.1813, "lng": 12.6401, "population": 22007}, {"name": "Letňany", "lat": 50.13333, "lng": 14.51667, "population": 21702}, {"name": "Kutná Hora", "lat": 49.94839, "lng": 15.26816, "population": 21642}, {"name": "Beroun", "lat": 49.96382, "lng": 14.072, "population": 21521}, {"name": "Michle", "lat": 50.04795, "lng": 14.46217, "population": 21402}, {"name": "Náchod", "lat": 50.4167, "lng": 16.16289, "population": 21263}, {"name": "Žďár nad Sázavou", "lat": 49.56263, "lng": 15.93924, "population": 20847}, {"name": "Vyškov", "lat": 49.27747, "lng": 16.99897, "population": 20645}, {"name": "Brandýs nad Labem-Stará Boleslav", "lat": 50.18709, "lng": 14.66326, "population": 20313}, {"name": "Blansko", "lat": 49.36304, "lng": 16.64446, "population": 20002}, {"name": "Žabovřesky", "lat": 49.21395, "lng": 16.57253, "population": 19387}, {"name": "Jirkov", "lat": 50.49979, "lng": 13.44769, "population": 19240}, {"name": "Mělník", "lat": 50.3505, "lng": 14.47411, "population": 19231}, {"name": "Hostivař", "lat": 50.04862, "lng": 14.5244, "population": 19161}, {"name": "Žatec", "lat": 50.32717, "lng": 13.54577, "population": 18959}, {"name": "Židenice", "lat": 49.19654, "lng": 16.64738, "population": 18920}, {"name": "Kadaň", "lat": 50.38333, "lng": 13.26667, "population": 18759}, {"name": "Louny", "lat": 50.35699, "lng": 13.79667, "population": 18068}, {"name": "Hranice", "lat": 49.54796, "lng": 17.73469, "population": 17969}, {"name": "Braník", "lat": 50.03498, "lng": 14.41518, "population": 17777}, {"name": "Vysočany", "lat": 50.10938, "lng": 14.51667, "population": 17465}, {"name": "Otrokovice", "lat": 49.20934, "lng": 17.53944, "population": 17401}, {"name": "Kralupy nad Vltavou", "lat": 50.24107, "lng": 14.31149, "population": 17373}, {"name": "Rožnov pod Radhoštěm", "lat": 49.45853, "lng": 18.14302, "population": 17238}, {"name": "Říčany", "lat": 49.99168, "lng": 14.65427, "population": 17143}, {"name": "Benešov", "lat": 49.78162, "lng": 14.68697, "population": 17043}, {"name": "Prosek", "lat": 50.11525, "lng": 14.50685, "population": 16850}, {"name": "Česká Třebová", "lat": 49.90436, "lng": 16.44413, "population": 16655}, {"name": "Pelhřimov", "lat": 49.43134, "lng": 15.22336, "population": 16541}, {"name": "Bohnice", "lat": 50.13333, "lng": 14.41667, "population": 16444}, {"name": "Neratovice", "lat": 50.25926, "lng": 14.51759, "population": 16427}, {"name": "Uherský Brod", "lat": 49.02513, "lng": 17.64715, "population": 16367}, {"name": "Jičín", "lat": 50.43723, "lng": 15.35162, "population": 16328}, {"name": "Dvůr Králové nad Labem", "lat": 50.43172, "lng": 15.81402, "population": 16150}, {"name": "Košíře", "lat": 50.06708, "lng": 14.36328, "population": 16145}, {"name": "Svitavy", "lat": 49.75594, "lng": 16.46829, "population": 16073}, {"name": "Střížkov", "lat": 50.12674, "lng": 14.49363, "population": 15705}, {"name": "Rakovník", "lat": 50.1037, "lng": 13.7334, "population": 15682}, {"name": "Ostrov", "lat": 50.30592, "lng": 12.93907, "population": 15681}, {"name": "Horní Měcholupy", "lat": 50.05, "lng": 14.56667, "population": 15303}, {"name": "Poděbrady", "lat": 50.14242, "lng": 15.11881, "population": 15232}, {"name": "Ústí nad Orlicí", "lat": 49.97387, "lng": 16.39361, "population": 15151}, {"name": "Slaný", "lat": 50.23046, "lng": 14.08693, "population": 15070}, {"name": "Bruntál", "lat": 49.98844, "lng": 17.4647, "population": 15037}, {"name": "Varnsdorf", "lat": 50.91154, "lng": 14.61824, "population": 14704}, {"name": "Turnov", "lat": 50.58356, "lng": 15.15186, "population": 14507}, {"name": "Bílina", "lat": 50.54854, "lng": 13.77535, "population": 14497}, {"name": "Nymburk", "lat": 50.18605, "lng": 15.04167, "population": 14373}, {"name": "Troja", "lat": 50.11659, "lng": 14.42458, "population": 14303}, {"name": "Horní Počernice", "lat": 50.1121, "lng": 14.61036, "population": 14296}, {"name": "Milovice", "lat": 50.22596, "lng": 14.88863, "population": 14270}, {"name": "Hlučín", "lat": 49.89795, "lng": 18.19196, "population": 14228}, {"name": "Český Krumlov", "lat": 48.81091, "lng": 14.31521, "population": 14146}, {"name": "Hloubětín", "lat": 50.10621, "lng": 14.53723, "population": 14074}, {"name": "Klášterec nad Ohří", "lat": 50.3886, "lng": 13.18342, "population": 14068}, {"name": "Mariánské Lázně", "lat": 49.96459, "lng": 12.70118, "population": 14052}, {"name": "Rokycany", "lat": 49.7427, "lng": 13.59459, "population": 13826}, {"name": "Krupka", "lat": 50.68449, "lng": 13.85815, "population": 13687}, {"name": "Podolí", "lat": 50.05504, "lng": 14.42033, "population": 13611}, {"name": "Řečkovice", "lat": 49.25212, "lng": 16.58146, "population": 13423}, {"name": "Zábřeh", "lat": 49.8826, "lng": 16.87223, "population": 13320}, {"name": "Šternberk", "lat": 49.73044, "lng": 17.29889, "population": 13239}, {"name": "Roudnice nad Labem", "lat": 50.42528, "lng": 14.26175, "population": 13084}, {"name": "Vrchlabí", "lat": 50.62697, "lng": 15.60937, "population": 12898}, {"name": "Jaroměř", "lat": 50.3562, "lng": 15.92136, "population": 12831}, {"name": "Aš", "lat": 50.22387, "lng": 12.19499, "population": 12684}, {"name": "Tachov", "lat": 49.79528, "lng": 12.63365, "population": 12640}, {"name": "Chodov", "lat": 50.24018, "lng": 12.74551, "population": 12609}, {"name": "Boskovice", "lat": 49.48751, "lng": 16.65997, "population": 12508}, {"name": "Čelákovice", "lat": 50.16038, "lng": 14.75005, "population": 12474}, {"name": "Uničov", "lat": 49.77092, "lng": 17.12144, "population": 12385}, {"name": "Vysoké Mýto", "lat": 49.9532, "lng": 16.16169, "population": 12293}, {"name": "Karlín", "lat": 50.09272, "lng": 14.44711, "population": 12261}, {"name": "Vlašim", "lat": 49.70632, "lng": 14.89881, "population": 12225}, {"name": "Veselí nad Moravou", "lat": 48.95363, "lng": 17.37648, "population": 12081}, {"name": "Bohunice", "lat": 49.16734, "lng": 16.57751, "population": 11961}, {"name": "Kuřim", "lat": 49.29852, "lng": 16.53144, "population": 11860}, {"name": "Velké Meziříčí", "lat": 49.35522, "lng": 16.01224, "population": 11753}, {"name": "Rychnov nad Kněžnou", "lat": 50.16284, "lng": 16.27488, "population": 11695}, {"name": "Holešov", "lat": 49.33331, "lng": 17.57832, "population": 11616}, {"name": "Kohoutovice", "lat": 49.19449, "lng": 16.54146, "population": 11597}, {"name": "Starý Lískovec", "lat": 49.16425, "lng": 16.56146, "population": 11538}, {"name": "Sušice", "lat": 49.23106, "lng": 13.52018, "population": 11483}, {"name": "Frenštát pod Radhoštěm", "lat": 49.54835, "lng": 18.21078, "population": 11334}, {"name": "Nový Bor", "lat": 50.75761, "lng": 14.55555, "population": 11318}, {"name": "Malešice", "lat": 50.08471, "lng": 14.50938, "population": 11237}, {"name": "Vinohrady", "lat": 49.20655, "lng": 16.66317, "population": 11202}, {"name": "Prachatice", "lat": 49.01292, "lng": 13.99752, "population": 11119}, {"name": "Vokovice", "lat": 50.09856, "lng": 14.34488, "population": 11083}, {"name": "Uhříněves", "lat": 50.02885, "lng": 14.59948, "population": 10992}, {"name": "Domažlice", "lat": 49.44049, "lng": 12.92976, "population": 10944}, {"name": "Humpolec", "lat": 49.54152, "lng": 15.35932, "population": 10914}, {"name": "Rumburk", "lat": 50.95151, "lng": 14.55699, "population": 10815}, {"name": "Kyjov", "lat": 49.01018, "lng": 17.12253, "population": 10645}, {"name": "Jesenice", "lat": 49.96814, "lng": 14.5135, "population": 10460}, {"name": "Jeseník", "lat": 50.22937, "lng": 17.20464, "population": 10456}, {"name": "Újezd nad Lesy", "lat": 50.07648, "lng": 14.6595, "population": 10429}, {"name": "Hlinsko", "lat": 49.76213, "lng": 15.90756, "population": 10411}, {"name": "Studénka", "lat": 49.72342, "lng": 18.07853, "population": 10341}, {"name": "Litomyšl", "lat": 49.86809, "lng": 16.31298, "population": 10146}, {"name": "Nové Město nad Metují", "lat": 50.34456, "lng": 16.15147, "population": 10126}, {"name": "Nové Město na Moravě", "lat": 49.56144, "lng": 16.07418, "population": 10098}, {"name": "Kunratice", "lat": 50.01364, "lng": 14.48341, "population": 10091}, {"name": "Litovel", "lat": 49.70121, "lng": 17.07615, "population": 10062}, {"name": "Kyje", "lat": 50.09729, "lng": 14.5477, "population": 10031}, {"name": "Čáslav", "lat": 49.91099, "lng": 15.38972, "population": 10025}, {"name": "Ivančice", "lat": 49.10144, "lng": 16.37752, "population": 9898}, {"name": "Chotěboř", "lat": 49.72072, "lng": 15.67018, "population": 9849}, {"name": "Lanškroun", "lat": 49.91217, "lng": 16.6119, "population": 9847}, {"name": "Frýdlant nad Ostravicí", "lat": 49.5928, "lng": 18.35967, "population": 9824}, {"name": "Zbraslav", "lat": 49.97604, "lng": 14.39329, "population": 9759}, {"name": "Mohelnice", "lat": 49.77698, "lng": 16.91946, "population": 9742}, {"name": "Nový Lískovec", "lat": 49.18316, "lng": 16.5612, "population": 9622}, {"name": "Moravská Třebová", "lat": 49.75793, "lng": 16.66426, "population": 9550}, {"name": "Milevsko", "lat": 49.45089, "lng": 14.36, "population": 9343}, {"name": "Tišnov", "lat": 49.34872, "lng": 16.42438, "population": 9225}, {"name": "Nová Paka", "lat": 50.49449, "lng": 15.51503, "population": 9219}, {"name": "Lovosice", "lat": 50.51504, "lng": 14.05103, "population": 9196}, {"name": "Štětí", "lat": 50.45298, "lng": 14.37421, "population": 9165}, {"name": "Roztoky", "lat": 50.15841, "lng": 14.3976, "population": 9088}, {"name": "Rýmařov", "lat": 49.93183, "lng": 17.27177, "population": 9069}, {"name": "Slatina", "lat": 49.17598, "lng": 16.6878, "population": 9052}, {"name": "Polička", "lat": 49.71465, "lng": 16.26543, "population": 9051}, {"name": "Semily", "lat": 50.60191, "lng": 15.33552, "population": 9040}, {"name": "Choceň", "lat": 50.00161, "lng": 16.22303, "population": 9008}, {"name": "Bystřice nad Pernštejnem", "lat": 49.52295, "lng": 16.26147, "population": 8996}, {"name": "Hořice", "lat": 50.36609, "lng": 15.63183, "population": 8899}, {"name": "Třeboň", "lat": 49.00364, "lng": 14.77065, "population": 8862}, {"name": "Dobříš", "lat": 49.78113, "lng": 14.16717, "population": 8828}, {"name": "Čakovice", "lat": 50.15128, "lng": 14.52393, "population": 8807}, {"name": "Příbor", "lat": 49.64094, "lng": 18.14499, "population": 8789}, {"name": "Hostivice", "lat": 50.08158, "lng": 14.25856, "population": 8777}, {"name": "Duchcov", "lat": 50.60376, "lng": 13.74621, "population": 8695}, {"name": "Přelouč", "lat": 50.03985, "lng": 15.56031, "population": 8586}, {"name": "Nejdek", "lat": 50.32242, "lng": 12.72936, "population": 8565}, {"name": "Radotín", "lat": 49.98985, "lng": 14.36572, "population": 8462}, {"name": "Červený Kostelec", "lat": 50.47626, "lng": 16.09289, "population": 8441}, {"name": "Mnichovo Hradiště", "lat": 50.5272, "lng": 14.97134, "population": 8368}, {"name": "Týn nad Vltavou", "lat": 49.2234, "lng": 14.42057, "population": 8296}, {"name": "Broumov", "lat": 50.58566, "lng": 16.33181, "population": 8254}, {"name": "Lysá nad Labem", "lat": 50.20143, "lng": 14.83281, "population": 8194}, {"name": "Ruzyně", "lat": 50.09033, "lng": 14.31287, "population": 8188}, {"name": "Vimperk", "lat": 49.05857, "lng": 13.78286, "population": 8043}, {"name": "Bystřice pod Hostýnem", "lat": 49.39924, "lng": 17.67401, "population": 8002}, {"name": "Hrádek nad Nisou", "lat": 50.85279, "lng": 14.84455, "population": 8001}, {"name": "Lipník nad Bečvou", "lat": 49.52721, "lng": 17.58594, "population": 7955}, {"name": "Benátky nad Jizerou", "lat": 50.29085, "lng": 14.82343, "population": 7879}, {"name": "Sedlčany", "lat": 49.66057, "lng": 14.42664, "population": 7836}, {"name": "Černošice", "lat": 49.96008, "lng": 14.31979, "population": 7712}, {"name": "Stříbro", "lat": 49.75565, "lng": 12.997, "population": 7689}, {"name": "Brno-jih", "lat": 49.1745, "lng": 16.6228, "population": 7594}, {"name": "Dubí", "lat": 50.68558, "lng": 13.78561, "population": 7591}, {"name": "Zlíčín", "lat": 50.06182, "lng": 14.28965, "population": 7579}, {"name": "Mikulov", "lat": 48.80556, "lng": 16.6378, "population": 7577}, {"name": "Jinonice", "lat": 50.05042, "lng": 14.37835, "population": 7556}, {"name": "Kaplice", "lat": 48.73881, "lng": 14.49449, "population": 7531}, {"name": "Úvaly", "lat": 50.07394, "lng": 14.7308, "population": 7515}, {"name": "Český Brod", "lat": 50.0742, "lng": 14.86081, "population": 7487}, {"name": "Sezimovo Ústí", "lat": 49.38519, "lng": 14.6848, "population": 7420}, {"name": "Bílovec", "lat": 49.75639, "lng": 18.01581, "population": 7411}, {"name": "Odry", "lat": 49.66255, "lng": 17.83084, "population": 7395}, {"name": "Vodňany", "lat": 49.14789, "lng": 14.17513, "population": 7383}, {"name": "Frýdlant", "lat": 50.92139, "lng": 15.07974, "population": 7379}, {"name": "Soběslav", "lat": 49.25993, "lng": 14.71861, "population": 7308}, {"name": "Slavkov u Brna", "lat": 49.15325, "lng": 16.87649, "population": 7258}, {"name": "Komín", "lat": 49.21967, "lng": 16.55236, "population": 7228}, {"name": "Kbely", "lat": 50.13333, "lng": 14.55, "population": 7216}, {"name": "Nový Bydžov", "lat": 50.2415, "lng": 15.49082, "population": 7160}, {"name": "Kraslice", "lat": 50.32372, "lng": 12.51747, "population": 7159}, {"name": "Dačice", "lat": 49.08154, "lng": 15.43727, "population": 7157}, {"name": "Letovice", "lat": 49.54709, "lng": 16.57357, "population": 7124}, {"name": "Šlapanice", "lat": 49.16863, "lng": 16.72731, "population": 7109}, {"name": "Moravské Budějovice", "lat": 49.05209, "lng": 15.80864, "population": 7098}, {"name": "Dobruška", "lat": 50.29201, "lng": 16.16001, "population": 7085}, {"name": "Slavičín", "lat": 49.08799, "lng": 17.87349, "population": 7079}, {"name": "Napajedla", "lat": 49.17156, "lng": 17.51194, "population": 7043}, {"name": "Nýřany", "lat": 49.71145, "lng": 13.21185, "population": 6942}, {"name": "Tanvald", "lat": 50.73735, "lng": 15.30585, "population": 6921}, {"name": "Bučovice", "lat": 49.14896, "lng": 17.00191, "population": 6891}, {"name": "Petřvald", "lat": 49.831, "lng": 18.3894, "population": 6854}, {"name": "Kravaře", "lat": 49.93203, "lng": 18.00472, "population": 6787}, {"name": "Rosice", "lat": 49.18232, "lng": 16.38787, "population": 6784}, {"name": "Rychvald", "lat": 49.86625, "lng": 18.37626, "population": 6771}, {"name": "Staré Město", "lat": 49.07515, "lng": 17.43338, "population": 6742}, {"name": "Mimoň", "lat": 50.65869, "lng": 14.72474, "population": 6692}, {"name": "Černovice", "lat": 49.18232, "lng": 16.63716, "population": 6692}, {"name": "Blatná", "lat": 49.42489, "lng": 13.88176, "population": 6669}, {"name": "Dubňany", "lat": 48.91694, "lng": 17.09004, "population": 6649}, {"name": "Veleslavín", "lat": 50.09151, "lng": 14.35776, "population": 6614}, {"name": "Střešovice", "lat": 50.09526, "lng": 14.38268, "population": 6592}, {"name": "Čimice", "lat": 50.13757, "lng": 14.43279, "population": 6586}, {"name": "Veselí nad Lužnicí", "lat": 49.1843, "lng": 14.69734, "population": 6534}, {"name": "Hronov", "lat": 50.47968, "lng": 16.1823, "population": 6516}, {"name": "Železný Brod", "lat": 50.64274, "lng": 15.25408, "population": 6442}, {"name": "Hořovice", "lat": 49.83597, "lng": 13.90268, "population": 6431}, {"name": "Hulín", "lat": 49.31689, "lng": 17.46374, "population": 6414}, {"name": "Kojetín", "lat": 49.35179, "lng": 17.30207, "population": 6397}, {"name": "Světlá nad Sázavou", "lat": 49.66801, "lng": 15.40393, "population": 6394}, {"name": "Vratimov", "lat": 49.76995, "lng": 18.31015, "population": 6378}, {"name": "Přeštice", "lat": 49.57298, "lng": 13.3335, "population": 6353}, {"name": "Malá Strana", "lat": 50.08774, "lng": 14.40449, "population": 6350}, {"name": "Týniště nad Orlicí", "lat": 50.15136, "lng": 16.0777, "population": 6342}, {"name": "Staré Město", "lat": 50.087, "lng": 14.42024, "population": 6272}, {"name": "Suchdol", "lat": 50.14136, "lng": 14.38367, "population": 6270}, {"name": "Podbořany", "lat": 50.22937, "lng": 13.41192, "population": 6253}, {"name": "Holice", "lat": 50.06601, "lng": 15.9859, "population": 6219}, {"name": "Vítkov", "lat": 49.77445, "lng": 17.74941, "population": 6202}, {"name": "Letohrad", "lat": 50.0358, "lng": 16.49879, "population": 6195}, {"name": "Kostelec nad Orlicí", "lat": 50.12267, "lng": 16.21319, "population": 6184}, {"name": "Pohořelice", "lat": 48.98119, "lng": 16.52445, "population": 6126}, {"name": "Fulnek", "lat": 49.71238, "lng": 17.90319, "population": 6107}, {"name": "Žamberk", "lat": 50.08601, "lng": 16.46738, "population": 6082}, {"name": "Vrbno pod Pradědem", "lat": 50.12095, "lng": 17.38316, "population": 6072}, {"name": "Chrastava", "lat": 50.81693, "lng": 14.96884, "population": 6051}, {"name": "Ledeč nad Sázavou", "lat": 49.69517, "lng": 15.27772, "population": 6048}, {"name": "Třešť", "lat": 49.29092, "lng": 15.48211, "population": 5979}, {"name": "Rousínov", "lat": 49.20128, "lng": 16.88215, "population": 5962}, {"name": "Úpice", "lat": 50.51237, "lng": 16.01607, "population": 5959}, {"name": "Lomnice nad Popelkou", "lat": 50.53062, "lng": 15.37341, "population": 5957}, {"name": "Hustopeče", "lat": 48.94085, "lng": 16.73762, "population": 5913}, {"name": "Strážnice", "lat": 48.90102, "lng": 17.3168, "population": 5900}, {"name": "Telč", "lat": 49.18418, "lng": 15.45275, "population": 5883}, {"name": "Horní Slavkov", "lat": 50.13863, "lng": 12.80758, "population": 5818}, {"name": "Králův Dvůr", "lat": 49.94981, "lng": 14.03445, "population": 5805}, {"name": "Jablunkov", "lat": 49.57672, "lng": 18.76458, "population": 5782}, {"name": "Dobřany", "lat": 49.65482, "lng": 13.29307, "population": 5779}, {"name": "Jilemnice", "lat": 50.6089, "lng": 15.50653, "population": 5777}, {"name": "Modřice", "lat": 49.11928, "lng": 16.60446, "population": 5755}, {"name": "Petrovice", "lat": 50.03399, "lng": 14.54676, "population": 5753}, {"name": "Horažďovice", "lat": 49.32069, "lng": 13.701, "population": 5727}, {"name": "Šluknov", "lat": 51.00369, "lng": 14.45258, "population": 5701}, {"name": "Nové Strašecí", "lat": 50.15272, "lng": 13.90043, "population": 5686}, {"name": "Moravský Krumlov", "lat": 49.04893, "lng": 16.31169, "population": 5667}, {"name": "Žebětín", "lat": 49.20706, "lng": 16.4879, "population": 5646}, {"name": "Třebechovice pod Orebem", "lat": 50.20097, "lng": 15.99223, "population": 5611}, {"name": "Maloměřice", "lat": 49.22219, "lng": 16.65819, "population": 5595}, {"name": "Luhačovice", "lat": 49.09982, "lng": 17.75747, "population": 5554}, {"name": "Libuš", "lat": 50.00956, "lng": 14.46196, "population": 5540}, {"name": "Stochov", "lat": 50.14631, "lng": 13.96345, "population": 5538}, {"name": "Velká Bíteš", "lat": 49.28838, "lng": 16.22742, "population": 5482}, {"name": "Česká Kamenice", "lat": 50.7978, "lng": 14.41767, "population": 5475}, {"name": "Šenov", "lat": 49.79315, "lng": 18.37607, "population": 5462}, {"name": "Kunovice", "lat": 49.04499, "lng": 17.47011, "population": 5452}, {"name": "Planá", "lat": 49.86816, "lng": 12.74378, "population": 5450}, {"name": "Skuteč", "lat": 49.84347, "lng": 15.99655, "population": 5415}, {"name": "Zubří", "lat": 49.46603, "lng": 18.09249, "population": 5409}, {"name": "Česká Skalice", "lat": 50.39467, "lng": 16.04276, "population": 5402}, {"name": "Brumov-Bylnice", "lat": 49.09177, "lng": 18.02238, "population": 5400}, {"name": "Františkovy Lázně", "lat": 50.12033, "lng": 12.35174, "population": 5355}, {"name": "Bakov nad Jizerou", "lat": 50.4823, "lng": 14.94149, "population": 5355}, {"name": "Habartov", "lat": 50.18297, "lng": 12.55054, "population": 5337}, {"name": "Jílové", "lat": 50.76082, "lng": 14.10383, "population": 5307}, {"name": "Chlumec nad Cidlinou", "lat": 50.1544, "lng": 15.46026, "population": 5292}, {"name": "Hradec nad Moravicí", "lat": 49.87042, "lng": 17.87843, "population": 5255}, {"name": "Valašské Klobouky", "lat": 49.14064, "lng": 18.0076, "population": 5201}, {"name": "Medlánky", "lat": 49.24002, "lng": 16.57082, "population": 5195}, {"name": "Chropyně", "lat": 49.35644, "lng": 17.36451, "population": 5172}, {"name": "Týnec nad Sázavou", "lat": 49.83348, "lng": 14.58983, "population": 5165}, {"name": "Pacov", "lat": 49.47076, "lng": 15.00168, "population": 5145}, {"name": "Tuřany", "lat": 49.14758, "lng": 16.66798, "population": 5084}, {"name": "Bystřice", "lat": 49.63657, "lng": 18.72038, "population": 5076}, {"name": "Nýrsko", "lat": 49.29387, "lng": 13.14353, "population": 5070}, {"name": "Dolní Chabry", "lat": 50.14633, "lng": 14.44848, "population": 5035}, {"name": "Doksy", "lat": 50.56471, "lng": 14.65553, "population": 5025}, {"name": "Polná", "lat": 49.487, "lng": 15.71881, "population": 5006}, {"name": "Kdyně", "lat": 49.39077, "lng": 13.03968, "population": 4985}, {"name": "Petrovice u Karviné", "lat": 49.89587, "lng": 18.54779, "population": 4971}, {"name": "Zruč nad Sázavou", "lat": 49.7401, "lng": 15.10606, "population": 4925}, {"name": "Postoloprty", "lat": 50.35979, "lng": 13.70291, "population": 4924}, {"name": "Jílové u Prahy", "lat": 49.89545, "lng": 14.49333, "population": 4919}, {"name": "Horšovský Týn", "lat": 49.52965, "lng": 12.94405, "population": 4905}, {"name": "Těrlicko", "lat": 49.75282, "lng": 18.48901, "population": 4877}, {"name": "Pečky", "lat": 50.09043, "lng": 15.03017, "population": 4874}, {"name": "Oslavany", "lat": 49.12335, "lng": 16.33653, "population": 4873}, {"name": "Heřmanův Městec", "lat": 49.94707, "lng": 15.66492, "population": 4841}, {"name": "Bechyně", "lat": 49.29523, "lng": 14.4681, "population": 4815}, {"name": "Bělá pod Bezdězem", "lat": 50.50121, "lng": 14.80418, "population": 4804}, {"name": "Hostinné", "lat": 50.54066, "lng": 15.72334, "population": 4795}, {"name": "Vamberk", "lat": 50.11756, "lng": 16.29067, "population": 4768}, {"name": "Náměšť nad Oslavou", "lat": 49.20726, "lng": 16.15849, "population": 4767}, {"name": "Protivín", "lat": 49.19949, "lng": 14.21717, "population": 4760}, {"name": "Bojkovice", "lat": 49.03864, "lng": 17.81487, "population": 4742}, {"name": "Dolní Břežany", "lat": 49.96321, "lng": 14.4585, "population": 4735}, {"name": "Řeporyje", "lat": 50.03179, "lng": 14.31667, "population": 4729}, {"name": "Dolní Lutyně", "lat": 49.89876, "lng": 18.42815, "population": 4712}, {"name": "Trhové Sviny", "lat": 48.84231, "lng": 14.63924, "population": 4705}, {"name": "Hluboká nad Vltavou", "lat": 49.05225, "lng": 14.43427, "population": 4682}, {"name": "Holýšov", "lat": 49.59361, "lng": 13.10129, "population": 4659}, {"name": "Třemošná", "lat": 49.81584, "lng": 13.39499, "population": 4654}, {"name": "Ludgeřovice", "lat": 49.89042, "lng": 18.24008, "population": 4635}, {"name": "Adamov", "lat": 49.30162, "lng": 16.65253, "population": 4616}, {"name": "Meziboři", "lat": 50.62115, "lng": 13.5987, "population": 4597}, {"name": "Cvikov", "lat": 50.77668, "lng": 14.63298, "population": 4534}, {"name": "Kynšperk nad Ohří", "lat": 50.11893, "lng": 12.53027, "population": 4527}, {"name": "Uherský Ostroh", "lat": 48.98556, "lng": 17.38984, "population": 4526}, {"name": "Vizovice", "lat": 49.22287, "lng": 17.85455, "population": 4518}, {"name": "Osek", "lat": 50.62115, "lng": 13.69274, "population": 4516}, {"name": "Vracov", "lat": 48.97523, "lng": 17.211, "population": 4491}, {"name": "Horní Suchá", "lat": 49.7978, "lng": 18.48189, "population": 4466}, {"name": "Horní Bříza", "lat": 49.84012, "lng": 13.35558, "population": 4463}, {"name": "Kostelec nad Labem", "lat": 50.22653, "lng": 14.58552, "population": 4462}, {"name": "Votice", "lat": 49.64013, "lng": 14.63809, "population": 4461}, {"name": "Odolena Voda", "lat": 50.23341, "lng": 14.41078, "population": 4451}, {"name": "Zlaté Hory", "lat": 50.2638, "lng": 17.39602, "population": 4446}, {"name": "Hluk", "lat": 48.98805, "lng": 17.52744, "population": 4424}, {"name": "Nehvizdy", "lat": 50.13056, "lng": 14.72993, "population": 4404}, {"name": "Starý Plzenec", "lat": 49.69768, "lng": 13.4735, "population": 4387}, {"name": "Jundrov", "lat": 49.20885, "lng": 16.55279, "population": 4379}, {"name": "Police nad Metují", "lat": 50.53687, "lng": 16.2335, "population": 4316}, {"name": "Bzenec", "lat": 48.97336, "lng": 17.26685, "population": 4315}, {"name": "Dolní Benešov", "lat": 49.92101, "lng": 18.10835, "population": 4314}, {"name": "Jemnice", "lat": 49.01898, "lng": 15.56994, "population": 4311}, {"name": "Psáry", "lat": 49.93622, "lng": 14.51276, "population": 4254}, {"name": "Rožmitál pod Třemšínem", "lat": 49.60196, "lng": 13.8643, "population": 4244}, {"name": "Hlubočky", "lat": 49.61783, "lng": 17.39436, "population": 4207}, {"name": "Bolatice", "lat": 49.95172, "lng": 18.08358, "population": 4186}, {"name": "Mníšek pod Brdy", "lat": 49.8665, "lng": 14.26176, "population": 4181}, {"name": "Chlumec", "lat": 50.69972, "lng": 13.93964, "population": 4170}, {"name": "Kostelec nad Černými lesy", "lat": 49.99403, "lng": 14.85922, "population": 4156}, {"name": "Kamenice nad Lipou", "lat": 49.30303, "lng": 15.07519, "population": 4148}, {"name": "Rajhrad", "lat": 49.09021, "lng": 16.60388, "population": 4136}, {"name": "Horní Těrlicko", "lat": 49.75177, "lng": 18.4829, "population": 4134}, {"name": "Zdiby", "lat": 50.16799, "lng": 14.45118, "population": 4097}, {"name": "Králíky", "lat": 50.08384, "lng": 16.76054, "population": 4097}, {"name": "Jaroměřice nad Rokytnou", "lat": 49.09408, "lng": 15.89331, "population": 4087}, {"name": "Stráž pod Ralskem", "lat": 50.7028, "lng": 14.80102, "population": 4068}, {"name": "Zdice", "lat": 49.91207, "lng": 13.97747, "population": 4047}, {"name": "Nová Role", "lat": 50.27092, "lng": 12.78422, "population": 4047}, {"name": "Baška", "lat": 49.64584, "lng": 18.37233, "population": 4032}, {"name": "Bor", "lat": 49.71159, "lng": 12.77516, "population": 4025}, {"name": "Velešín", "lat": 48.82949, "lng": 14.46252, "population": 4023}, {"name": "Slatiňany", "lat": 49.9211, "lng": 15.81377, "population": 4004}, {"name": "Bystřice", "lat": 49.73213, "lng": 14.6674, "population": 3993}, {"name": "Mosty u Jablunkova", "lat": 49.52737, "lng": 18.75417, "population": 3989}, {"name": "Lišov", "lat": 49.01597, "lng": 14.60838, "population": 3989}, {"name": "Kamenický Šenov", "lat": 50.77359, "lng": 14.47287, "population": 3982}, {"name": "Přibyslav", "lat": 49.57684, "lng": 15.73855, "population": 3965}, {"name": "Ratíškovice", "lat": 48.92002, "lng": 17.16561, "population": 3955}, {"name": "Klecany", "lat": 50.17599, "lng": 14.41148, "population": 3938}, {"name": "Jiříkov", "lat": 50.99514, "lng": 14.5691, "population": 3926}, {"name": "Vendryně", "lat": 49.66662, "lng": 18.71307, "population": 3918}, {"name": "Nové Město pod Smrkem", "lat": 50.92491, "lng": 15.22943, "population": 3915}, {"name": "Blovice", "lat": 49.5822, "lng": 13.54009, "population": 3901}, {"name": "Zbýšov", "lat": 49.15524, "lng": 16.34951, "population": 3890}, {"name": "Návsí", "lat": 49.5872, "lng": 18.75907, "population": 3880}, {"name": "Větřní", "lat": 48.77425, "lng": 14.28616, "population": 3870}, {"name": "Kosmonosy", "lat": 50.4385, "lng": 14.93, "population": 3822}, {"name": "Dětmarovice", "lat": 49.89412, "lng": 18.46079, "population": 3821}, {"name": "Albrechtice", "lat": 49.78645, "lng": 18.52444, "population": 3808}, {"name": "Strání", "lat": 48.90216, "lng": 17.70671, "population": 3803}, {"name": "Sázava", "lat": 49.87164, "lng": 14.89674, "population": 3797}, {"name": "Klimkovice", "lat": 49.78809, "lng": 18.12585, "population": 3779}, {"name": "Dobřichovice", "lat": 49.92749, "lng": 14.27469, "population": 3772}, {"name": "Paskov", "lat": 49.73179, "lng": 18.29037, "population": 3754}, {"name": "Lázně Bělohrad", "lat": 50.42874, "lng": 15.58269, "population": 3744}, {"name": "Brtnice", "lat": 49.30695, "lng": 15.67642, "population": 3744}, {"name": "Borovany", "lat": 48.8986, "lng": 14.64227, "population": 3739}, {"name": "Rájec-Jestřebí", "lat": 49.41094, "lng": 16.63902, "population": 3736}, {"name": "Lom u Mostu", "lat": 50.59328, "lng": 13.65729, "population": 3736}, {"name": "Toužim", "lat": 50.06049, "lng": 12.98506, "population": 3732}, {"name": "Velké Bílovice", "lat": 48.84929, "lng": 16.89227, "population": 3727}, {"name": "Bílovice nad Svitavou", "lat": 49.24708, "lng": 16.67247, "population": 3725}, {"name": "Jablonné v Podještědí", "lat": 50.76528, "lng": 14.76052, "population": 3699}, {"name": "Břidličná", "lat": 49.91167, "lng": 17.37107, "population": 3698}, {"name": "Volary", "lat": 48.90881, "lng": 13.88657, "population": 3692}, {"name": "Krásná Lípa", "lat": 50.48378, "lng": 13.3575, "population": 3677}, {"name": "Židlochovice", "lat": 49.03952, "lng": 16.61881, "population": 3676}, {"name": "Nepomuk", "lat": 49.48616, "lng": 13.58225, "population": 3670}, {"name": "Krásná Lípa", "lat": 50.91303, "lng": 14.50999, "population": 3666}, {"name": "Březnice", "lat": 49.55763, "lng": 13.95063, "population": 3662}, {"name": "Suchdol nad Lužnicí", "lat": 48.89, "lng": 14.8772, "population": 3659}, {"name": "Zliv", "lat": 49.06608, "lng": 14.36613, "population": 3656}, {"name": "Valtice", "lat": 48.74069, "lng": 16.75499, "population": 3656}, {"name": "Mutěnice", "lat": 48.90413, "lng": 17.02917, "population": 3647}, {"name": "Město Albrechtice", "lat": 50.16294, "lng": 17.57481, "population": 3638}, {"name": "Lanžhot", "lat": 48.72443, "lng": 16.96695, "population": 3637}, {"name": "Libochovice", "lat": 50.40626, "lng": 14.04439, "population": 3627}, {"name": "Brušperk", "lat": 49.7001, "lng": 18.2221, "population": 3620}, {"name": "Žacléř", "lat": 50.66329, "lng": 15.91063, "population": 3613}, {"name": "Libčice nad Vltavou", "lat": 50.19778, "lng": 14.36385, "population": 3604}, {"name": "Velké Přílepy", "lat": 50.1605, "lng": 14.31447, "population": 3601}, {"name": "Řevnice", "lat": 49.91395, "lng": 14.23589, "population": 3584}, {"name": "Hodkovičky", "lat": 50.02346, "lng": 14.41415, "population": 3584}, {"name": "Hanušovice", "lat": 50.08049, "lng": 16.93641, "population": 3556}, {"name": "Štěpánov", "lat": 49.68404, "lng": 17.22041, "population": 3555}, {"name": "Moravany", "lat": 49.1478, "lng": 16.58026, "population": 3554}, {"name": "Svatobořice-Mistřín", "lat": 48.97575, "lng": 17.08837, "population": 3549}, {"name": "Fryšták", "lat": 49.2852, "lng": 17.68346, "population": 3540}, {"name": "Stod", "lat": 49.63909, "lng": 13.16474, "population": 3532}, {"name": "Hrušovany u Brna", "lat": 49.03863, "lng": 16.59429, "population": 3528}, {"name": "Kralovice", "lat": 49.98192, "lng": 13.48747, "population": 3526}, {"name": "Benešov nad Ploučnicí", "lat": 50.74159, "lng": 14.31239, "population": 3526}, {"name": "Desná", "lat": 50.75987, "lng": 15.30284, "population": 3481}, {"name": "Unhošť", "lat": 50.08535, "lng": 14.13007, "population": 3480}, {"name": "České Velenice", "lat": 48.76851, "lng": 14.96368, "population": 3479}, {"name": "Velké Opatovice", "lat": 49.61237, "lng": 16.67947, "population": 3457}, {"name": "Smržovka", "lat": 50.7382, "lng": 15.24639, "population": 3433}, {"name": "Rohatec", "lat": 48.8804, "lng": 17.1833, "population": 3413}, {"name": "Rotava", "lat": 50.29627, "lng": 12.57341, "population": 3403}, {"name": "Štramberk", "lat": 49.59181, "lng": 18.11741, "population": 3380}, {"name": "Nivnice", "lat": 48.97465, "lng": 17.64757, "population": 3378}, {"name": "Újezd u Brna", "lat": 49.10489, "lng": 16.75621, "population": 3375}, {"name": "Nová Bystřice", "lat": 49.01926, "lng": 15.10316, "population": 3371}, {"name": "Moravský Beroun", "lat": 49.79374, "lng": 17.44212, "population": 3369}, {"name": "Rudná", "lat": 50.03502, "lng": 14.23435, "population": 3360}, {"name": "Ostrožská Nová Ves", "lat": 49.00434, "lng": 17.43632, "population": 3360}, {"name": "Vrahovice", "lat": 49.48512, "lng": 17.15143, "population": 3330}, {"name": "Háj ve Slezsku", "lat": 49.89856, "lng": 18.0954, "population": 3322}, {"name": "Postřelmov", "lat": 49.90756, "lng": 16.91226, "population": 3314}, {"name": "Hrušovany nad Jevišovkou", "lat": 48.82991, "lng": 16.40271, "population": 3309}, {"name": "Štěpánov", "lat": 50.16238, "lng": 16.91702, "population": 3306}, {"name": "Sadská", "lat": 50.13596, "lng": 14.98633, "population": 3301}, {"name": "Líbeznice", "lat": 50.19198, "lng": 14.49357, "population": 3301}, {"name": "Střelice", "lat": 49.15221, "lng": 16.50399, "population": 3283}, {"name": "Rokytnice nad Jizerou", "lat": 50.72561, "lng": 15.43357, "population": 3281}, {"name": "Libušín", "lat": 50.16819, "lng": 14.05458, "population": 3281}, {"name": "Lázně Bohdaneč", "lat": 50.0756, "lng": 15.67978, "population": 3274}, {"name": "Vejprty", "lat": 50.49232, "lng": 13.03212, "population": 3273}, {"name": "Třemošnice", "lat": 49.86912, "lng": 15.58002, "population": 3273}, {"name": "Libina", "lat": 49.87612, "lng": 17.0832, "population": 3254}, {"name": "Jirny", "lat": 50.11578, "lng": 14.69923, "population": 3253}, {"name": "Kobeřice", "lat": 49.98548, "lng": 18.05212, "population": 3228}, {"name": "Chvaletice", "lat": 50.03443, "lng": 15.41846, "population": 3223}, {"name": "Vestec", "lat": 49.9805, "lng": 14.50487, "population": 3195}, {"name": "Chrast", "lat": 49.90205, "lng": 15.93396, "population": 3186}, {"name": "Červená Voda", "lat": 50.04029, "lng": 16.74268, "population": 3180}, {"name": "Zeleneč", "lat": 50.13362, "lng": 14.6607, "population": 3178}, {"name": "Opočno", "lat": 50.26742, "lng": 16.1148, "population": 3177}, {"name": "Budišov nad Budišovkou", "lat": 49.79511, "lng": 17.62969, "population": 3159}, {"name": "Bludov", "lat": 49.9408, "lng": 16.92849, "population": 3155}, {"name": "Velká nad Veličkou", "lat": 48.88257, "lng": 17.5206, "population": 3149}, {"name": "Jablonné nad Orlicí", "lat": 50.02964, "lng": 16.60059, "population": 3147}, {"name": "Jáchymov", "lat": 50.35846, "lng": 12.93465, "population": 3143}, {"name": "Lutín", "lat": 49.55845, "lng": 17.13572, "population": 3132}, {"name": "Planá nad Lužnicí", "lat": 49.35444, "lng": 14.70147, "population": 3128}, {"name": "Smiřice", "lat": 50.29978, "lng": 15.86508, "population": 3122}, {"name": "Chrlice", "lat": 49.13186, "lng": 16.65373, "population": 3121}, {"name": "Loštice", "lat": 49.7447, "lng": 16.92892, "population": 3098}, {"name": "Sezemice", "lat": 50.06651, "lng": 15.8527, "population": 3097}, {"name": "Štěpánkovice", "lat": 49.95738, "lng": 18.03741, "population": 3096}, {"name": "Žirovnice", "lat": 49.25318, "lng": 15.18824, "population": 3085}, {"name": "Ždírec nad Doubravkou", "lat": 49.69662, "lng": 15.81283, "population": 3083}, {"name": "Velké Pavlovice", "lat": 48.90469, "lng": 16.81605, "population": 3078}, {"name": "Dolní Bojanovice", "lat": 48.85861, "lng": 17.02859, "population": 3076}, {"name": "Bašť", "lat": 50.20514, "lng": 14.4773, "population": 3068}, {"name": "Uhlířské Janovice", "lat": 49.88019, "lng": 15.06481, "population": 3058}, {"name": "Kaznějov", "lat": 49.89313, "lng": 13.38295, "population": 3053}, {"name": "Loket", "lat": 50.186, "lng": 12.75405, "population": 3050}, {"name": "Volyně", "lat": 49.16578, "lng": 13.88624, "population": 3036}, {"name": "Klášter", "lat": 49.96762, "lng": 12.87623, "population": 3034}, {"name": "Dobrá", "lat": 49.67383, "lng": 18.41393, "population": 3032}, {"name": "Staňkov", "lat": 49.55348, "lng": 13.06976, "population": 3026}, {"name": "Rtyně v Podkrkonoší", "lat": 50.50523, "lng": 16.07187, "population": 3023}, {"name": "Miroslav", "lat": 48.94767, "lng": 16.31252, "population": 3017}, {"name": "Teplá", "lat": 49.97997, "lng": 12.86432, "population": 3013}, {"name": "Kamenice", "lat": 49.90151, "lng": 14.58242, "population": 3011}, {"name": "Rapotín", "lat": 50.01094, "lng": 17.03121, "population": 3009}, {"name": "Jedovnice", "lat": 49.34453, "lng": 16.75595, "population": 2999}, {"name": "Terezín", "lat": 50.511, "lng": 14.15055, "population": 2992}, {"name": "Křemže", "lat": 48.90497, "lng": 14.30568, "population": 2989}, {"name": "Ivanovice na Hané", "lat": 49.30542, "lng": 17.09343, "population": 2978}, {"name": "Morkovice-Slížany", "lat": 49.24726, "lng": 17.21128, "population": 2975}, {"name": "Javorník", "lat": 50.39077, "lng": 17.00272, "population": 2967}, {"name": "Dolany", "lat": 49.64987, "lng": 17.3224, "population": 2961}, {"name": "Vlčnov", "lat": 49.0099, "lng": 17.58183, "population": 2956}, {"name": "Dobrovice", "lat": 50.36933, "lng": 14.96233, "population": 2954}, {"name": "Vrdy", "lat": 49.92153, "lng": 15.47243, "population": 2953}, {"name": "Velvary", "lat": 50.28152, "lng": 14.23616, "population": 2934}, {"name": "Podivín", "lat": 48.82554, "lng": 16.84822, "population": 2929}, {"name": "Čerčany", "lat": 49.85293, "lng": 14.70299, "population": 2923}, {"name": "Karolinka", "lat": 49.35128, "lng": 18.24006, "population": 2916}, {"name": "Vnorovy", "lat": 48.93096, "lng": 17.3505, "population": 2914}, {"name": "Velká Bystřice", "lat": 49.5948, "lng": 17.36544, "population": 2913}, {"name": "Městec Králové", "lat": 50.20718, "lng": 15.29758, "population": 2913}, {"name": "Mokrá-Horákov", "lat": 49.22589, "lng": 16.74969, "population": 2908}, {"name": "Slušovice", "lat": 49.24782, "lng": 17.8015, "population": 2904}, {"name": "Koryčany", "lat": 49.10639, "lng": 17.16433, "population": 2900}, {"name": "Strančice", "lat": 49.94811, "lng": 14.67745, "population": 2899}, {"name": "Hrádek", "lat": 49.71316, "lng": 13.65296, "population": 2897}, {"name": "Kunštát", "lat": 49.50645, "lng": 16.51722, "population": 2891}, {"name": "Dolní Němčí", "lat": 48.96837, "lng": 17.58585, "population": 2866}, {"name": "Rychnov u Jablonce nad Nisou", "lat": 50.68263, "lng": 15.15124, "population": 2865}, {"name": "Velké Losiny", "lat": 50.03197, "lng": 17.04058, "population": 2862}, {"name": "Trmice", "lat": 50.64286, "lng": 13.99449, "population": 2862}, {"name": "Kozlovice", "lat": 49.5904, "lng": 18.25656, "population": 2852}, {"name": "Kostelec na Hané", "lat": 49.51398, "lng": 17.05824, "population": 2851}, {"name": "Suchdol nad Odrou", "lat": 49.65707, "lng": 17.92703, "population": 2850}, {"name": "Průhonice", "lat": 49.99962, "lng": 14.55017, "population": 2846}, {"name": "Veverská Bítýška", "lat": 49.27591, "lng": 16.43686, "population": 2842}, {"name": "Raspenava", "lat": 50.90415, "lng": 15.11465, "population": 2833}, {"name": "Březová", "lat": 50.14557, "lng": 12.64996, "population": 2826}, {"name": "Jevíčko", "lat": 49.6322, "lng": 16.71125, "population": 2822}, {"name": "Žlutice", "lat": 50.09192, "lng": 13.16297, "population": 2817}, {"name": "Zákupy", "lat": 50.68475, "lng": 14.64522, "population": 2792}, {"name": "Zašová", "lat": 49.4741, "lng": 18.04436, "population": 2790}, {"name": "Meziměstí", "lat": 50.62461, "lng": 16.24207, "population": 2784}, {"name": "Mladá Vožice", "lat": 49.53313, "lng": 14.80857, "population": 2772}, {"name": "Velké Hamry", "lat": 50.71373, "lng": 15.31539, "population": 2754}, {"name": "Palkovice", "lat": 49.63467, "lng": 18.31508, "population": 2751}, {"name": "Hejnice", "lat": 50.8772, "lng": 15.18168, "population": 2751}, {"name": "Mikulovice", "lat": 50.29854, "lng": 17.32155, "population": 2750}, {"name": "Lužice", "lat": 48.84098, "lng": 17.07104, "population": 2750}, {"name": "Ždánice", "lat": 49.06729, "lng": 17.02751, "population": 2721}, {"name": "Netolice", "lat": 49.0493, "lng": 14.197, "population": 2721}, {"name": "Nový Hrozenkov", "lat": 49.33697, "lng": 18.19793, "population": 2714}, {"name": "Nový Malín", "lat": 49.94262, "lng": 17.03191, "population": 2713}, {"name": "Slavonice", "lat": 48.99753, "lng": 15.35154, "population": 2706}, {"name": "Vrané nad Vltavou", "lat": 49.93585, "lng": 14.37706, "population": 2704}, {"name": "Proboštov", "lat": 50.66773, "lng": 13.83601, "population": 2700}, {"name": "Košťany", "lat": 50.65507, "lng": 13.75554, "population": 2700}, {"name": "Český Dub", "lat": 50.66054, "lng": 14.99617, "population": 2698}, {"name": "Chotěšov", "lat": 49.65408, "lng": 13.20271, "population": 2688}, {"name": "Horka nad Moravou", "lat": 49.64009, "lng": 17.2107, "population": 2679}, {"name": "Kelč", "lat": 49.47844, "lng": 17.81533, "population": 2673}, {"name": "Úštěk", "lat": 50.58474, "lng": 14.34332, "population": 2664}, {"name": "Konice", "lat": 49.5903, "lng": 16.88911, "population": 2664}, {"name": "Moravská Nová Ves", "lat": 48.80304, "lng": 17.01371, "population": 2659}, {"name": "Hodkovice nad Mohelkou", "lat": 50.66586, "lng": 15.08985, "population": 2659}, {"name": "Dobrá Voda u Českých Budějovic", "lat": 48.97158, "lng": 14.53276, "population": 2652}, {"name": "Velké Karlovice", "lat": 49.36064, "lng": 18.28355, "population": 2651}, {"name": "Golčův Jeníkov", "lat": 49.81626, "lng": 15.47686, "population": 2644}, {"name": "Obrnice", "lat": 50.50498, "lng": 13.6954, "population": 2631}, {"name": "Vyšší Brod", "lat": 48.61598, "lng": 14.31183, "population": 2628}, {"name": "Vejprnice", "lat": 49.72988, "lng": 13.27628, "population": 2626}, {"name": "Zbiroh", "lat": 49.86024, "lng": 13.77262, "population": 2625}, {"name": "Mokrá Hora", "lat": 49.26176, "lng": 16.59107, "population": 2612}, {"name": "Tovačov", "lat": 49.43083, "lng": 17.28795, "population": 2605}, {"name": "Dolní Dobrouč", "lat": 49.99273, "lng": 16.49766, "population": 2597}, {"name": "Luže", "lat": 49.89341, "lng": 16.0285, "population": 2591}, {"name": "Nové Hrady", "lat": 48.78963, "lng": 14.77839, "population": 2590}, {"name": "Luka nad Jihlavou", "lat": 49.37403, "lng": 15.70194, "population": 2586}, {"name": "Hovorčovice", "lat": 50.17866, "lng": 14.51789, "population": 2571}, {"name": "Horní Bludovice", "lat": 49.74965, "lng": 18.43677, "population": 2564}, {"name": "Česká Ves", "lat": 50.25736, "lng": 17.22805, "population": 2554}, {"name": "Ledenice", "lat": 48.93329, "lng": 14.61886, "population": 2544}, {"name": "Bohušovice nad Ohří", "lat": 50.49316, "lng": 14.15048, "population": 2544}, {"name": "Hať", "lat": 49.94644, "lng": 18.23931, "population": 2539}, {"name": "Velká Chuchle", "lat": 50.01177, "lng": 14.38703, "population": 2538}, {"name": "Bohuňovice", "lat": 49.66301, "lng": 17.28693, "population": 2534}, {"name": "Spálené Poříčí", "lat": 49.61371, "lng": 13.60556, "population": 2529}, {"name": "Plasy", "lat": 49.93449, "lng": 13.39035, "population": 2527}, {"name": "Nové Sedlo", "lat": 50.20647, "lng": 12.738, "population": 2527}, {"name": "Čejkovice", "lat": 48.90592, "lng": 16.9423, "population": 2527}, {"name": "Luby", "lat": 50.25248, "lng": 12.40595, "population": 2525}, {"name": "Jince", "lat": 49.78624, "lng": 13.97867, "population": 2524}, {"name": "Počátky", "lat": 49.2602, "lng": 15.24022, "population": 2502}, {"name": "Štítná nad Vláří-Popov", "lat": 49.06881, "lng": 17.98274, "population": 2500}, {"name": "Zastávka", "lat": 49.188, "lng": 16.3631, "population": 2495}, {"name": "Ruda nad Moravou", "lat": 49.981, "lng": 16.87782, "population": 2490}, {"name": "Buchlovice", "lat": 49.08627, "lng": 17.33852, "population": 2487}, {"name": "Tlučná", "lat": 49.72425, "lng": 13.23534, "population": 2482}, {"name": "Klobouky u Brna", "lat": 48.99609, "lng": 16.86298, "population": 2476}, {"name": "Chýnov", "lat": 49.40677, "lng": 14.81122, "population": 2472}, {"name": "Černilov", "lat": 50.26265, "lng": 15.92254, "population": 2469}, {"name": "Tlumačov", "lat": 49.25351, "lng": 17.49559, "population": 2468}, {"name": "Sobotín", "lat": 50.01039, "lng": 17.09129, "population": 2468}, {"name": "Studená", "lat": 49.18516, "lng": 15.28688, "population": 2464}, {"name": "Rokytnice v Orlických Horách", "lat": 50.16473, "lng": 16.46567, "population": 2463}, {"name": "Vranovice", "lat": 48.966, "lng": 16.6066, "population": 2460}, {"name": "Horní Benešov", "lat": 49.96682, "lng": 17.60262, "population": 2460}, {"name": "Stará Ves nad Ondřejnicí", "lat": 49.72775, "lng": 18.1885, "population": 2450}, {"name": "Nová Včelnice", "lat": 49.23935, "lng": 15.0726, "population": 2449}, {"name": "Strašice", "lat": 49.73552, "lng": 13.75755, "population": 2442}, {"name": "Libiš", "lat": 50.27417, "lng": 14.5024, "population": 2442}, {"name": "Batelov", "lat": 49.31425, "lng": 15.39465, "population": 2437}, {"name": "Kryry", "lat": 50.17437, "lng": 13.4266, "population": 2431}, {"name": "Stráž nad Nisou", "lat": 50.79099, "lng": 15.02683, "population": 2430}, {"name": "Bosonohy", "lat": 49.17531, "lng": 16.52739, "population": 2422}, {"name": "Horní Bečva", "lat": 49.43216, "lng": 18.28859, "population": 2420}, {"name": "Komárov", "lat": 49.8065, "lng": 13.85636, "population": 2418}, {"name": "Dobšice", "lat": 48.84834, "lng": 16.08218, "population": 2418}, {"name": "Mořkov", "lat": 49.53684, "lng": 18.05968, "population": 2414}, {"name": "Vřesina", "lat": 49.82418, "lng": 18.12569, "population": 2410}, {"name": "Starý Jičín", "lat": 49.57686, "lng": 17.96169, "population": 2405}, {"name": "Dolní Kounice", "lat": 49.07011, "lng": 16.46492, "population": 2403}, {"name": "Rudolfov", "lat": 48.99339, "lng": 14.54179, "population": 2384}, {"name": "Chlumčany", "lat": 49.63256, "lng": 13.31323, "population": 2383}, {"name": "Mikulášovice", "lat": 50.96507, "lng": 14.36368, "population": 2375}, {"name": "Ořechov", "lat": 49.11118, "lng": 16.52329, "population": 2368}, {"name": "Halenkov", "lat": 49.3174, "lng": 18.14749, "population": 2367}, {"name": "Neveklov", "lat": 49.75373, "lng": 14.53291, "population": 2357}, {"name": "Krmelín", "lat": 49.72914, "lng": 18.23541, "population": 2356}, {"name": "Lednice", "lat": 48.79992, "lng": 16.80339, "population": 2355}, {"name": "Fryčovice", "lat": 49.66677, "lng": 18.22321, "population": 2353}, {"name": "Hovězí", "lat": 49.30365, "lng": 18.06062, "population": 2351}, {"name": "Kněžmost", "lat": 50.48917, "lng": 15.03829, "population": 2331}, {"name": "Chabařovice", "lat": 50.67318, "lng": 13.94184, "population": 2329}, {"name": "Ostravice", "lat": 49.5351, "lng": 18.39164, "population": 2324}, {"name": "Luštěnice", "lat": 50.32296, "lng": 14.93667, "population": 2318}, {"name": "Líně", "lat": 49.69472, "lng": 13.25693, "population": 2311}, {"name": "Bělkovice-Lašťany", "lat": 49.66795, "lng": 17.31613, "population": 2302}, {"name": "Pyšely", "lat": 49.87678, "lng": 14.67713, "population": 2301}, {"name": "Brandýsek", "lat": 50.18923, "lng": 14.16199, "population": 2300}, {"name": "Buštěhrad", "lat": 50.15594, "lng": 14.18897, "population": 2295}, {"name": "Kvasice", "lat": 49.24223, "lng": 17.46974, "population": 2282}, {"name": "Horní Planá", "lat": 48.76736, "lng": 14.03257, "population": 2278}, {"name": "Velké Poříčí", "lat": 50.46177, "lng": 16.18931, "population": 2275}, {"name": "Dolní Bousov", "lat": 50.43825, "lng": 15.12812, "population": 2275}, {"name": "Sobotka", "lat": 50.46741, "lng": 15.17619, "population": 2274}, {"name": "Mnichovice", "lat": 49.93601, "lng": 14.70907, "population": 2256}, {"name": "Dolní Černilov", "lat": 50.2611, "lng": 15.96107, "population": 2255}, {"name": "Plumlov", "lat": 49.46614, "lng": 17.01502, "population": 2254}, {"name": "Lány", "lat": 50.12471, "lng": 13.95041, "population": 2252}, {"name": "Včelná", "lat": 48.92373, "lng": 14.45383, "population": 2247}, {"name": "Valašská Bystřice", "lat": 49.41507, "lng": 18.10977, "population": 2240}, {"name": "Boršice", "lat": 49.06254, "lng": 17.35084, "population": 2239}, {"name": "Staříč", "lat": 49.68594, "lng": 18.27281, "population": 2238}, {"name": "Mirošov", "lat": 49.68782, "lng": 13.65807, "population": 2237}, {"name": "Zlonice", "lat": 50.2875, "lng": 14.09214, "population": 2232}, {"name": "Mladé Buky", "lat": 50.60643, "lng": 15.83348, "population": 2232}, {"name": "Hovorany", "lat": 48.95493, "lng": 16.99346, "population": 2232}, {"name": "Kopidlno", "lat": 50.33085, "lng": 15.27029, "population": 2231}, {"name": "Drnovice", "lat": 49.2763, "lng": 16.95146, "population": 2225}, {"name": "Velim", "lat": 50.05965, "lng": 15.10711, "population": 2222}, {"name": "Ralsko", "lat": 50.61287, "lng": 14.78945, "population": 2220}, {"name": "Povrly", "lat": 50.67276, "lng": 14.16033, "population": 2219}, {"name": "Opatovice nad Labem", "lat": 50.14541, "lng": 15.79045, "population": 2218}, {"name": "Svoboda nad Úpou", "lat": 50.62596, "lng": 15.81648, "population": 2216}, {"name": "Horoměřice", "lat": 50.13173, "lng": 14.33879, "population": 2212}, {"name": "Náměšť na Hané", "lat": 49.60213, "lng": 17.06539, "population": 2210}, {"name": "Moravský Písek", "lat": 48.99016, "lng": 17.33269, "population": 2201}, {"name": "Šťáhlavy", "lat": 49.67555, "lng": 13.50394, "population": 2200}, {"name": "Prušánky", "lat": 48.8284, "lng": 16.98068, "population": 2183}, {"name": "Nechanice", "lat": 50.23737, "lng": 15.63276, "population": 2183}, {"name": "Chlum u Třeboně", "lat": 48.96235, "lng": 14.92799, "population": 2183}, {"name": "Staré Nechanice", "lat": 50.24298, "lng": 15.61787, "population": 2180}, {"name": "Bánov", "lat": 48.98801, "lng": 17.71752, "population": 2178}, {"name": "Huslenky", "lat": 49.30315, "lng": 18.09067, "population": 2174}, {"name": "Velká Hleďsebe", "lat": 49.96151, "lng": 12.66763, "population": 2164}, {"name": "Rakvice", "lat": 48.85811, "lng": 16.8133, "population": 2162}, {"name": "Rudník", "lat": 50.59517, "lng": 15.73362, "population": 2161}, {"name": "Krhová", "lat": 49.48762, "lng": 18.00321, "population": 2161}, {"name": "Hřebeč", "lat": 50.13595, "lng": 14.16446, "population": 2159}, {"name": "Vacenovice", "lat": 48.9451, "lng": 17.17404, "population": 2157}, {"name": "Dolní Počernice", "lat": 50.0876, "lng": 14.57199, "population": 2157}, {"name": "Šardice", "lat": 48.96403, "lng": 17.02812, "population": 2152}, {"name": "Čeladná", "lat": 49.54873, "lng": 18.33759, "population": 2152}, {"name": "Borohrádek", "lat": 50.09777, "lng": 16.09326, "population": 2152}, {"name": "Velký Týnec", "lat": 49.54994, "lng": 17.33359, "population": 2150}, {"name": "Velký Osek", "lat": 50.09867, "lng": 15.18629, "population": 2150}, {"name": "Tuchlovice", "lat": 50.13803, "lng": 13.99115, "population": 2141}, {"name": "Žebrák", "lat": 49.87574, "lng": 13.89735, "population": 2139}, {"name": "Novosedlice", "lat": 50.65633, "lng": 13.82304, "population": 2133}, {"name": "Lhenice", "lat": 48.99479, "lng": 14.1498, "population": 2127}, {"name": "Šitbořice", "lat": 49.01433, "lng": 16.77975, "population": 2126}, {"name": "Lhenice", "lat": 50.57539, "lng": 13.8656, "population": 2123}, {"name": "Nupaky", "lat": 49.99395, "lng": 14.60223, "population": 2121}, {"name": "Trojanovice", "lat": 49.52039, "lng": 18.238, "population": 2114}, {"name": "Černá Hora", "lat": 49.41361, "lng": 16.5814, "population": 2110}, {"name": "Peruc", "lat": 50.3425, "lng": 13.95986, "population": 2109}, {"name": "Solnice", "lat": 50.20366, "lng": 16.23762, "population": 2099}, {"name": "Proseč", "lat": 49.8059, "lng": 16.11621, "population": 2098}, {"name": "Železná Ruda", "lat": 49.13743, "lng": 13.2352, "population": 2096}, {"name": "Píšť", "lat": 49.97857, "lng": 18.19349, "population": 2096}, {"name": "Němčice nad Hanou", "lat": 49.34181, "lng": 17.20596, "population": 2095}, {"name": "Říčany", "lat": 49.21497, "lng": 16.39362, "population": 2088}, {"name": "Šenov u Nového Jičína", "lat": 49.61321, "lng": 17.99458, "population": 2085}, {"name": "Květnice", "lat": 50.05726, "lng": 14.68411, "population": 2081}, {"name": "Plesná", "lat": 50.2207, "lng": 12.34669, "population": 2077}, {"name": "Bečov", "lat": 50.44972, "lng": 13.71784, "population": 2072}, {"name": "Kardašova Řečice", "lat": 49.18478, "lng": 14.85315, "population": 2071}, {"name": "Hranice", "lat": 50.30459, "lng": 12.17577, "population": 2070}, {"name": "Satalice", "lat": 50.12484, "lng": 14.57191, "population": 2069}, {"name": "Tvrdonice", "lat": 48.76048, "lng": 16.99446, "population": 2067}, {"name": "Vikýřovice", "lat": 49.97792, "lng": 17.01234, "population": 2064}, {"name": "Zdounky", "lat": 49.22771, "lng": 17.31899, "population": 2055}, {"name": "Břasy", "lat": 49.837, "lng": 13.57833, "population": 2055}, {"name": "Milín", "lat": 49.63192, "lng": 14.046, "population": 2053}, {"name": "Štíty", "lat": 49.96122, "lng": 16.76576, "population": 2049}, {"name": "Janovice nad Úhlavou", "lat": 49.34515, "lng": 13.21813, "population": 2049}, {"name": "Jistebnice", "lat": 49.48553, "lng": 14.5276, "population": 2048}, {"name": "Lipová-lázně", "lat": 50.22766, "lng": 17.14039, "population": 2047}, {"name": "Hýskov", "lat": 49.99072, "lng": 14.05055, "population": 2042}, {"name": "Blučina", "lat": 49.05497, "lng": 16.6445, "population": 2040}, {"name": "Hošťálková", "lat": 49.35467, "lng": 17.86944, "population": 2036}, {"name": "Stará Paka", "lat": 50.51032, "lng": 15.49444, "population": 2026}, {"name": "Hrob", "lat": 50.65919, "lng": 13.72676, "population": 2020}, {"name": "Všetaty", "lat": 50.28187, "lng": 14.59297, "population": 2019}, {"name": "Pozořice", "lat": 49.20976, "lng": 16.79074, "population": 2016}, {"name": "Okříšky", "lat": 49.24539, "lng": 15.76959, "population": 2016}, {"name": "Lelekovice", "lat": 49.29144, "lng": 16.57874, "population": 2016}, {"name": "Křelov-Břuchotín", "lat": 49.61313, "lng": 17.19132, "population": 2009}, {"name": "Jablůnka", "lat": 49.38355, "lng": 17.95021, "population": 2004}, {"name": "Kamenný Újezd", "lat": 48.89753, "lng": 14.44638, "population": 2002}, {"name": "Vysoký Újezd", "lat": 49.99213, "lng": 14.2062, "population": 1995}, {"name": "Kunčice pod Ondřejníkem", "lat": 49.5507, "lng": 18.26113, "population": 1995}, {"name": "Troubky", "lat": 49.43215, "lng": 17.34914, "population": 1993}, {"name": "Veleň", "lat": 50.17321, "lng": 14.55421, "population": 1987}, {"name": "Lužná", "lat": 50.12377, "lng": 13.77004, "population": 1984}, {"name": "Velký Šenov", "lat": 50.99078, "lng": 14.37428, "population": 1978}, {"name": "Dlouhá Loučka", "lat": 49.81763, "lng": 17.18788, "population": 1974}, {"name": "Hutisko-Solanec", "lat": 49.42906, "lng": 18.21767, "population": 1974}, {"name": "Bochov", "lat": 50.14872, "lng": 13.05227, "population": 1973}, {"name": "Brodek u Přerova", "lat": 49.48419, "lng": 17.33825, "population": 1972}, {"name": "Jablonec nad Jizerou", "lat": 50.70347, "lng": 15.42959, "population": 1968}, {"name": "Lysice", "lat": 49.4516, "lng": 16.53716, "population": 1966}, {"name": "Kobylí", "lat": 48.93286, "lng": 16.89159, "population": 1966}, {"name": "Lešná", "lat": 49.52055, "lng": 17.93004, "population": 1965}, {"name": "Budyně nad Ohří", "lat": 50.40427, "lng": 14.12591, "population": 1964}, {"name": "Horní Jiřetín", "lat": 50.57309, "lng": 13.54717, "population": 1963}, {"name": "Dolní Újezd", "lat": 49.82562, "lng": 16.25461, "population": 1963}, {"name": "Velké Březno", "lat": 50.6627, "lng": 14.14174, "population": 1957}, {"name": "Loučovice", "lat": 48.62019, "lng": 14.25747, "population": 1955}, {"name": "Skalná", "lat": 50.1703, "lng": 12.36144, "population": 1950}, {"name": "Loučná nad Desnou", "lat": 50.07433, "lng": 17.09052, "population": 1949}, {"name": "Plaňany", "lat": 50.0501, "lng": 15.02944, "population": 1947}, {"name": "Polešovice", "lat": 49.0339, "lng": 17.34064, "population": 1941}, {"name": "Milotice", "lat": 48.95528, "lng": 17.14241, "population": 1941}, {"name": "Dolní Poustevna", "lat": 50.98251, "lng": 14.28684, "population": 1941}, {"name": "Veřovice", "lat": 49.53916, "lng": 18.11425, "population": 1936}, {"name": "Nýdek", "lat": 49.65609, "lng": 18.75687, "population": 1934}, {"name": "Velké Popovice", "lat": 49.92252, "lng": 14.63934, "population": 1926}, {"name": "Doudleby nad Orlicí", "lat": 50.10742, "lng": 16.26131, "population": 1926}, {"name": "Hukvaldy", "lat": 49.62381, "lng": 18.22189, "population": 1924}, {"name": "Cerhenice", "lat": 50.07127, "lng": 15.07203, "population": 1924}, {"name": "Dobronín", "lat": 49.47833, "lng": 15.64992, "population": 1913}, {"name": "Vyšehrad", "lat": 50.06509, "lng": 14.41711, "population": 1913}, {"name": "Měřín", "lat": 49.39321, "lng": 15.88381, "population": 1910}, {"name": "Oloví", "lat": 50.25113, "lng": 12.55877, "population": 1909}, {"name": "Žandov", "lat": 50.71394, "lng": 14.39623, "population": 1907}, {"name": "Hněvotín", "lat": 49.57205, "lng": 17.17954, "population": 1903}, {"name": "Blatnice pod Svatým Antonínkem", "lat": 48.94714, "lng": 17.46401, "population": 1900}, {"name": "Hrochův Týnec", "lat": 49.95946, "lng": 15.91054, "population": 1899}, {"name": "Dolní Roveň", "lat": 50.02927, "lng": 15.96774, "population": 1899}, {"name": "Vroutek", "lat": 50.17999, "lng": 13.37986, "population": 1898}, {"name": "Jeseník nad Odrou", "lat": 49.61194, "lng": 17.90526, "population": 1898}, {"name": "Zbůch", "lat": 49.6784, "lng": 13.22564, "population": 1890}, {"name": "Mšené-lázně", "lat": 50.36109, "lng": 14.12805, "population": 1886}, {"name": "Mikulčice", "lat": 48.81643, "lng": 17.05107, "population": 1881}, {"name": "Dalovice", "lat": 50.24779, "lng": 12.89581, "population": 1880}, {"name": "Lidečko", "lat": 49.20303, "lng": 18.0513, "population": 1873}, {"name": "Kájov", "lat": 48.81082, "lng": 14.25859, "population": 1870}, {"name": "Ivanovice", "lat": 49.26422, "lng": 16.56549, "population": 1869}, {"name": "Týnec nad Labem", "lat": 50.04202, "lng": 15.35836, "population": 1868}, {"name": "Olšany u Prostějova", "lat": 49.53635, "lng": 17.16494, "population": 1867}, {"name": "Horní Cerekev", "lat": 49.32026, "lng": 15.32769, "population": 1866}, {"name": "Kostice", "lat": 48.74685, "lng": 16.97869, "population": 1864}, {"name": "Nový Šaldorf-Sedlešovice", "lat": 48.83001, "lng": 16.06061, "population": 1864}, {"name": "Černovice", "lat": 49.37265, "lng": 14.96089, "population": 1863}, {"name": "Želechovice nad Dřevnicí", "lat": 49.21736, "lng": 17.74477, "population": 1859}, {"name": "Pustiměř", "lat": 49.32251, "lng": 17.02792, "population": 1852}, {"name": "Bystřany", "lat": 50.62867, "lng": 13.86419, "population": 1840}, {"name": "Chyňava", "lat": 50.02736, "lng": 14.07398, "population": 1839}, {"name": "Křižanov", "lat": 49.38858, "lng": 16.1096, "population": 1832}, {"name": "Senice na Hané", "lat": 49.62401, "lng": 17.08578, "population": 1824}, {"name": "Troubsko", "lat": 49.16951, "lng": 16.51078, "population": 1822}, {"name": "Bělá nad Radbuzou", "lat": 49.59115, "lng": 12.71761, "population": 1812}, {"name": "Kunín", "lat": 49.63377, "lng": 17.98965, "population": 1811}, {"name": "Horní Jelení", "lat": 50.04901, "lng": 16.08396, "population": 1811}, {"name": "Drahanovice", "lat": 49.57856, "lng": 17.07701, "population": 1810}, {"name": "Kozmice", "lat": 49.9128, "lng": 18.15584, "population": 1808}, {"name": "Bukovany", "lat": 50.16632, "lng": 12.57265, "population": 1808}, {"name": "Teplice nad Metují", "lat": 50.59332, "lng": 16.17026, "population": 1805}, {"name": "Dolní Bečva", "lat": 49.45498, "lng": 18.19419, "population": 1805}, {"name": "Troubelice", "lat": 49.81731, "lng": 17.081, "population": 1802}, {"name": "Horní Branná", "lat": 50.60826, "lng": 15.57146, "population": 1798}, {"name": "Dašice", "lat": 50.02844, "lng": 15.91244, "population": 1797}, {"name": "Heřmanova Huť", "lat": 49.70679, "lng": 13.10069, "population": 1794}, {"name": "Chodová Planá", "lat": 49.89321, "lng": 12.73014, "population": 1793}, {"name": "Bohuslavice", "lat": 49.94232, "lng": 18.12866, "population": 1786}, {"name": "Hrotovice", "lat": 49.1077, "lng": 16.06067, "population": 1784}, {"name": "Chotoviny", "lat": 49.47803, "lng": 14.67695, "population": 1783}, {"name": "Smečno", "lat": 50.18844, "lng": 14.04037, "population": 1781}, {"name": "Nový Knín", "lat": 49.788, "lng": 14.29355, "population": 1779}, {"name": "Město Touškov", "lat": 49.77587, "lng": 13.25108, "population": 1777}, {"name": "Písek", "lat": 49.55924, "lng": 18.80231, "population": 1776}, {"name": "Libouchec", "lat": 50.75854, "lng": 14.04071, "population": 1772}, {"name": "Kouřim", "lat": 50.00306, "lng": 14.97703, "population": 1772}, {"name": "Stonava", "lat": 49.81691, "lng": 18.52518, "population": 1771}, {"name": "Raškovice", "lat": 49.61975, "lng": 18.47286, "population": 1771}, {"name": "Poličná", "lat": 49.46619, "lng": 17.93965, "population": 1769}, {"name": "Pěnčín", "lat": 50.68769, "lng": 15.23593, "population": 1769}, {"name": "Markvartovice", "lat": 49.90595, "lng": 18.23602, "population": 1766}, {"name": "Davle", "lat": 49.89218, "lng": 14.40037, "population": 1765}, {"name": "Šumice", "lat": 49.02858, "lng": 17.72205, "population": 1764}, {"name": "Zásmuky", "lat": 49.9547, "lng": 15.03058, "population": 1763}, {"name": "Sokolnice", "lat": 49.11392, "lng": 16.72156, "population": 1761}, {"name": "Kamenice", "lat": 49.36659, "lng": 15.78023, "population": 1760}, {"name": "Olešnice", "lat": 49.55755, "lng": 16.42169, "population": 1757}, {"name": "Libhošť", "lat": 49.62417, "lng": 18.07431, "population": 1756}, {"name": "Babice", "lat": 49.12167, "lng": 17.48075, "population": 1754}, {"name": "Hrádek", "lat": 49.61661, "lng": 18.7372, "population": 1753}, {"name": "Dubá", "lat": 50.54034, "lng": 14.54023, "population": 1753}, {"name": "Ostopovice", "lat": 49.161, "lng": 16.54548, "population": 1751}, {"name": "Radnice", "lat": 49.85677, "lng": 13.6057, "population": 1749}, {"name": "Hustopeče Nad Bečvou", "lat": 49.53053, "lng": 17.86994, "population": 1748}, {"name": "Doubrava", "lat": 49.85873, "lng": 18.48018, "population": 1744}, {"name": "Pchery", "lat": 50.19378, "lng": 14.11782, "population": 1743}, {"name": "Horní Sloupnice", "lat": 49.92138, "lng": 16.33948, "population": 1742}, {"name": "Vinařice", "lat": 50.17585, "lng": 14.09106, "population": 1739}, {"name": "Křenovice", "lat": 49.14216, "lng": 16.82932, "population": 1738}, {"name": "Petřvald", "lat": 49.70872, "lng": 18.15719, "population": 1735}, {"name": "Studenec", "lat": 50.55344, "lng": 15.54936, "population": 1734}, {"name": "Hostavice", "lat": 50.09283, "lng": 14.55822, "population": 1729}, {"name": "Dolní Sloupnice", "lat": 49.92721, "lng": 16.29401, "population": 1729}, {"name": "Lukov", "lat": 49.29027, "lng": 17.72959, "population": 1725}, {"name": "Třebenice", "lat": 50.47632, "lng": 13.99005, "population": 1723}, {"name": "Hroznětín", "lat": 50.3094, "lng": 12.8718, "population": 1721}, {"name": "Ratiboř", "lat": 49.36769, "lng": 17.91499, "population": 1719}, {"name": "Dolní Dunajovice", "lat": 48.85447, "lng": 16.59283, "population": 1717}, {"name": "Bělá pod Pradědem", "lat": 50.16396, "lng": 17.19653, "population": 1710}, {"name": "Jalubí", "lat": 49.11626, "lng": 17.42788, "population": 1708}, {"name": "Poběžovice", "lat": 49.51029, "lng": 12.80261, "population": 1707}, {"name": "Moravany", "lat": 50.00095, "lng": 15.94071, "population": 1706}, {"name": "Malšice", "lat": 49.36391, "lng": 14.57868, "population": 1702}, {"name": "Lety", "lat": 49.921, "lng": 14.2552, "population": 1701}, {"name": "Halenkovice", "lat": 49.17102, "lng": 17.47156, "population": 1701}, {"name": "Svitávka", "lat": 49.50178, "lng": 16.59793, "population": 1700}, {"name": "Harrachov", "lat": 50.77209, "lng": 15.43141, "population": 1700}, {"name": "Chrást", "lat": 49.7932, "lng": 13.49358, "population": 1700}, {"name": "Hodslavice", "lat": 49.53856, "lng": 18.02367, "population": 1699}, {"name": "Janovice", "lat": 49.62141, "lng": 18.40602, "population": 1693}, {"name": "Spytihněv", "lat": 49.14115, "lng": 17.49808, "population": 1692}, {"name": "Slavkov", "lat": 49.9218, "lng": 17.83641, "population": 1686}, {"name": "Seč", "lat": 49.84694, "lng": 15.65643, "population": 1686}, {"name": "Všenory", "lat": 49.92883, "lng": 14.30392, "population": 1684}, {"name": "Bystré", "lat": 49.62846, "lng": 16.34679, "population": 1681}, {"name": "Staré Město", "lat": 50.16174, "lng": 16.94734, "population": 1678}, {"name": "Horní Moštěnice", "lat": 49.41213, "lng": 17.45879, "population": 1676}, {"name": "Držovice", "lat": 49.49104, "lng": 17.13404, "population": 1676}, {"name": "Drnholec", "lat": 48.85746, "lng": 16.48586, "population": 1676}, {"name": "Velké Hoštice", "lat": 49.93609, "lng": 17.9738, "population": 1675}, {"name": "Vlachovo Březí", "lat": 49.08135, "lng": 13.95842, "population": 1672}, {"name": "Košťálov", "lat": 50.57165, "lng": 15.40403, "population": 1671}, {"name": "Kamenné Žehrovice", "lat": 50.12697, "lng": 14.01809, "population": 1667}, {"name": "Šumvald", "lat": 49.83104, "lng": 17.13275, "population": 1666}, {"name": "Prostřední Bečva", "lat": 49.43609, "lng": 18.252, "population": 1661}, {"name": "Lomnice nad Lužnicí", "lat": 49.08468, "lng": 14.71727, "population": 1660}, {"name": "Mirovice", "lat": 49.51555, "lng": 14.03582, "population": 1658}, {"name": "Měnín", "lat": 49.0824, "lng": 16.69424, "population": 1657}, {"name": "Velké Němčice", "lat": 48.99168, "lng": 16.67208, "population": 1654}, {"name": "Smržice", "lat": 49.50569, "lng": 17.10698, "population": 1654}, {"name": "Plánice", "lat": 49.38993, "lng": 13.47106, "population": 1649}, {"name": "Rožďalovice", "lat": 50.30476, "lng": 15.16962, "population": 1648}, {"name": "Libáň", "lat": 50.37542, "lng": 15.21684, "population": 1648}, {"name": "Hodonice", "lat": 48.8368, "lng": 16.16337, "population": 1648}, {"name": "Lázně Kynžvart", "lat": 50.01058, "lng": 12.62474, "population": 1647}, {"name": "Mostkovice", "lat": 49.47215, "lng": 17.05212, "population": 1646}, {"name": "Ronov nad Doubravou", "lat": 49.88825, "lng": 15.53144, "population": 1645}, {"name": "Chvalčov", "lat": 49.38918, "lng": 17.71149, "population": 1644}, {"name": "Předměřice nad Labem", "lat": 50.25633, "lng": 15.81556, "population": 1638}, {"name": "Lučany nad Nisou", "lat": 50.74136, "lng": 15.22046, "population": 1636}, {"name": "Jesenice", "lat": 50.09703, "lng": 13.46948, "population": 1635}, {"name": "Bílovice", "lat": 49.09965, "lng": 17.54961, "population": 1634}, {"name": "Ostrožská Lhota", "lat": 48.97559, "lng": 17.46751, "population": 1633}, {"name": "Hrušky", "lat": 48.79272, "lng": 16.97404, "population": 1633}, {"name": "Veltrusy", "lat": 50.27046, "lng": 14.32857, "population": 1632}, {"name": "Čebín", "lat": 49.31324, "lng": 16.47791, "population": 1632}, {"name": "Libeř", "lat": 49.92415, "lng": 14.48062, "population": 1630}, {"name": "Krucemburk", "lat": 49.68841, "lng": 15.85207, "population": 1630}, {"name": "Bělotín", "lat": 49.5912, "lng": 17.80654, "population": 1630}, {"name": "Koloděje", "lat": 50.06257, "lng": 14.64265, "population": 1626}, {"name": "Stěžery", "lat": 50.21572, "lng": 15.74831, "population": 1625}, {"name": "Skalice u České Lípy", "lat": 50.74781, "lng": 14.52983, "population": 1620}, {"name": "Zborovice", "lat": 49.24889, "lng": 17.28464, "population": 1619}, {"name": "Červené Pečky", "lat": 49.97822, "lng": 15.20856, "population": 1617}, {"name": "Zdíkov", "lat": 49.08456, "lng": 13.69738, "population": 1616}, {"name": "Čkyně", "lat": 49.11503, "lng": 13.82906, "population": 1616}, {"name": "Francova Lhota", "lat": 49.20174, "lng": 18.11175, "population": 1615}, {"name": "Vidče", "lat": 49.44151, "lng": 18.09473, "population": 1614}, {"name": "Častolovice", "lat": 50.1291, "lng": 16.18128, "population": 1614}, {"name": "Velké Heraltice", "lat": 49.97493, "lng": 17.72879, "population": 1613}, {"name": "České Meziříčí", "lat": 50.2868, "lng": 16.04428, "population": 1603}, {"name": "Velká Polom", "lat": 49.86359, "lng": 18.09331, "population": 1597}, {"name": "Bartošovice", "lat": 49.66884, "lng": 18.05461, "population": 1596}, {"name": "Malé Svatoňovice", "lat": 50.53395, "lng": 16.04978, "population": 1587}, {"name": "Tichá", "lat": 49.56999, "lng": 18.22148, "population": 1585}, {"name": "Hradec nad Svitavou", "lat": 49.71143, "lng": 16.48058, "population": 1584}, {"name": "Hazlov", "lat": 50.15634, "lng": 12.27238, "population": 1583}, {"name": "Švihov", "lat": 49.48136, "lng": 13.28417, "population": 1582}, {"name": "Řepiště", "lat": 49.73338, "lng": 18.31707, "population": 1581}, {"name": "Rajhradice", "lat": 49.09203, "lng": 16.62933, "population": 1579}, {"name": "Slatinice", "lat": 49.56155, "lng": 17.09992, "population": 1578}, {"name": "Svatava", "lat": 50.19223, "lng": 12.62524, "population": 1577}, {"name": "Želetava", "lat": 49.14187, "lng": 15.673, "population": 1573}, {"name": "Husinec", "lat": 50.17374, "lng": 14.37508, "population": 1573}, {"name": "Ohrobec", "lat": 49.94172, "lng": 14.43203, "population": 1571}, {"name": "Zlechov", "lat": 49.07396, "lng": 17.37938, "population": 1567}, {"name": "Loděnice", "lat": 49.99486, "lng": 14.15785, "population": 1564}, {"name": "Vrbátky", "lat": 49.50805, "lng": 17.19994, "population": 1562}, {"name": "Kašperské Hory", "lat": 49.14289, "lng": 13.55616, "population": 1562}, {"name": "Starý Kolín", "lat": 50.00977, "lng": 15.29388, "population": 1561}, {"name": "Ochoz u Brna", "lat": 49.25447, "lng": 16.73733, "population": 1560}, {"name": "Medlov", "lat": 49.78754, "lng": 17.06261, "population": 1560}, {"name": "Hrdějovice", "lat": 49.01893, "lng": 14.47857, "population": 1560}, {"name": "Horní Stropnice", "lat": 48.76124, "lng": 14.73502, "population": 1560}, {"name": "Tršice", "lat": 49.54237, "lng": 17.42483, "population": 1559}, {"name": "Březolupy", "lat": 49.12138, "lng": 17.58034, "population": 1559}, {"name": "Nižbor", "lat": 49.99995, "lng": 14.00237, "population": 1549}, {"name": "Nová Ves", "lat": 50.21922, "lng": 14.53563, "population": 1548}, {"name": "Dolní Beřkovice", "lat": 50.39313, "lng": 14.45024, "population": 1546}, {"name": "Zádveřice-Raková", "lat": 49.21629, "lng": 17.80499, "population": 1546}, {"name": "Topolná", "lat": 49.12187, "lng": 17.54434, "population": 1545}, {"name": "Václavovice", "lat": 49.75531, "lng": 18.3722, "population": 1544}, {"name": "Bohutín", "lat": 49.65551, "lng": 13.94389, "population": 1544}, {"name": "Lubenec", "lat": 50.13207, "lng": 13.31319, "population": 1541}, {"name": "Štoky", "lat": 49.50249, "lng": 15.58863, "population": 1540}, {"name": "Svratka", "lat": 49.71066, "lng": 16.03214, "population": 1539}, {"name": "Stařeč", "lat": 49.19783, "lng": 15.82791, "population": 1539}, {"name": "Březí", "lat": 48.81928, "lng": 16.56748, "population": 1539}, {"name": "Všestary", "lat": 50.2566, "lng": 15.75983, "population": 1537}, {"name": "Šilheřovice", "lat": 49.92602, "lng": 18.27017, "population": 1534}, {"name": "Metylovice", "lat": 49.60666, "lng": 18.33911, "population": 1534}, {"name": "Vlachovice", "lat": 49.12377, "lng": 17.94001, "population": 1532}, {"name": "Rokytnice", "lat": 49.46592, "lng": 17.3912, "population": 1532}, {"name": "Janov nad Nisou", "lat": 50.77204, "lng": 15.16913, "population": 1531}, {"name": "Nasavrky", "lat": 49.8445, "lng": 15.80461, "population": 1526}, {"name": "Smidary", "lat": 50.29146, "lng": 15.47725, "population": 1523}, {"name": "Prachovice", "lat": 49.89379, "lng": 15.62872, "population": 1522}, {"name": "Dvorce", "lat": 49.83332, "lng": 17.54762, "population": 1518}, {"name": "Březová nad Svitavou", "lat": 49.64418, "lng": 16.51799, "population": 1518}, {"name": "Nedakonice", "lat": 49.03159, "lng": 17.38141, "population": 1505}, {"name": "Jindřichov", "lat": 50.25184, "lng": 17.51903, "population": 1504}, {"name": "Městečko Trnávka", "lat": 49.70926, "lng": 16.72744, "population": 1502}, {"name": "Náklo", "lat": 49.65462, "lng": 17.12969, "population": 1497}, {"name": "Šakvice", "lat": 48.89746, "lng": 16.71424, "population": 1494}, {"name": "Zaječí", "lat": 48.87295, "lng": 16.76646, "population": 1492}, {"name": "Žabčice", "lat": 49.0116, "lng": 16.60257, "population": 1492}, {"name": "Hnojník", "lat": 49.6825, "lng": 18.54143, "population": 1492}, {"name": "Hostomice", "lat": 49.82526, "lng": 14.0456, "population": 1491}, {"name": "Bouzov", "lat": 49.70426, "lng": 16.89288, "population": 1490}, {"name": "Hostěradice", "lat": 48.95006, "lng": 16.25931, "population": 1488}, {"name": "Řevničov", "lat": 50.18489, "lng": 13.80823, "population": 1487}, {"name": "Holoubkov", "lat": 49.77598, "lng": 13.69246, "population": 1485}, {"name": "Dub nad Moravou", "lat": 49.48249, "lng": 17.27723, "population": 1485}, {"name": "Dambořice", "lat": 49.03828, "lng": 16.91757, "population": 1485}, {"name": "Kunžak", "lat": 49.12119, "lng": 15.19028, "population": 1484}, {"name": "Litvínovice", "lat": 48.96207, "lng": 14.45146, "population": 1483}, {"name": "Brodek u Prostějova", "lat": 49.36977, "lng": 17.08931, "population": 1477}, {"name": "Valdice", "lat": 50.45501, "lng": 15.38488, "population": 1474}, {"name": "Hošťka", "lat": 50.48859, "lng": 14.335, "population": 1473}, {"name": "Dolní Bukovsko", "lat": 49.17086, "lng": 14.58127, "population": 1473}, {"name": "Kamenný Přívoz", "lat": 49.86299, "lng": 14.50339, "population": 1472}, {"name": "Oskava", "lat": 49.89523, "lng": 17.13214, "population": 1471}, {"name": "Předklášteří", "lat": 49.35253, "lng": 16.40241, "population": 1469}, {"name": "Šestajovice", "lat": 50.10845, "lng": 14.68013, "population": 1465}, {"name": "Kovářov", "lat": 49.5176, "lng": 14.27809, "population": 1465}, {"name": "Vrbice", "lat": 49.88333, "lng": 18.31667, "population": 1464}, {"name": "Brumovice", "lat": 50.0153, "lng": 17.74958, "population": 1464}, {"name": "Jistebník", "lat": 49.754, "lng": 18.13063, "population": 1461}, {"name": "Tišice", "lat": 50.2698, "lng": 14.55411, "population": 1460}, {"name": "Dřevohostice", "lat": 49.42594, "lng": 17.59204, "population": 1460}, {"name": "Valdice", "lat": 50.5835, "lng": 15.41248, "population": 1459}, {"name": "Březová-Oleško", "lat": 49.91293, "lng": 14.41412, "population": 1457}, {"name": "Kněžice", "lat": 49.27078, "lng": 15.67216, "population": 1455}, {"name": "Chřibská", "lat": 50.86079, "lng": 14.48444, "population": 1453}, {"name": "Poříčí nad Sázavou", "lat": 49.83895, "lng": 14.67446, "population": 1441}, {"name": "Lipov", "lat": 48.90495, "lng": 17.46171, "population": 1437}, {"name": "Božice", "lat": 48.83687, "lng": 16.28875, "population": 1436}, {"name": "Zaječov", "lat": 49.77435, "lng": 13.84072, "population": 1435}, {"name": "Brandýs nad Orlicí", "lat": 50.00194, "lng": 16.28528, "population": 1435}, {"name": "Nedašov", "lat": 49.10778, "lng": 18.07036, "population": 1428}, {"name": "Velemín", "lat": 50.53898, "lng": 13.97675, "population": 1427}, {"name": "Kralice na Hané", "lat": 49.46296, "lng": 17.18048, "population": 1427}, {"name": "Vidnava", "lat": 50.37234, "lng": 17.18626, "population": 1425}, {"name": "Dýšina", "lat": 49.77735, "lng": 13.4915, "population": 1424}, {"name": "Černčice", "lat": 50.36138, "lng": 13.84521, "population": 1423}, {"name": "Žihle", "lat": 50.04491, "lng": 13.37502, "population": 1419}, {"name": "Kladruby", "lat": 49.71498, "lng": 12.98232, "population": 1419}, {"name": "Podolí", "lat": 49.19042, "lng": 16.72084, "population": 1418}, {"name": "Mšeno", "lat": 50.43809, "lng": 14.6325, "population": 1417}, {"name": "Zlatníky-Hodkovice", "lat": 49.96672, "lng": 14.47614, "population": 1415}, {"name": "Otnice", "lat": 49.08642, "lng": 16.81443, "population": 1411}, {"name": "Čechtice", "lat": 49.62403, "lng": 15.04824, "population": 1410}, {"name": "Žitenice", "lat": 50.55528, "lng": 14.15665, "population": 1407}, {"name": "Brněnec", "lat": 49.62735, "lng": 16.52202, "population": 1405}, {"name": "Liptál", "lat": 49.29051, "lng": 17.92177, "population": 1403}, {"name": "Štěnovice", "lat": 49.67051, "lng": 13.39963, "population": 1401}, {"name": "Liběšice", "lat": 50.56886, "lng": 14.28906, "population": 1401}, {"name": "Bavorov", "lat": 49.12184, "lng": 14.07893, "population": 1401}, {"name": "Strmilov", "lat": 49.15846, "lng": 15.19934, "population": 1399}, {"name": "Určice", "lat": 49.43045, "lng": 17.07291, "population": 1397}, {"name": "Moravský Žižkov", "lat": 48.83285, "lng": 16.9314, "population": 1396}, {"name": "Pustá Polom", "lat": 49.84917, "lng": 17.9979, "population": 1394}, {"name": "Dřiteň", "lat": 49.1428, "lng": 14.34596, "population": 1392}, {"name": "Ropice", "lat": 49.70536, "lng": 18.61345, "population": 1390}, {"name": "Kolinec", "lat": 49.29895, "lng": 13.439, "population": 1388}, {"name": "Mohelno", "lat": 49.11412, "lng": 16.19022, "population": 1386}, {"name": "Grygov", "lat": 49.53841, "lng": 17.30887, "population": 1385}, {"name": "Mýto", "lat": 49.78904, "lng": 13.73461, "population": 1384}, {"name": "Rybitví", "lat": 50.06015, "lng": 15.70472, "population": 1379}, {"name": "Horní Lideč", "lat": 49.18121, "lng": 18.06099, "population": 1379}, {"name": "Zbraslavice", "lat": 49.81179, "lng": 15.18319, "population": 1378}, {"name": "Štěchovice", "lat": 49.85109, "lng": 14.40543, "population": 1377}, {"name": "Letonice", "lat": 49.17726, "lng": 16.95913, "population": 1377}, {"name": "Drnovice", "lat": 49.46931, "lng": 16.54223, "population": 1377}, {"name": "Loučeň", "lat": 50.28537, "lng": 15.02049, "population": 1375}, {"name": "Postupice", "lat": 49.72798, "lng": 14.77722, "population": 1374}, {"name": "Nová Ves I", "lat": 50.05265, "lng": 15.14375, "population": 1374}, {"name": "Kožlany", "lat": 49.99389, "lng": 13.54107, "population": 1374}, {"name": "Viničné Šumice", "lat": 49.21358, "lng": 16.82541, "population": 1372}, {"name": "Vacov", "lat": 49.13686, "lng": 13.72911, "population": 1372}, {"name": "Křešice", "lat": 50.52259, "lng": 14.2145, "population": 1371}, {"name": "Dolní Čermná", "lat": 49.97954, "lng": 16.56475, "population": 1371}, {"name": "Ostroměř", "lat": 50.37246, "lng": 15.54949, "population": 1368}, {"name": "Ráječko", "lat": 49.39393, "lng": 16.64497, "population": 1367}, {"name": "Divišov", "lat": 49.78849, "lng": 14.87579, "population": 1367}, {"name": "Holasovice", "lat": 49.99843, "lng": 17.80847, "population": 1366}, {"name": "Hevlín", "lat": 48.75209, "lng": 16.38131, "population": 1366}, {"name": "Opařany", "lat": 49.39678, "lng": 14.48137, "population": 1365}, {"name": "Řečany nad Labem", "lat": 50.03589, "lng": 15.47735, "population": 1364}, {"name": "Přimda", "lat": 49.67488, "lng": 12.67366, "population": 1364}, {"name": "Bukovec", "lat": 49.55114, "lng": 18.82683, "population": 1364}, {"name": "Vysoké nad Jizerou", "lat": 50.68559, "lng": 15.40152, "population": 1363}, {"name": "Petrovice", "lat": 49.55426, "lng": 14.33737, "population": 1362}, {"name": "Světlá Hora", "lat": 50.04644, "lng": 17.39944, "population": 1362}, {"name": "Červenka", "lat": 49.72068, "lng": 17.07773, "population": 1361}, {"name": "Mostek", "lat": 50.48623, "lng": 15.69622, "population": 1360}, {"name": "Osek nad Bečvou", "lat": 49.51121, "lng": 17.52829, "population": 1358}, {"name": "Oldřišov", "lat": 49.9913, "lng": 17.96074, "population": 1358}, {"name": "Brniště", "lat": 50.72919, "lng": 14.70338, "population": 1358}, {"name": "Řitka", "lat": 49.89451, "lng": 14.29923, "population": 1357}, {"name": "Kosova Hora", "lat": 49.65414, "lng": 14.47173, "population": 1356}, {"name": "Petrov", "lat": 48.88196, "lng": 17.2781, "population": 1354}, {"name": "Nezvěstice", "lat": 49.64043, "lng": 13.51962, "population": 1353}, {"name": "Háj u Duchcova", "lat": 50.63081, "lng": 13.71258, "population": 1353}, {"name": "Sviadnov", "lat": 49.68926, "lng": 18.32762, "population": 1352}, {"name": "Krouna", "lat": 49.7724, "lng": 16.02674, "population": 1352}, {"name": "Křinec", "lat": 50.26449, "lng": 15.13782, "population": 1351}, {"name": "Račice-Pístovice", "lat": 49.27621, "lng": 16.88107, "population": 1351}, {"name": "Zadní Mostek", "lat": 50.4967, "lng": 15.69804, "population": 1350}, {"name": "Těšetice", "lat": 49.59317, "lng": 17.12607, "population": 1350}, {"name": "Kvasiny", "lat": 50.2125, "lng": 16.26323, "population": 1349}, {"name": "Lužec nad Vltavou", "lat": 50.32138, "lng": 14.40022, "population": 1347}, {"name": "Bílá Třemešná", "lat": 50.44465, "lng": 15.74101, "population": 1345}, {"name": "Sepekov", "lat": 49.42865, "lng": 14.41815, "population": 1343}, {"name": "Újezd", "lat": 49.76397, "lng": 17.1804, "population": 1341}, {"name": "Husinec", "lat": 49.05496, "lng": 13.98697, "population": 1339}, {"name": "Dobřejovice", "lat": 49.98161, "lng": 14.57826, "population": 1339}, {"name": "Katovice", "lat": 49.27348, "lng": 13.83035, "population": 1338}, {"name": "Dolní Rychnov", "lat": 50.16462, "lng": 12.64507, "population": 1337}, {"name": "Lichnov", "lat": 49.56423, "lng": 18.16898, "population": 1335}, {"name": "Vřesina", "lat": 49.94581, "lng": 18.19005, "population": 1334}, {"name": "Doubravice nad Svitavou", "lat": 49.43664, "lng": 16.62937, "population": 1333}, {"name": "Žulová", "lat": 50.30933, "lng": 17.09871, "population": 1332}, {"name": "Stěbořice", "lat": 49.93708, "lng": 17.80547, "population": 1330}, {"name": "Nedvědice", "lat": 49.45702, "lng": 16.33406, "population": 1330}, {"name": "Radomyšl", "lat": 49.31634, "lng": 13.93024, "population": 1329}, {"name": "Dobroměřice", "lat": 50.37009, "lng": 13.79473, "population": 1329}, {"name": "Čelechovice na Hané", "lat": 49.51626, "lng": 17.09379, "population": 1329}, {"name": "Valašská Polanka", "lat": 49.26215, "lng": 17.99667, "population": 1328}, {"name": "Sedlnice", "lat": 49.6577, "lng": 18.0869, "population": 1327}, {"name": "Strážov", "lat": 49.30326, "lng": 13.24623, "population": 1326}, {"name": "Brozany nad Ohří", "lat": 50.45423, "lng": 14.14525, "population": 1326}, {"name": "Frymburk", "lat": 48.66094, "lng": 14.16564, "population": 1324}, {"name": "Velehrad", "lat": 49.10543, "lng": 17.39426, "population": 1323}, {"name": "Rosice", "lat": 49.92226, "lng": 15.95127, "population": 1323}, {"name": "Čížkovice", "lat": 50.48418, "lng": 14.02839, "population": 1323}, {"name": "Žiželice", "lat": 50.13192, "lng": 15.3932, "population": 1322}, {"name": "Lochovice", "lat": 49.85318, "lng": 13.98126, "population": 1322}, {"name": "Hrádek", "lat": 49.26127, "lng": 13.4985, "population": 1321}, {"name": "Kovářská", "lat": 50.43821, "lng": 13.05388, "population": 1320}, {"name": "Kasejovice", "lat": 49.4627, "lng": 13.7406, "population": 1320}, {"name": "Hradištko", "lat": 49.86828, "lng": 14.40935, "population": 1320}, {"name": "Višňova", "lat": 50.96663, "lng": 15.02495, "population": 1319}, {"name": "Příkazy", "lat": 49.6436, "lng": 17.14337, "population": 1316}, {"name": "Hlohovec", "lat": 48.77399, "lng": 16.7623, "population": 1315}, {"name": "Chuchelná", "lat": 49.98664, "lng": 18.11656, "population": 1315}, {"name": "Abertamy", "lat": 50.36874, "lng": 12.81826, "population": 1315}, {"name": "Nelahozeves", "lat": 50.26148, "lng": 14.29881, "population": 1313}, {"name": "Církvice", "lat": 49.9456, "lng": 15.33505, "population": 1311}, {"name": "Libice nad Cidlinou", "lat": 50.12677, "lng": 15.1782, "population": 1310}, {"name": "Dolní Lhota", "lat": 49.84236, "lng": 18.09241, "population": 1308}, {"name": "Březová", "lat": 49.79158, "lng": 17.86556, "population": 1307}, {"name": "Věrovany", "lat": 49.46109, "lng": 17.28795, "population": 1306}, {"name": "Křepice", "lat": 48.99986, "lng": 16.71989, "population": 1305}, {"name": "Habry", "lat": 49.75603, "lng": 15.48486, "population": 1305}, {"name": "Špindlerův Mlýn", "lat": 50.72615, "lng": 15.60944, "population": 1302}, {"name": "Bořitov", "lat": 49.42504, "lng": 16.59119, "population": 1302}, {"name": "Veltruby", "lat": 50.07059, "lng": 15.18454, "population": 1301}, {"name": "Lomnice", "lat": 49.40462, "lng": 16.41359, "population": 1300}, {"name": "Jeneč", "lat": 50.0873, "lng": 14.21482, "population": 1299}, {"name": "Hostouň", "lat": 49.55971, "lng": 12.77147, "population": 1299}, {"name": "Lenešice", "lat": 50.37516, "lng": 13.7659, "population": 1298}, {"name": "Mukařov", "lat": 49.99115, "lng": 14.74155, "population": 1297}, {"name": "Bořetice", "lat": 48.91302, "lng": 16.85306, "population": 1297}, {"name": "Telnice", "lat": 49.10187, "lng": 16.71774, "population": 1296}, {"name": "Ševětín", "lat": 49.10005, "lng": 14.5722, "population": 1294}, {"name": "Otice", "lat": 49.91684, "lng": 17.86982, "population": 1292}, {"name": "Milíkov", "lat": 49.58565, "lng": 18.71943, "population": 1291}, {"name": "Přáslavice", "lat": 49.58568, "lng": 17.38209, "population": 1290}, {"name": "Zbraslav", "lat": 49.22155, "lng": 16.29415, "population": 1285}, {"name": "Želešice", "lat": 49.11689, "lng": 16.58137, "population": 1284}, {"name": "Nezamyslice", "lat": 49.32543, "lng": 17.17326, "population": 1278}, {"name": "Dolní Studénky", "lat": 49.93506, "lng": 16.97107, "population": 1278}, {"name": "Příšovice", "lat": 50.57813, "lng": 15.0839, "population": 1277}, {"name": "Otaslavice", "lat": 49.38833, "lng": 17.07108, "population": 1275}, {"name": "Tečovice", "lat": 49.22107, "lng": 17.58733, "population": 1272}, {"name": "Vápenná", "lat": 50.28338, "lng": 17.09762, "population": 1271}, {"name": "Klenčí pod Čerchovem", "lat": 49.43484, "lng": 12.81473, "population": 1270}, {"name": "Velký Beranov", "lat": 49.40504, "lng": 15.667, "population": 1269}, {"name": "Herálec", "lat": 49.68891, "lng": 15.99431, "population": 1269}, {"name": "Žleby", "lat": 49.88958, "lng": 15.48853, "population": 1267}, {"name": "Rovensko pod Troskami", "lat": 50.53532, "lng": 15.25941, "population": 1267}, {"name": "Jaroslavice", "lat": 48.75657, "lng": 16.23351, "population": 1267}, {"name": "Velká Dobrá", "lat": 50.10964, "lng": 14.0698, "population": 1264}, {"name": "Sedliště", "lat": 49.71836, "lng": 18.36869, "population": 1263}, {"name": "Ladná", "lat": 48.80539, "lng": 16.87206, "population": 1261}, {"name": "Trhový Štěpánov", "lat": 49.71147, "lng": 15.01356, "population": 1260}, {"name": "Bernartice", "lat": 49.36889, "lng": 14.38101, "population": 1260}, {"name": "Benešov nad Černou", "lat": 48.7294, "lng": 14.62737, "population": 1259}, {"name": "Bohdíkov", "lat": 50.00996, "lng": 16.90433, "population": 1258}, {"name": "Pecka", "lat": 50.48034, "lng": 15.60822, "population": 1254}, {"name": "Šanov", "lat": 48.80089, "lng": 16.37858, "population": 1253}, {"name": "Černožice", "lat": 50.31863, "lng": 15.87403, "population": 1253}, {"name": "Dlouhá Třebová", "lat": 49.9404, "lng": 16.42329, "population": 1250}, {"name": "Poniklá", "lat": 50.66152, "lng": 15.46329, "population": 1247}, {"name": "Leština", "lat": 49.86879, "lng": 16.92748, "population": 1246}, {"name": "Staré Křečany", "lat": 50.95044, "lng": 14.49617, "population": 1244}, {"name": "Chvalšiny", "lat": 48.85401, "lng": 14.21114, "population": 1244}, {"name": "Jaroměřice", "lat": 49.62556, "lng": 16.75185, "population": 1242}, {"name": "Manětín", "lat": 49.99177, "lng": 13.23319, "population": 1240}, {"name": "Hostomice", "lat": 50.5877, "lng": 13.80803, "population": 1240}, {"name": "Potštát", "lat": 49.63693, "lng": 17.65174, "population": 1237}, {"name": "Petrov nad Desnou", "lat": 50.00581, "lng": 17.04413, "population": 1237}, {"name": "Nové Veselí", "lat": 49.51976, "lng": 15.90853, "population": 1236}, {"name": "Doloplazy", "lat": 49.56876, "lng": 17.41393, "population": 1235}, {"name": "Dolní Dvořiště", "lat": 48.65642, "lng": 14.45221, "population": 1235}, {"name": "Blížkovice", "lat": 48.99976, "lng": 15.83482, "population": 1235}, {"name": "Čejč", "lat": 48.94653, "lng": 16.96511, "population": 1232}, {"name": "Strunkovice nad Blanicí", "lat": 49.08402, "lng": 14.05522, "population": 1230}, {"name": "Nosislav", "lat": 49.0138, "lng": 16.65431, "population": 1230}, {"name": "Krumvíř", "lat": 48.98901, "lng": 16.91027, "population": 1230}, {"name": "Kačice", "lat": 50.16261, "lng": 13.98815, "population": 1226}, {"name": "Vladislav", "lat": 49.21017, "lng": 15.9883, "population": 1225}, {"name": "Velešovice", "lat": 49.17916, "lng": 16.84914, "population": 1225}, {"name": "Provodov-Šonov", "lat": 50.38711, "lng": 16.10797, "population": 1225}, {"name": "Stachy", "lat": 49.10179, "lng": 13.66659, "population": 1222}, {"name": "Tasovice", "lat": 48.8361, "lng": 16.15558, "population": 1221}, {"name": "Sedlice", "lat": 48.77401, "lng": 14.39115, "population": 1220}, {"name": "Hudlice", "lat": 49.96096, "lng": 13.97063, "population": 1220}, {"name": "Březno", "lat": 50.40185, "lng": 13.42118, "population": 1220}, {"name": "Staré Hradiště", "lat": 50.0654, "lng": 15.77885, "population": 1219}, {"name": "Sedlice", "lat": 49.37715, "lng": 13.93895, "population": 1219}, {"name": "Přemyslovice", "lat": 49.55637, "lng": 16.95581, "population": 1218}, {"name": "Brantice", "lat": 50.06351, "lng": 17.62911, "population": 1215}, {"name": "Město Libavá", "lat": 49.72162, "lng": 17.52013, "population": 1213}, {"name": "Rouchovany", "lat": 49.07036, "lng": 16.1076, "population": 1210}, {"name": "Okrouhlice", "lat": 49.62991, "lng": 15.49083, "population": 1210}, {"name": "Darkovice", "lat": 49.93592, "lng": 18.22213, "population": 1210}, {"name": "Chroustovice", "lat": 49.95553, "lng": 15.99143, "population": 1208}, {"name": "Prusinovice", "lat": 49.37898, "lng": 17.5871, "population": 1207}, {"name": "Jimramov", "lat": 49.63719, "lng": 16.22632, "population": 1207}, {"name": "Sudoměřice", "lat": 48.86723, "lng": 17.25676, "population": 1206}, {"name": "Staré Město", "lat": 49.66992, "lng": 18.36349, "population": 1205}, {"name": "Miřetice", "lat": 49.84126, "lng": 15.88472, "population": 1205}, {"name": "Dolní Žandov", "lat": 50.01794, "lng": 12.55101, "population": 1204}, {"name": "Újezd", "lat": 49.16809, "lng": 17.9061, "population": 1202}, {"name": "Šatov", "lat": 48.79317, "lng": 16.00992, "population": 1200}, {"name": "Dolní Podluží", "lat": 50.87988, "lng": 14.59503, "population": 1199}, {"name": "Poříčany", "lat": 50.10806, "lng": 14.91818, "population": 1197}, {"name": "Lipovec", "lat": 49.38394, "lng": 16.80583, "population": 1195}, {"name": "Kunčina", "lat": 49.79455, "lng": 16.62763, "population": 1191}, {"name": "Radonice", "lat": 50.29803, "lng": 13.28464, "population": 1190}, {"name": "Pozlovice", "lat": 49.12921, "lng": 17.76925, "population": 1189}, {"name": "Hartmanice", "lat": 49.16948, "lng": 13.45455, "population": 1189}, {"name": "Úsov", "lat": 49.79831, "lng": 17.01055, "population": 1186}, {"name": "Sudkov", "lat": 49.91903, "lng": 16.94516, "population": 1185}, {"name": "Moravičany", "lat": 49.75694, "lng": 16.96042, "population": 1184}, {"name": "Hrabyně", "lat": 49.88249, "lng": 18.05483, "population": 1184}, {"name": "Žďár", "lat": 50.54366, "lng": 15.08034, "population": 1181}, {"name": "Lučina", "lat": 49.72082, "lng": 18.44776, "population": 1181}, {"name": "Polepy", "lat": 50.50563, "lng": 14.26447, "population": 1178}, {"name": "Obecnice", "lat": 49.71615, "lng": 13.94731, "population": 1174}, {"name": "Štítina", "lat": 49.91487, "lng": 18.01245, "population": 1173}, {"name": "Dolní Cerekev", "lat": 49.34449, "lng": 15.45655, "population": 1173}, {"name": "Braňany", "lat": 50.54295, "lng": 13.70017, "population": 1172}, {"name": "Byšice", "lat": 50.31044, "lng": 14.61136, "population": 1170}, {"name": "Zátor", "lat": 50.03413, "lng": 17.59296, "population": 1169}, {"name": "Mistřice", "lat": 49.08668, "lng": 17.53597, "population": 1169}, {"name": "Hroznová Lhota", "lat": 48.90784, "lng": 17.41697, "population": 1168}, {"name": "Budišov", "lat": 49.27138, "lng": 16.00383, "population": 1168}, {"name": "Herink", "lat": 49.96686, "lng": 14.57491, "population": 1167}, {"name": "Paseka", "lat": 49.79644, "lng": 17.22276, "population": 1162}, {"name": "Novosedly", "lat": 48.83704, "lng": 16.49273, "population": 1162}, {"name": "Jevišovice", "lat": 48.98736, "lng": 15.98992, "population": 1162}, {"name": "Tvarožná", "lat": 49.19177, "lng": 16.77146, "population": 1159}, {"name": "Osek", "lat": 49.77594, "lng": 13.5906, "population": 1159}, {"name": "Stará Huť", "lat": 49.78225, "lng": 14.19735, "population": 1158}, {"name": "Borek", "lat": 49.02339, "lng": 14.50088, "population": 1157}, {"name": "Doksy", "lat": 50.119, "lng": 14.04782, "population": 1156}, {"name": "Těšany", "lat": 49.03956, "lng": 16.77003, "population": 1155}, {"name": "Bedihošť", "lat": 49.44826, "lng": 17.16643, "population": 1153}, {"name": "Želiv", "lat": 49.52984, "lng": 15.22181, "population": 1152}, {"name": "Nalžovské Hory", "lat": 49.33097, "lng": 13.54481, "population": 1152}, {"name": "Nesovice", "lat": 49.15111, "lng": 17.08095, "population": 1152}, {"name": "Bechlín", "lat": 50.41615, "lng": 14.34092, "population": 1150}, {"name": "Radonice", "lat": 50.14306, "lng": 14.61026, "population": 1148}, {"name": "Mrákov", "lat": 49.40314, "lng": 12.9512, "population": 1144}, {"name": "Dolní Životice", "lat": 49.89732, "lng": 17.77969, "population": 1143}, {"name": "Skrbeň", "lat": 49.64115, "lng": 17.1765, "population": 1142}, {"name": "Benecko", "lat": 50.66633, "lng": 15.54816, "population": 1142}, {"name": "Horní Počaply", "lat": 50.4244, "lng": 14.38993, "population": 1141}, {"name": "Dubné", "lat": 48.97619, "lng": 14.36038, "population": 1141}, {"name": "Kout na Šumavě", "lat": 49.40255, "lng": 13.00208, "population": 1140}, {"name": "Traplice", "lat": 49.13088, "lng": 17.43622, "population": 1139}, {"name": "Moutnice", "lat": 49.04924, "lng": 16.73741, "population": 1139}, {"name": "Višňové", "lat": 48.98241, "lng": 16.15025, "population": 1138}, {"name": "Lomnice", "lat": 50.21174, "lng": 12.63267, "population": 1138}, {"name": "Drásov", "lat": 49.33183, "lng": 16.47798, "population": 1138}, {"name": "Dolní Újezd", "lat": 49.54597, "lng": 17.53547, "population": 1138}, {"name": "Samotíšky", "lat": 49.63042, "lng": 17.32807, "population": 1137}, {"name": "Osoblaha", "lat": 50.27517, "lng": 17.71523, "population": 1136}, {"name": "Březnice", "lat": 49.18643, "lng": 17.66277, "population": 1136}, {"name": "Malonty", "lat": 48.68611, "lng": 14.57678, "population": 1135}, {"name": "Lipůvka", "lat": 49.33933, "lng": 16.55313, "population": 1135}, {"name": "Mníšek", "lat": 50.83163, "lng": 15.0563, "population": 1133}, {"name": "Vintířov", "lat": 50.23382, "lng": 12.71748, "population": 1132}, {"name": "Řehlovice", "lat": 50.60712, "lng": 13.95412, "population": 1129}, {"name": "Postřekov", "lat": 49.45827, "lng": 12.80678, "population": 1129},