[{"name": "Asmara", "lat": 15.33805, "lng": 38.93184, "population": 563930}, {"name": "Keren", "lat": 15.77792, "lng": 38.45107, "population": 74800}, {"name": "Himora", "lat": 14.30427, "lng": 36.60601, "population": 46100}, {"name": "Massawa", "lat": 15.60811, "lng": 39.47455, "population": 23100}, {"name": "Assab", "lat": 13.00917, "lng": 42.73944, "population": 21300}, {"name": "Mendefera", "lat": 14.88722, "lng": 38.81528, "population": 17781}, {"name": "Barentu", "lat": 15.10582, "lng": 37.59067, "population": 15891}, {"name": "Adi Keyh", "lat": 14.84444, "lng": 39.37722, "population": 13061}, {"name": "Edd", "lat": 13.93088, "lng": 41.6938, "population": 11259}, {"name": "Dek’emhāre", "lat": 15.07, "lng": 39.0475, "population": 10959}, {"name": "Ak’ordat", "lat": 15.54798, "lng": 37.88291, "population": 8857}, {"name": "Dbarwa", "lat": 15.09683, "lng": 38.83331, "population": 4902}, {"name": "Āreza", "lat": 14.92694, "lng": 38.56583, "population": 4774}, {"name": "Teseney", "lat": 15.11, "lng": 36.6575, "population": 3753}, {"name": "Dehalak’ Kebīr", "lat": 15.68333, "lng": 40.01667, "population": 2500}, {"name": "Badme", "lat": 14.7275, "lng": 37.80306, "population": 1563}, {"name": "Mai-Mne", "lat": 14.55438, "lng": 38.50292, "population": 0}]