[{"name": "Paris", "lat": 48.85341, "lng": 2.3488, "population": 2138551}, {"name": "Marseille", "lat": 43.29695, "lng": 5.38107, "population": 877215}, {"name": "Lyon", "lat": 45.74906, "lng": 4.84789, "population": 520774}, {"name": "Toulouse", "lat": 43.60426, "lng": 1.44367, "population": 511684}, {"name": "Nice", "lat": 43.70313, "lng": 7.26608, "population": 342669}, {"name": "Nantes", "lat": 47.21725, "lng": -1.55336, "population": 325070}, {"name": "Marne La Vallée", "lat": 48.83584, "lng": 2.64241, "population": 318325}, {"name": "Strasbourg", "lat": 48.58392, "lng": 7.74553, "population": 274845}, {"name": "Bordeaux", "lat": 44.84124, "lng": -0.58046, "population": 265328}, {"name": "Montpellier", "lat": 43.61093, "lng": 3.87635, "population": 248252}, {"name": "Lille", "lat": 50.63391, "lng": 3.05512, "population": 238695}, {"name": "Rennes", "lat": 48.11109, "lng": -1.67431, "population": 227830}, {"name": "Reims", "lat": 49.26526, "lng": 4.02853, "population": 196565}, {"name": "Le Havre", "lat": 49.49346, "lng": 0.10785, "population": 185972}, {"name": "Cergy-Pontoise", "lat": 49.03894, "lng": 2.07805, "population": 183430}, {"name": "Paris 13e Arrondissement", "lat": 48.8262, "lng": 2.35986, "population": 177833}, {"name": "Saint-Étienne", "lat": 45.43389, "lng": 4.39, "population": 176280}, {"name": "Toulon", "lat": 43.12442, "lng": 5.92836, "population": 168701}, {"name": "Angers", "lat": 47.47156, "lng": -0.55202, "population": 168279}, {"name": "Dijon", "lat": 47.31344, "lng": 5.01391, "population": 159941}, {"name": "Grenoble", "lat": 45.17869, "lng": 5.71479, "population": 158552}, {"name": "Nîmes", "lat": 43.83665, "lng": 4.35788, "population": 148236}, {"name": "Clermont-Ferrand", "lat": 45.77969, "lng": 3.08682, "population": 147865}, {"name": "Aix-en-Provence", "lat": 43.5283, "lng": 5.44973, "population": 146821}, {"name": "Saint-Quentin-en-Yvelines", "lat": 48.77186, "lng": 2.01891, "population": 146598}, {"name": "Brest", "lat": 48.39029, "lng": -4.48628, "population": 144899}, {"name": "Le Mans", "lat": 48.0021, "lng": 0.20251, "population": 144515}, {"name": "Paris 11e Arrondissement", "lat": 48.85834, "lng": 2.37952, "population": 144292}, {"name": "Amiens", "lat": 49.9, "lng": 2.3, "population": 143086}, {"name": "Tours", "lat": 47.39484, "lng": 0.70398, "population": 141621}, {"name": "Limoges", "lat": 45.83362, "lng": 1.24759, "population": 141176}, {"name": "Paris 12e Arrondissement", "lat": 48.83523, "lng": 2.43505, "population": 140311}, {"name": "Villeurbanne", "lat": 45.76601, "lng": 4.8795, "population": 131445}, {"name": "Besançon", "lat": 47.24878, "lng": 6.01815, "population": 128426}, {"name": "Metz", "lat": 49.11911, "lng": 6.17269, "population": 123914}, {"name": "Orléans", "lat": 47.90248, "lng": 1.90407, "population": 116344}, {"name": "Rouen", "lat": 49.44313, "lng": 1.09932, "population": 116331}, {"name": "Mulhouse", "lat": 47.75205, "lng": 7.32866, "population": 111430}, {"name": "Montreuil", "lat": 48.86415, "lng": 2.44322, "population": 111240}, {"name": "Perpignan", "lat": 42.69764, "lng": 2.89541, "population": 110706}, {"name": "Caen", "lat": 49.18585, "lng": -0.35912, "population": 110624}, {"name": "Boulogne-Billancourt", "lat": 48.83545, "lng": 2.24128, "population": 108782}, {"name": "Nancy", "lat": 48.68439, "lng": 6.18496, "population": 105058}, {"name": "Lyon 03", "lat": 45.76124, "lng": 4.85184, "population": 102725}, {"name": "Argenteuil", "lat": 48.94788, "lng": 2.24744, "population": 101475}, {"name": "Roubaix", "lat": 50.69421, "lng": 3.17456, "population": 99507}, {"name": "Tourcoing", "lat": 50.72391, "lng": 3.16117, "population": 99160}, {"name": "Saint-Denis", "lat": 48.93564, "lng": 2.35387, "population": 96128}, {"name": "Avignon", "lat": 43.94834, "lng": 4.80892, "population": 89769}, {"name": "Marseille 13", "lat": 43.31856, "lng": 5.40836, "population": 89316}, {"name": "Asnières-sur-Seine", "lat": 48.91667, "lng": 2.28333, "population": 86742}, {"name": "Nanterre", "lat": 48.89198, "lng": 2.20675, "population": 86719}, {"name": "Lyon 08", "lat": 45.73626, "lng": 4.86866, "population": 86154}, {"name": "Poitiers", "lat": 46.58261, "lng": 0.34348, "population": 85960}, {"name": "Versailles", "lat": 48.80359, "lng": 2.13424, "population": 85416}, {"name": "Courbevoie", "lat": 48.89672, "lng": 2.25666, "population": 85158}, {"name": "Créteil", "lat": 48.79266, "lng": 2.46569, "population": 84833}, {"name": "Paris 10e Arrondissement", "lat": 48.87668, "lng": 2.35904, "population": 83459}, {"name": "Pau", "lat": 43.31117, "lng": -0.35583, "population": 82697}, {"name": "Lyon 07", "lat": 45.74525, "lng": 4.84197, "population": 82573}, {"name": "Colombes", "lat": 48.91882, "lng": 2.25404, "population": 82300}, {"name": "Vitry-sur-Seine", "lat": 48.78716, "lng": 2.40332, "population": 81001}, {"name": "Aulnay-sous-Bois", "lat": 48.93814, "lng": 2.49402, "population": 80615}, {"name": "Marseille 08", "lat": 43.27083, "lng": 5.3821, "population": 78837}, {"name": "Marseille 15", "lat": 43.37224, "lng": 5.35386, "population": 77770}, {"name": "Marseille 09", "lat": 43.25433, "lng": 5.4057, "population": 76868}, {"name": "La Rochelle", "lat": 46.16308, "lng": -1.15222, "population": 76810}, {"name": "Champigny-sur-Marne", "lat": 48.81642, "lng": 2.49366, "population": 76726}, {"name": "Rueil-Malmaison", "lat": 48.8765, "lng": 2.18967, "population": 76616}, {"name": "Antibes", "lat": 43.58127, "lng": 7.12487, "population": 76393}, {"name": "Gare", "lat": 48.83337, "lng": 2.37513, "population": 75580}, {"name": "Saint-Maur-des-Fossés", "lat": 48.79395, "lng": 2.49323, "population": 75402}, {"name": "Cannes", "lat": 43.55135, "lng": 7.01275, "population": 74545}, {"name": "Calais", "lat": 50.95194, "lng": 1.85635, "population": 74433}, {"name": "Béziers", "lat": 43.34122, "lng": 3.21402, "population": 74081}, {"name": "Dunkerque", "lat": 51.0344, "lng": 2.37681, "population": 71287}, {"name": "Aubervilliers", "lat": 48.91667, "lng": 2.38333, "population": 70914}, {"name": "Mérignac", "lat": 44.84247, "lng": -0.64512, "population": 69791}, {"name": "Bourges", "lat": 47.08333, "lng": 2.4, "population": 67987}, {"name": "Saint-Nazaire", "lat": 47.27506, "lng": -2.2179, "population": 67054}, {"name": "Colmar", "lat": 48.08078, "lng": 7.35584, "population": 65405}, {"name": "Maison Blanche", "lat": 48.82586, "lng": 2.3508, "population": 64302}, {"name": "Valence", "lat": 44.9256, "lng": 4.90956, "population": 63864}, {"name": "Quimper", "lat": 47.99597, "lng": -4.09795, "population": 63849}, {"name": "Drancy", "lat": 48.92578, "lng": 2.44533, "population": 62488}, {"name": "Noisy-le-Grand", "lat": 48.84979, "lng": 2.56266, "population": 62420}, {"name": "Villeneuve-d'Ascq", "lat": 50.61669, "lng": 3.16664, "population": 62400}, {"name": "La Seyne-sur-Mer", "lat": 43.10322, "lng": 5.87816, "population": 62330}, {"name": "Levallois-Perret", "lat": 48.89389, "lng": 2.28864, "population": 62178}, {"name": "Marseille 14", "lat": 43.34447, "lng": 5.38004, "population": 61920}, {"name": "Picpus", "lat": 48.84258, "lng": 2.40014, "population": 61920}, {"name": "Chambéry", "lat": 45.56628, "lng": 5.92079, "population": 61640}, {"name": "Issy-les-Moulineaux", "lat": 48.82104, "lng": 2.27718, "population": 61447}, {"name": "Neuilly-sur-Seine", "lat": 48.8846, "lng": 2.26965, "population": 61300}, {"name": "Troyes", "lat": 48.30073, "lng": 4.08524, "population": 60785}, {"name": "Antony", "lat": 48.75329, "lng": 2.29668, "population": 59845}, {"name": "La Roche-sur-Yon", "lat": 46.66974, "lng": -1.42757, "population": 59410}, {"name": "Marseille 12", "lat": 43.29614, "lng": 5.43617, "population": 58734}, {"name": "Lorient", "lat": 47.74817, "lng": -3.37177, "population": 58112}, {"name": "Sarcelles", "lat": 48.99739, "lng": 2.37821, "population": 57979}, {"name": "Pessac", "lat": 44.80565, "lng": -0.6324, "population": 57944}, {"name": "Ivry-sur-Seine", "lat": 48.81568, "lng": 2.38487, "population": 57897}, {"name": "Évreux", "lat": 49.02414, "lng": 1.15082, "population": 57795}, {"name": "Vénissieux", "lat": 45.69706, "lng": 4.88593, "population": 57584}, {"name": "Cergy", "lat": 49.03645, "lng": 2.07613, "population": 57576}, {"name": "Clichy", "lat": 48.90018, "lng": 2.30952, "population": 57467}, {"name": "Marseille 11", "lat": 43.2907, "lng": 5.4384, "population": 56792}, {"name": "Saint-Quentin", "lat": 49.84889, "lng": 3.28757, "population": 55407}, {"name": "Niort", "lat": 46.32313, "lng": -0.45877, "population": 54660}, {"name": "Belfort", "lat": 47.64218, "lng": 6.85385, "population": 54562}, {"name": "Ajaccio", "lat": 41.91886, "lng": 8.73812, "population": 54364}, {"name": "Vannes", "lat": 47.65688, "lng": -2.76205, "population": 54020}, {"name": "Sartrouville", "lat": 48.9482, "lng": 2.19169, "population": 53980}, {"name": "Maisons-Alfort", "lat": 48.81171, "lng": 2.43945, "population": 53964}, {"name": "Meaux", "lat": 48.96014, "lng": 2.87885, "population": 53811}, {"name": "Blois", "lat": 47.59432, "lng": 1.32912, "population": 53660}, {"name": "Brive-la-Gaillarde", "lat": 45.1589, "lng": 1.53326, "population": 53466}, {"name": "Arles", "lat": 43.67681, "lng": 4.63031, "population": 53431}, {"name": "Beauvais", "lat": 49.43333, "lng": 2.08333, "population": 53393}, {"name": "Châteauroux", "lat": 46.81248, "lng": 1.69362, "population": 53301}, {"name": "Cholet", "lat": 47.05893, "lng": -0.87974, "population": 53160}, {"name": "Fréjus", "lat": 43.43325, "lng": 6.73555, "population": 53098}, {"name": "Pantin", "lat": 48.89437, "lng": 2.40935, "population": 52922}, {"name": "Lyon 06", "lat": 45.76788, "lng": 4.85064, "population": 52862}, {"name": "Saint-Brieuc", "lat": 48.51513, "lng": -2.76838, "population": 52774}, {"name": "Montauban", "lat": 44.01759, "lng": 1.3542, "population": 52434}, {"name": "Charleville-Mézières", "lat": 49.7685, "lng": 4.72487, "population": 52415}, {"name": "Albi", "lat": 43.9298, "lng": 2.148, "population": 52409}, {"name": "Tarbes", "lat": 43.23407, "lng": 0.07139, "population": 52106}, {"name": "Fontenay-sous-Bois", "lat": 48.85442, "lng": 2.48268, "population": 52075}, {"name": "Lyon 09", "lat": 45.77255, "lng": 4.80326, "population": 51983}, {"name": "Évry", "lat": 48.6328, "lng": 2.44049, "population": 51900}, {"name": "Clamart", "lat": 48.80299, "lng": 2.26692, "population": 51400}, {"name": "Marseille 10", "lat": 43.27889, "lng": 5.41523, "population": 51299}, {"name": "Châlons-en-Champagne", "lat": 48.95393, "lng": 4.36724, "population": 51257}, {"name": "Narbonne", "lat": 43.18396, "lng": 3.00141, "population": 50776}, {"name": "Saint-Malo", "lat": 48.64738, "lng": -2.00877, "population": 50676}, {"name": "Laval", "lat": 48.07247, "lng": -0.77019, "population": 50489}, {"name": "Hyères", "lat": 43.12038, "lng": 6.12857, "population": 50487}, {"name": "Lyon 05", "lat": 45.76106, "lng": 4.82677, "population": 49664}, {"name": "Carcassonne", "lat": 43.21649, "lng": 2.34863, "population": 49600}, {"name": "Angoulême", "lat": 45.64997, "lng": 0.15345, "population": 49468}, {"name": "Annecy", "lat": 45.90878, "lng": 6.12565, "population": 49232}, {"name": "Bondy", "lat": 48.9018, "lng": 2.48931, "population": 48268}, {"name": "Le Blanc-Mesnil", "lat": 48.93872, "lng": 2.46138, "population": 48077}, {"name": "Villejuif", "lat": 48.7939, "lng": 2.35992, "population": 48048}, {"name": "Grasse", "lat": 43.65783, "lng": 6.92537, "population": 47581}, {"name": "Sevran", "lat": 48.94472, "lng": 2.52746, "population": 47334}, {"name": "Castres", "lat": 43.60527, "lng": 2.24088, "population": 47275}, {"name": "Chalon-sur-Saône", "lat": 46.78112, "lng": 4.85372, "population": 47251}, {"name": "Marseille 04", "lat": 43.30213, "lng": 5.40141, "population": 47193}, {"name": "Arras", "lat": 50.29301, "lng": 2.78186, "population": 47052}, {"name": "Boulogne-sur-Mer", "lat": 50.72485, "lng": 1.61373, "population": 47013}, {"name": "Chelles", "lat": 48.88109, "lng": 2.59295, "population": 46947}, {"name": "Cagnes-sur-Mer", "lat": 43.66352, "lng": 7.1479, "population": 46923}, {"name": "Saint-Herblain", "lat": 47.21154, "lng": -1.651, "population": 46898}, {"name": "Douai", "lat": 50.37069, "lng": 3.07922, "population": 46531}, {"name": "Épinay-sur-Seine", "lat": 48.9535, "lng": 2.31514, "population": 46145}, {"name": "Vincennes", "lat": 48.8486, "lng": 2.43769, "population": 45923}, {"name": "Roquette", "lat": 48.858, "lng": 2.38147, "population": 45842}, {"name": "Martigues", "lat": 43.40735, "lng": 5.05526, "population": 45749}, {"name": "Marseille 03", "lat": 43.30257, "lng": 5.37583, "population": 45414}, {"name": "Bourg-en-Bresse", "lat": 46.20574, "lng": 5.2258, "population": 45340}, {"name": "Bobigny", "lat": 48.90982, "lng": 2.45012, "population": 44962}, {"name": "Montluçon", "lat": 46.34015, "lng": 2.60254, "population": 44960}, {"name": "Aubagne", "lat": 43.29276, "lng": 5.57067, "population": 44844}, {"name": "Valenciennes", "lat": 50.35909, "lng": 3.52506, "population": 44821}, {"name": "Suresnes", "lat": 48.87143, "lng": 2.22929, "population": 44697}, {"name": "Meudon", "lat": 48.81381, "lng": 2.235, "population": 44652}, {"name": "Marseille 05", "lat": 43.29551, "lng": 5.40055, "population": 44583}, {"name": "Bayonne", "lat": 43.49316, "lng": -1.473, "population": 44396}, {"name": "Istres", "lat": 43.51345, "lng": 4.98747, "population": 44373}, {"name": "Thionville", "lat": 49.35994, "lng": 6.16044, "population": 44311}, {"name": "Mantes-la-Jolie", "lat": 48.99048, "lng": 1.7167, "population": 44263}, {"name": "Compiègne", "lat": 49.41794, "lng": 2.82606, "population": 44243}, {"name": "Nevers", "lat": 46.98956, "lng": 3.159, "population": 43988}, {"name": "Chartres", "lat": 48.44685, "lng": 1.48925, "population": 43838}, {"name": "Marseille 06", "lat": 43.28764, "lng": 5.37918, "population": 43360}, {"name": "Le Cannet", "lat": 43.57662, "lng": 7.01912, "population": 43353}, {"name": "Wattrelos", "lat": 50.70118, "lng": 3.21812, "population": 42826}, {"name": "Caluire-et-Cuire", "lat": 45.79462, "lng": 4.8464, "population": 42763}, {"name": "Gap", "lat": 44.55858, "lng": 6.07868, "population": 42715}, {"name": "Talence", "lat": 44.80849, "lng": -0.58915, "population": 42579}, {"name": "Alès", "lat": 44.12489, "lng": 4.08082, "population": 42410}, {"name": "Gennevilliers", "lat": 48.93333, "lng": 2.3, "population": 42294}, {"name": "Saint-Priest", "lat": 45.69651, "lng": 4.94385, "population": 41641}, {"name": "Rosny-sous-Bois", "lat": 48.87017, "lng": 2.4991, "population": 41627}, {"name": "Auxerre", "lat": 47.7996, "lng": 3.57033, "population": 41516}, {"name": "Salon-de-Provence", "lat": 43.64229, "lng": 5.09478, "population": 41397}, {"name": "Saint-Germain-en-Laye", "lat": 48.89643, "lng": 2.0904, "population": 41142}, {"name": "Bastia", "lat": 42.70219, "lng": 9.45123, "population": 41001}, {"name": "Marseille 01", "lat": 43.29814, "lng": 5.38407, "population": 40919}, {"name": "Sète", "lat": 43.4028, "lng": 3.69278, "population": 40736}, {"name": "Anglet", "lat": 43.48921, "lng": -1.51921, "population": 40658}, {"name": "Puteaux", "lat": 48.88341, "lng": 2.23894, "population": 40646}, {"name": "Corbeil-Essonnes", "lat": 48.60603, "lng": 2.48757, "population": 40527}, {"name": "Garges-lès-Gonesse", "lat": 48.96791, "lng": 2.39781, "population": 39847}, {"name": "Roanne", "lat": 46.03624, "lng": 4.06802, "population": 39840}, {"name": "Savigny-sur-Orge", "lat": 48.67677, "lng": 2.34835, "population": 39698}, {"name": "Livry-Gargan", "lat": 48.9193, "lng": 2.54305, "population": 39518}, {"name": "Épinal", "lat": 48.18324, "lng": 6.45304, "population": 39518}, {"name": "Saint-Ouen", "lat": 48.90654, "lng": 2.33339, "population": 39353}, {"name": "Rezé", "lat": 47.19058, "lng": -1.56885, "population": 39248}, {"name": "Montigny-le-Bretonneux", "lat": 48.76636, "lng": 2.03405, "population": 39063}, {"name": "Noisy-le-Sec", "lat": 48.89148, "lng": 2.46451, "population": 38955}, {"name": "Melun", "lat": 48.5457, "lng": 2.65356, "population": 38953}, {"name": "Bagneux", "lat": 48.79565, "lng": 2.30796, "population": 38900}, {"name": "Massy", "lat": 48.72692, "lng": 2.28301, "population": 38768}, {"name": "Haguenau", "lat": 48.81557, "lng": 7.79051, "population": 38721}, {"name": "Montrouge", "lat": 48.8162, "lng": 2.31393, "population": 38708}, {"name": "Marcq-en-Barœul", "lat": 50.66667, "lng": 3.08333, "population": 38629}, {"name": "Vitrolles", "lat": 43.46, "lng": 5.24861, "population": 38591}, {"name": "Draguignan", "lat": 43.53692, "lng": 6.46458, "population": 38573}, {"name": "Lens", "lat": 50.43302, "lng": 2.82791, "population": 38265}, {"name": "Gagny", "lat": 48.88333, "lng": 2.53333, "population": 38134}, {"name": "Saint-Chamond", "lat": 45.4759, "lng": 4.51294, "population": 38014}, {"name": "Bron", "lat": 45.73865, "lng": 4.91303, "population": 37825}, {"name": "Vaulx-en-Velin", "lat": 45.78693, "lng": 4.9251, "population": 37489}, {"name": "Joué-lès-Tours", "lat": 47.34907, "lng": 0.66513, "population": 37466}, {"name": "Alfortville", "lat": 48.80575, "lng": 2.4204, "population": 37290}, {"name": "La Courneuve", "lat": 48.92805, "lng": 2.39627, "population": 37287}, {"name": "Châtellerault", "lat": 46.81705, "lng": 0.54518, "population": 37210}, {"name": "Villepinte", "lat": 48.96203, "lng": 2.53253, "population": 37114}, {"name": "Cambrai", "lat": 50.17596, "lng": 3.23472, "population": 36492}, {"name": "Poissy", "lat": 48.92902, "lng": 2.04952, "population": 36431}, {"name": "Conflans-Sainte-Honorine", "lat": 49.00158, "lng": 2.09694, "population": 36358}, {"name": "Sainte-Marguerite", "lat": 48.85232, "lng": 2.38932, "population": 36345}, {"name": "Bel-Air", "lat": 48.84169, "lng": 2.40489, "population": 36279}, {"name": "Mont-de-Marsan", "lat": 43.89022, "lng": -0.49713, "population": 36205}, {"name": "Plaisir", "lat": 48.82319, "lng": 1.9541, "population": 36121}, {"name": "Lyon 04", "lat": 45.77507, "lng": 4.82712, "population": 36064}, {"name": "Marseille 07", "lat": 43.28289, "lng": 5.36021, "population": 35981}, {"name": "Marignane", "lat": 43.41727, "lng": 5.21462, "population": 35873}, {"name": "Dieppe", "lat": 49.9216, "lng": 1.07772, "population": 35707}, {"name": "Montélimar", "lat": 44.55468, "lng": 4.75469, "population": 35637}, {"name": "Tremblay-en-France", "lat": 48.94956, "lng": 2.5684, "population": 35591}, {"name": "Choisy-le-Roi", "lat": 48.76846, "lng": 2.41874, "population": 35590}, {"name": "Saint-Martin-d'Hères", "lat": 45.1787, "lng": 5.76281, "population": 35528}, {"name": "Mâcon", "lat": 46.31407, "lng": 4.82823, "population": 35484}, {"name": "Romans-sur-Isère", "lat": 45.0496, "lng": 5.06602, "population": 35002}, {"name": "Saint-Raphaël", "lat": 43.42332, "lng": 6.7735, "population": 34918}, {"name": "Pontault-Combault", "lat": 48.79813, "lng": 2.60676, "population": 34798}, {"name": "Six-Fours-les-Plages", "lat": 43.09174, "lng": 5.82465, "population": 34779}, {"name": "Périgueux", "lat": 45.18691, "lng": 0.71439, "population": 34770}, {"name": "Aurillac", "lat": 44.92539, "lng": 2.43983, "population": 34724}, {"name": "Neuilly-sur-Marne", "lat": 48.85373, "lng": 2.54903, "population": 34465}, {"name": "Liévin", "lat": 50.4198, "lng": 2.78068, "population": 34370}, {"name": "Agen", "lat": 44.20199, "lng": 0.62055, "population": 34367}, {"name": "Franconville", "lat": 48.98333, "lng": 2.23333, "population": 34284}, {"name": "Sainte-Geneviève-des-Bois", "lat": 48.64682, "lng": 2.31965, "population": 33689}, {"name": "Maubeuge", "lat": 50.27875, "lng": 3.97267, "population": 33684}, {"name": "Bagnolet", "lat": 48.86667, "lng": 2.41667, "population": 33504}, {"name": "Saumur", "lat": 47.25931, "lng": -0.07808, "population": 33229}, {"name": "Biarritz", "lat": 43.48055, "lng": -1.55684, "population": 33188}, {"name": "La Ciotat", "lat": 43.17476, "lng": 5.60449, "population": 33113}, {"name": "Échirolles", "lat": 45.14603, "lng": 5.71441, "population": 33088}, {"name": "Villefranche-sur-Saône", "lat": 45.98967, "lng": 4.71961, "population": 32994}, {"name": "Châtenay-Malabry", "lat": 48.76507, "lng": 2.26655, "population": 32715}, {"name": "Stains", "lat": 48.95, "lng": 2.38333, "population": 32601}, {"name": "Châtillon", "lat": 48.8024, "lng": 2.29346, "population": 32383}, {"name": "Vienne", "lat": 45.52569, "lng": 4.87484, "population": 32293}, {"name": "Schiltigheim", "lat": 48.60749, "lng": 7.74931, "population": 32289}, {"name": "Les Mureaux", "lat": 48.99173, "lng": 1.90972, "population": 32134}, {"name": "Le Perreux-sur-Marne", "lat": 48.85, "lng": 2.5, "population": 32015}, {"name": "Guyancourt", "lat": 48.77334, "lng": 2.07393, "population": 31989}, {"name": "Palaiseau", "lat": 48.71828, "lng": 2.2498, "population": 31987}, {"name": "Saint-Dizier", "lat": 48.63773, "lng": 4.94892, "population": 31918}, {"name": "Creil", "lat": 49.25672, "lng": 2.48477, "population": 31863}, {"name": "Vandœuvre-lès-Nancy", "lat": 48.66115, "lng": 6.17114, "population": 31785}, {"name": "Thonon-les-Bains", "lat": 46.37049, "lng": 6.47985, "population": 31684}, {"name": "Béthune", "lat": 50.52965, "lng": 2.64003, "population": 31568}, {"name": "Colomiers", "lat": 43.61058, "lng": 1.33467, "population": 31363}, {"name": "Lyon 02", "lat": 45.75423, "lng": 4.83089, "population": 31303}, {"name": "Folie Méricourt", "lat": 48.86625, "lng": 2.37142, "population": 31299}, {"name": "Nogent-sur-Marne", "lat": 48.83669, "lng": 2.48255, "population": 31236}, {"name": "Athis-Mons", "lat": 48.70522, "lng": 2.39147, "population": 31225}, {"name": "Viry-Châtillon", "lat": 48.67211, "lng": 2.39318, "population": 31131}, {"name": "Houilles", "lat": 48.92161, "lng": 2.19263, "population": 31121}, {"name": "Soissons", "lat": 49.38167, "lng": 3.32361, "population": 31100}, {"name": "Dreux", "lat": 48.73649, "lng": 1.36566, "population": 31058}, {"name": "Charenton-le-Pont", "lat": 48.82209, "lng": 2.41217, "population": 30910}, {"name": "Villeneuve-Saint-Georges", "lat": 48.73219, "lng": 2.44925, "population": 30881}, {"name": "Élancourt", "lat": 48.78421, "lng": 1.9552, "population": 30831}, {"name": "Saint-Ambroise", "lat": 48.86174, "lng": 2.37538, "population": 30802}, {"name": "Alençon", "lat": 48.43476, "lng": 0.09311, "population": 30786}, {"name": "Sotteville-lès-Rouen", "lat": 49.40972, "lng": 1.09005, "population": 30619}, {"name": "Orange", "lat": 44.13806, "lng": 4.81025, "population": 30530}, {"name": "Villenave-d'Ornon", "lat": 44.77935, "lng": -0.56707, "population": 30347}, {"name": "Pontoise", "lat": 49.05, "lng": 2.1, "population": 30290}, {"name": "Villiers-sur-Marne", "lat": 48.831, "lng": 2.54844, "population": 30252}, {"name": "Chatou", "lat": 48.8898, "lng": 2.15863, "population": 30091}, {"name": "Goussainville", "lat": 49.01367, "lng": 2.46595, "population": 30047}, {"name": "Lomme", "lat": 50.64358, "lng": 2.98715, "population": 29892}, {"name": "Vierzon", "lat": 47.22186, "lng": 2.0684, "population": 29876}, {"name": "Saint-Médard-en-Jalles", "lat": 44.8955, "lng": -0.71779, "population": 29742}, {"name": "Thiais", "lat": 48.76496, "lng": 2.3961, "population": 29724}, {"name": "Carpentras", "lat": 44.05507, "lng": 5.04813, "population": 29709}, {"name": "L'Haÿ-les-Roses", "lat": 48.77935, "lng": 2.33729, "population": 29703}, {"name": "Menton", "lat": 43.77649, "lng": 7.50435, "population": 29649}, {"name": "Lyon 01", "lat": 45.76758, "lng": 4.8345, "population": 29641}, {"name": "Saint-Laurent-du-Var", "lat": 43.67323, "lng": 7.19, "population": 29516}, {"name": "Saintes", "lat": 45.74742, "lng": -0.63489, "population": 29512}, {"name": "Rochefort", "lat": 45.94304, "lng": -0.96774, "population": 29427}, {"name": "Malakoff", "lat": 48.81999, "lng": 2.29998, "population": 29420}, {"name": "Draveil", "lat": 48.68466, "lng": 2.41418, "population": 29316}, {"name": "Saint-Leu", "lat": 46.7306, "lng": 4.50083, "population": 29278}, {"name": "Saint-Sébastien-sur-Loire", "lat": 47.20768, "lng": -1.50332, "population": 29238}, {"name": "Le Chesnay", "lat": 48.8222, "lng": 2.12213, "population": 29154}, {"name": "Tournefeuille", "lat": 43.58872, "lng": 1.31922, "population": 29124}, {"name": "Clichy-sous-Bois", "lat": 48.9102, "lng": 2.55323, "population": 29062}, {"name": "Chaumont", "lat": 48.11121, "lng": 5.14134, "population": 28981}, {"name": "Saint-Étienne-du-Rouvray", "lat": 49.37794, "lng": 1.10467, "population": 28953}, {"name": "Meyzieu", "lat": 45.76637, "lng": 5.00277, "population": 28929}, {"name": "Yerres", "lat": 48.71785, "lng": 2.49338, "population": 28897}, {"name": "Montbéliard", "lat": 47.50957, "lng": 6.79823, "population": 28865}, {"name": "Saint-Cloud", "lat": 48.84598, "lng": 2.20289, "population": 28839}, {"name": "Sens", "lat": 48.19738, "lng": 3.28328, "population": 28700}, {"name": "Laon", "lat": 49.5631, "lng": 3.62714, "population": 28688}, {"name": "Lambersart", "lat": 50.65, "lng": 3.03333, "population": 28613}, {"name": "Trappes", "lat": 48.77413, "lng": 2.01781, "population": 28367}, {"name": "Rodez", "lat": 44.35258, "lng": 2.57338, "population": 28337}, {"name": "Bergerac", "lat": 44.85157, "lng": 0.48171, "population": 28317}, {"name": "Annemasse", "lat": 46.19439, "lng": 6.23775, "population": 28275}, {"name": "La Garde", "lat": 43.12468, "lng": 6.01033, "population": 28257}, {"name": "Ermont", "lat": 48.99004, "lng": 2.25804, "population": 28117}, {"name": "Rillieux-la-Pape", "lat": 45.81667, "lng": 4.9, "population": 28076}, {"name": "Villemomble", "lat": 48.88333, "lng": 2.5, "population": 28001}, {"name": "Pierrefitte-sur-Seine", "lat": 48.96691, "lng": 2.36104, "population": 27914}, {"name": "Le Kremlin-Bicêtre", "lat": 48.81471, "lng": 2.36073, "population": 27867}, {"name": "Champs-sur-Marne", "lat": 48.85, "lng": 2.6, "population": 27776}, {"name": "Aix-les-Bains", "lat": 45.69173, "lng": 5.90863, "population": 27651}, {"name": "Bezons", "lat": 48.92426, "lng": 2.2128, "population": 27570}, {"name": "Vallauris", "lat": 43.57803, "lng": 7.05451, "population": 27286}, {"name": "Taverny", "lat": 49.02542, "lng": 2.21691, "population": 27271}, {"name": "Illkirch-Graffenstaden", "lat": 48.52894, "lng": 7.71523, "population": 27261}, {"name": "La Teste-de-Buch", "lat": 44.63278, "lng": -1.14513, "population": 27253}, {"name": "Épernay", "lat": 49.04, "lng": 3.95922, "population": 27082}, {"name": "Villiers-le-Bel", "lat": 49.00875, "lng": 2.39819, "population": 27028}, {"name": "Vichy", "lat": 46.12709, "lng": 3.42577, "population": 27019}, {"name": "Hôpital Saint-Louis", "lat": 48.8772, "lng": 2.36689, "population": 26926}, {"name": "Sannois", "lat": 48.96667, "lng": 2.25, "population": 26869}, {"name": "Gonesse", "lat": 48.98693, "lng": 2.44892, "population": 26758}, {"name": "Vigneux-sur-Seine", "lat": 48.70291, "lng": 2.41357, "population": 26692}, {"name": "Cavaillon", "lat": 43.83125, "lng": 5.03586, "population": 26689}, {"name": "Rambouillet", "lat": 48.64374, "lng": 1.82992, "population": 26674}, {"name": "Cherbourg", "lat": 49.63984, "lng": -1.61636, "population": 26655}, {"name": "Armentières", "lat": 50.68568, "lng": 2.88214, "population": 26646}, {"name": "Lunel", "lat": 43.67778, "lng": 4.13611, "population": 26588}, {"name": "Cachan", "lat": 48.79632, "lng": 2.33661, "population": 26540}, {"name": "Le Grand-Quevilly", "lat": 49.40076, "lng": 1.04582, "population": 26522}, {"name": "Abbeville", "lat": 50.10521, "lng": 1.83547, "population": 26461}, {"name": "La Garenne-Colombes", "lat": 48.90472, "lng": 2.2469, "population": 26385}, {"name": "Montigny-lès-Metz", "lat": 49.0956, "lng": 6.15271, "population": 26369}, {"name": "Quinze-Vingts", "lat": 48.84656, "lng": 2.37439, "population": 26265}, {"name": "Vanves", "lat": 48.82345, "lng": 2.29025, "population": 26068}, {"name": "Vernon", "lat": 49.09292, "lng": 1.46332, "population": 26037}, {"name": "Savigny-le-Temple", "lat": 48.57409, "lng": 2.58287, "population": 25925}, {"name": "Dole", "lat": 47.09225, "lng": 5.48966, "population": 25878}, {"name": "Villeneuve-sur-Lot", "lat": 44.40854, "lng": 0.70415, "population": 25869}, {"name": "Les Ulis", "lat": 48.68167, "lng": 2.16944, "population": 25785}, {"name": "Marseille 02", "lat": 43.29664, "lng": 5.37034, "population": 25779}, {"name": "Oyonnax", "lat": 46.25917, "lng": 5.65727, "population": 25697}, {"name": "Oullins", "lat": 45.71404, "lng": 4.80755, "population": 25592}, {"name": "Le Creusot", "lat": 46.80714, "lng": 4.41632, "population": 25590}, {"name": "Hénin-Beaumont", "lat": 50.41359, "lng": 2.96485, "population": 25371}, {"name": "Orvault", "lat": 47.27117, "lng": -1.62361, "population": 25338}, {"name": "Coudekerque-Branche", "lat": 51.02288, "lng": 2.39359, "population": 25201}, {"name": "Herblay-sur-Seine", "lat": 48.98994, "lng": 2.1699, "population": 25153}, {"name": "Ris-Orangis", "lat": 48.6511, "lng": 2.41406, "population": 25082}, {"name": "Sucy-en-Brie", "lat": 48.76872, "lng": 2.53474, "population": 25014}, {"name": "Grigny", "lat": 48.65412, "lng": 2.39343, "population": 24940}, {"name": "Fresnes", "lat": 48.75568, "lng": 2.32241, "population": 24803}, {"name": "Romainville", "lat": 48.8854, "lng": 2.43482, "population": 24772}, {"name": "Fontenay-aux-Roses", "lat": 48.79325, "lng": 2.29275, "population": 24680}, {"name": "Décines-Charpieu", "lat": 45.76873, "lng": 4.95883, "population": 24674}, {"name": "Saint-Dié-des-Vosges", "lat": 48.28429, "lng": 6.94921, "population": 24628}, {"name": "Fontaine", "lat": 45.19275, "lng": 5.68821, "population": 24588}, {"name": "Auch", "lat": 43.64561, "lng": 0.58856, "population": 24494}, {"name": "Bruay-la-Buissière", "lat": 50.48333, "lng": 2.55, "population": 24474}, {"name": "Lisieux", "lat": 49.1466, "lng": 0.22925, "population": 24473}, {"name": "Sarreguemines", "lat": 49.10995, "lng": 7.06747, "population": 24446}, {"name": "Torcy", "lat": 48.85064, "lng": 2.65078, "population": 24386}, {"name": "Gradignan", "lat": 44.77362, "lng": -0.61395, "population": 24385}, {"name": "Lanester", "lat": 47.76316, "lng": -3.3393, "population": 24352}, {"name": "Brétigny-sur-Orge", "lat": 48.61135, "lng": 2.30593, "population": 24317}, {"name": "Muret", "lat": 43.45998, "lng": 1.32541, "population": 24313}, {"name": "Bois-Colombes", "lat": 48.91936, "lng": 2.27485, "population": 24300}, {"name": "Blagnac", "lat": 43.63675, "lng": 1.38971, "population": 24263}, {"name": "Hérouville-Saint-Clair", "lat": 49.21088, "lng": -0.30653, "population": 24258}, {"name": "Libourne", "lat": 44.91449, "lng": -0.24186, "population": 24240}, {"name": "Le Bouscat", "lat": 44.86488, "lng": -0.59864, "population": 24232}, {"name": "Miramas", "lat": 43.58508, "lng": 5.00268, "population": 24173}, {"name": "Beaune", "lat": 47.02413, "lng": 4.83887, "population": 24162}, {"name": "Eaubonne", "lat": 48.99712, "lng": 2.28249, "population": 24096}, {"name": "Brunoy", "lat": 48.6942, "lng": 2.49223, "population": 24096}, {"name": "Villeparisis", "lat": 48.94208, "lng": 2.61463, "population": 23931}, {"name": "Montfermeil", "lat": 48.8982, "lng": 2.57913, "population": 23829}, {"name": "Sèvres", "lat": 48.82292, "lng": 2.21757, "population": 23724}, {"name": "Fougères", "lat": 48.35157, "lng": -1.19961, "population": 23719}, {"name": "Saint-Pol-sur-Mer", "lat": 51.03116, "lng": 2.33983, "population": 23635}, {"name": "La Madeleine", "lat": 50.64603, "lng": 3.07585, "population": 23572}, {"name": "Gif-sur-Yvette", "lat": 48.68333, "lng": 2.13333, "population": 23541}, {"name": "Bègles", "lat": 44.80759, "lng": -0.55144, "population": 23504}, {"name": "Cahors", "lat": 44.4491, "lng": 1.43663, "population": 23331}, {"name": "Millau", "lat": 44.09973, "lng": 3.07848, "population": 23307}, {"name": "Hazebrouck", "lat": 50.72374, "lng": 2.53729, "population": 23307}, {"name": "Grande-Synthe", "lat": 51.0154, "lng": 2.29975, "population": 23213}, {"name": "La Valette-du-Var", "lat": 43.13763, "lng": 5.98317, "population": 23134}, {"name": "Moulins", "lat": 46.56459, "lng": 3.33243, "population": 23095}, {"name": "Mont-Saint-Aignan", "lat": 49.46307, "lng": 1.09364, "population": 23078}, {"name": "Étampes", "lat": 48.43507, "lng": 2.16233, "population": 23012}, {"name": "Mons-en-Barœul", "lat": 50.63333, "lng": 3.11667, "population": 23006}, {"name": "Agde", "lat": 43.31083, "lng": 3.47583, "population": 23001}, {"name": "Saint-Ouen-l'Aumône", "lat": 49.04353, "lng": 2.12134, "population": 22977}, {"name": "Vertou", "lat": 47.16878, "lng": -1.4729, "population": 22921}, {"name": "Montgeron", "lat": 48.70543, "lng": 2.45039, "population": 22843}, {"name": "Maisons-Laffitte", "lat": 48.95264, "lng": 2.14521, "population": 22772}, {"name": "Le Puy-en-Velay", "lat": 45.04366, "lng": 3.88523, "population": 22718}, {"name": "Le Petit-Quevilly", "lat": 49.41338, "lng": 1.06155, "population": 22691}, {"name": "Lormont", "lat": 44.8765, "lng": -0.51919, "population": 22636}, {"name": "Olivet", "lat": 47.86219, "lng": 1.8991, "population": 22604}, {"name": "Ozoir-la-Ferrière", "lat": 48.76699, "lng": 2.66871, "population": 22530}, {"name": "Le Plessis-Robinson", "lat": 48.78889, "lng": 2.27078, "population": 22510}, {"name": "Cenon", "lat": 44.85614, "lng": -0.53355, "population": 22393}, {"name": "Combs-la-Ville", "lat": 48.66497, "lng": 2.56957, "population": 22322}, {"name": "Dax", "lat": 43.71032, "lng": -1.05366, "population": 22305}, {"name": "Frontignan", "lat": 43.44775, "lng": 3.75524, "population": 22251}, {"name": "Voiron", "lat": 45.36471, "lng": 5.5856, "population": 22114}, {"name": "Loos", "lat": 50.60982, "lng": 3.01874, "population": 22107}, {"name": "Le Mée-sur-Seine", "lat": 48.53157, "lng": 2.62829, "population": 22058}, {"name": "Villeneuve-la-Garenne", "lat": 48.93935, "lng": 2.31478, "population": 22036}, {"name": "Fécamp", "lat": 49.75787, "lng": 0.37457, "population": 22003}, {"name": "Cormeilles-en-Parisis", "lat": 48.97111, "lng": 2.20491, "population": 21973}, {"name": "Sainte-Foy-lès-Lyon", "lat": 45.73375, "lng": 4.80259, "population": 21893}, {"name": "Verdun", "lat": 49.15964, "lng": 5.3829, "population": 21798}, {"name": "Vélizy-Villacoublay", "lat": 48.78198, "lng": 2.19395, "population": 21741}, {"name": "Saint-Lô", "lat": 49.11624, "lng": -1.09031, "population": 21722}, {"name": "Achères", "lat": 48.96115, "lng": 2.06882, "population": 21660}, {"name": "Lunéville", "lat": 48.59273, "lng": 6.49383, "population": 21582}, {"name": "Deuil-la-Barre", "lat": 48.97674, "lng": 2.32722, "population": 21560}, {"name": "La Celle-Saint-Cloud", "lat": 48.85029, "lng": 2.14523, "population": 21539}, {"name": "Annecy-le-Vieux", "lat": 45.91971, "lng": 6.14393, "population": 21521}, {"name": "Sceaux", "lat": 48.77644, "lng": 2.29026, "population": 21511}, {"name": "Lannion", "lat": 48.73264, "lng": -3.45657, "population": 21473}, {"name": "Denain", "lat": 50.3293, "lng": 3.3943, "population": 21412}, {"name": "Allauch", "lat": 43.33573, "lng": 5.48201, "population": 21406}, {"name": "Concarneau", "lat": 47.87536, "lng": -3.91896, "population": 21397}, {"name": "Eysines", "lat": 44.88442, "lng": -0.65141, "population": 21394}, {"name": "Croix", "lat": 50.67846, "lng": 3.1493, "population": 21361}, {"name": "Forbach", "lat": 49.18848, "lng": 6.89255, "population": 21358}, {"name": "Manosque", "lat": 43.82883, "lng": 5.78688, "population": 21351}, {"name": "Saint-Mandé", "lat": 48.83864, "lng": 2.41579, "population": 21261}, {"name": "Plaine du Var", "lat": 43.68248, "lng": 7.20179, "population": 21228}, {"name": "Montmorency", "lat": 48.98826, "lng": 2.3434, "population": 21156}, {"name": "Porte Saint-Martin", "lat": 48.87153, "lng": 2.36015, "population": 21154}, {"name": "Gardanne", "lat": 43.45491, "lng": 5.46913, "population": 21140}, {"name": "Les Lilas", "lat": 48.87992, "lng": 2.42057, "population": 21124}, {"name": "Fleury-les-Aubrais", "lat": 47.93328, "lng": 1.91811, "population": 21085}, {"name": "Dammarie-les-Lys", "lat": 48.51667, "lng": 2.65, "population": 21066}, {"name": "Roissy-en-Brie", "lat": 48.79159, "lng": 2.64747, "population": 20933}, {"name": "Saint-Genis-Laval", "lat": 45.69542, "lng": 4.79316, "population": 20883}, {"name": "Saint-Louis", "lat": 47.59206, "lng": 7.55923, "population": 20871}, {"name": "Cognac", "lat": 45.69581, "lng": -0.32867, "population": 20868}, {"name": "Saint-Michel-sur-Orge", "lat": 48.63479, "lng": 2.30831, "population": 20824}, {"name": "Longjumeau", "lat": 48.69307, "lng": 2.29431, "population": 20771}, {"name": "Bressuire", "lat": 46.84158, "lng": -0.49042, "population": 20743}, {"name": "Vauréal", "lat": 49.03333, "lng": 2.03333, "population": 20699}, {"name": "Lons-le-Saunier", "lat": 46.67535, "lng": 5.55575, "population": 20678}, {"name": "Ploemeur", "lat": 47.73512, "lng": -3.42952, "population": 20652}, {"name": "Lagny-sur-Marne", "lat": 48.86667, "lng": 2.71667, "population": 20649}, {"name": "Sedan", "lat": 49.70187, "lng": 4.94028, "population": 20620}, {"name": "Orly", "lat": 48.74792, "lng": 2.39253, "population": 20528}, {"name": "Saint-Vincent de Paul", "lat": 48.88075, "lng": 2.35513, "population": 20336}, {"name": "Pontarlier", "lat": 46.90347, "lng": 6.35542, "population": 20313}, {"name": "Chamalières", "lat": 45.77364, "lng": 3.06703, "population": 20298}, {"name": "Meylan", "lat": 45.20978, "lng": 5.77762, "population": 20267}, {"name": "Montceau-les-Mines", "lat": 46.66667, "lng": 4.36667, "population": 20221}, {"name": "Halluin", "lat": 50.78628, "lng": 3.12611, "population": 20171}, {"name": "Riom", "lat": 45.89362, "lng": 3.11264, "population": 20142}, {"name": "Chevilly-Larue", "lat": 48.76476, "lng": 2.3503, "population": 20125}, {"name": "Croulebarbe", "lat": 48.81003, "lng": 2.35403, "population": 20062}, {"name": "La Defense", "lat": 48.89198, "lng": 2.23881, "population": 20000}, {"name": "Sainte-Marguerite", "lat": 43.26196, "lng": 5.40125, "population": 19997}, {"name": "Romorantin-Lanthenay", "lat": 47.36667, "lng": 1.75, "population": 19953}, {"name": "Mantes-la-Ville", "lat": 48.97374, "lng": 1.70253, "population": 19947}, {"name": "Pertuis", "lat": 43.69415, "lng": 5.50291, "population": 19926}, {"name": "Morsang-sur-Orge", "lat": 48.66181, "lng": 2.35338, "population": 19917}, {"name": "Vesoul", "lat": 47.62604, "lng": 6.14251, "population": 19892}, {"name": "Saint-Jean-de-Braye", "lat": 47.91303, "lng": 1.97705, "population": 19874}, {"name": "Les Pennes-Mirabeau", "lat": 43.41012, "lng": 5.30838, "population": 19871}, {"name": "Cluses", "lat": 46.06251, "lng": 6.57497, "population": 19789}, {"name": "Bourg-lès-Valence", "lat": 44.94703, "lng": 4.89463, "population": 19770}, {"name": "Villefontaine", "lat": 45.61278, "lng": 5.15058, "population": 19749}, {"name": "Saint-Gratien", "lat": 48.9735, "lng": 2.28729, "population": 19737}, {"name": "Les Pavillons-sous-Bois", "lat": 48.90683, "lng": 2.50648, "population": 19730}, {"name": "Fontainebleau", "lat": 48.40908, "lng": 2.70177, "population": 19717}, {"name": "Hem", "lat": 50.65256, "lng": 3.18681, "population": 19699}, {"name": "Nogent-sur-Oise", "lat": 49.27158, "lng": 2.47074, "population": 19690}, {"name": "Bagnols-sur-Cèze", "lat": 44.16259, "lng": 4.61974, "population": 19640}, {"name": "Couëron", "lat": 47.21473, "lng": -1.72452, "population": 19466}, {"name": "Écully", "lat": 45.77437, "lng": 4.77758, "population": 19437}, {"name": "Cran-Gevrier", "lat": 45.9, "lng": 6.1, "population": 19354}, {"name": "Wasquehal", "lat": 50.67043, "lng": 3.13382, "population": 19320}, {"name": "Mandelieu-la-Napoule", "lat": 43.54577, "lng": 6.93734, "population": 19292}, {"name": "Vendôme", "lat": 47.79292, "lng": 1.06556, "population": 19226}, {"name": "Louviers", "lat": 49.21667, "lng": 1.16667, "population": 19220}, {"name": "Gujan-Mestras", "lat": 44.636, "lng": -1.06815, "population": 19184}, {"name": "Sanary-sur-Mer", "lat": 43.11985, "lng": 5.80155, "population": 19166}, {"name": "Senlis", "lat": 49.20724, "lng": 2.58661, "population": 19160}, {"name": "Albertville", "lat": 45.67452, "lng": 6.39061, "population": 19113}, {"name": "Limeil-Brévannes", "lat": 48.7448, "lng": 2.48705, "population": 19104}, {"name": "Jouy-le-Moutier", "lat": 49.01068, "lng": 2.04028, "population": 19087}, {"name": "Marmande", "lat": 44.50361, "lng": 0.16546, "population": 19069}, {"name": "Royan", "lat": 45.62811, "lng": -1.03153, "population": 19017}, {"name": "Maurepas", "lat": 48.76486, "lng": 1.92923, "population": 19009}, {"name": "Digne-les-Bains", "lat": 44.09252, "lng": 6.23199, "population": 18986}, {"name": "Mougins", "lat": 43.60068, "lng": 6.99523, "population": 18973}, {"name": "Challans", "lat": 46.8458, "lng": -1.87942, "population": 18947}, {"name": "Sélestat", "lat": 48.26195, "lng": 7.4489, "population": 18941}, {"name": "Garches", "lat": 48.84226, "lng": 2.18232, "population": 18930}, {"name": "Chilly-Mazarin", "lat": 48.71489, "lng": 2.31638, "population": 18870}, {"name": "Bourg-la-Reine", "lat": 48.77888, "lng": 2.31781, "population": 18870}, {"name": "Équeurdreville-Hainneville", "lat": 49.64868, "lng": -1.65306, "population": 18862}, {"name": "Cournon-d'Auvergne", "lat": 45.74123, "lng": 3.19643, "population": 18848}, {"name": "Saint-Roch", "lat": 43.71486, "lng": 7.29195, "population": 18764}, {"name": "Chaville", "lat": 48.80565, "lng": 2.18864, "population": 18735}, {"name": "Neuilly-Plaisance", "lat": 48.86342, "lng": 2.506, "population": 18725}, {"name": "Bonneuil-sur-Marne", "lat": 48.7695, "lng": 2.4793, "population": 18723}, {"name": "Sorgues", "lat": 44.01023, "lng": 4.87381, "population": 18681}, {"name": "Vence", "lat": 43.72254, "lng": 7.11183, "population": 18668}, {"name": "Saint-Barthélémy", "lat": 43.33105, "lng": 5.40241, "population": 18655}, {"name": "Le Plessis-Trévise", "lat": 48.81074, "lng": 2.57363, "population": 18618}, {"name": "Bar-le-Duc", "lat": 48.77275, "lng": 5.16108, "population": 18595}, {"name": "Seynod", "lat": 45.88549, "lng": 6.08831, "population": 18590}, {"name": "Mitry-Mory", "lat": 48.98333, "lng": 2.61667, "population": 18562}, {"name": "Carvin", "lat": 50.49235, "lng": 2.95815, "population": 18561}, {"name": "Limay", "lat": 48.99553, "lng": 1.74081, "population": 18559}, {"name": "La Flèche", "lat": 47.69815, "lng": -0.07553, "population": 18536}, {"name": "Plaisance-du-Touch", "lat": 43.56554, "lng": 1.29645, "population": 18501}, {"name": "La Chapelle-sur-Erdre", "lat": 47.29964, "lng": -1.55239, "population": 18481}, {"name": "Avion", "lat": 50.41038, "lng": 2.83053, "population": 18470}, {"name": "Annonay", "lat": 45.23992, "lng": 4.6707, "population": 18423}, {"name": "Ronchin", "lat": 50.59883, "lng": 3.09056, "population": 18331}, {"name": "Mauguio", "lat": 43.61692, "lng": 4.00739, "population": 18320}, {"name": "Chennevières-sur-Marne", "lat": 48.79702, "lng": 2.54046, "population": 18314}, {"name": "Autun", "lat": 46.95104, "lng": 4.29869, "population": 18283}, {"name": "Saint-Avold", "lat": 49.10465, "lng": 6.70402, "population": 18281}, {"name": "Tourlaville", "lat": 49.63829, "lng": -1.56639, "population": 18273}, {"name": "Saint-Omer", "lat": 50.74834, "lng": 2.26091, "population": 18250}, {"name": "Argentan", "lat": 48.74441, "lng": -0.02023, "population": 18230}, {"name": "Givors", "lat": 45.59063, "lng": 4.76878, "population": 18198}, {"name": "Joinville-le-Pont", "lat": 48.82538, "lng": 2.47458, "population": 18154}, {"name": "Carquefou", "lat": 47.29722, "lng": -1.4921, "population": 18056}, {"name": "Cestas", "lat": 44.74471, "lng": -0.68194, "population": 18036}, {"name": "Castelnau-le-Lez", "lat": 43.63605, "lng": 3.90137, "population": 18011}, {"name": "Montigny-lès-Cormeilles", "lat": 48.98201, "lng": 2.20035, "population": 17910}, {"name": "La Crau", "lat": 43.14962, "lng": 6.07399, "population": 17905}, {"name": "Firminy", "lat": 45.38956, "lng": 4.2886, "population": 17902}, {"name": "Orsay", "lat": 48.69572, "lng": 2.18727, "population": 17817}, {"name": "Saint-Amand-les-Eaux", "lat": 50.44718, "lng": 3.43076, "population": 17808}, {"name": "La Pomme", "lat": 43.28987, "lng": 5.44153, "population": 17787}, {"name": "Le Pré-Saint-Gervais", "lat": 48.88549, "lng": 2.40422, "population": 17786}, {"name": "Lucé", "lat": 48.43689, "lng": 1.46359, "population": 17780}, {"name": "Les Clayes-sous-Bois", "lat": 48.82206, "lng": 1.98677, "population": 17776}, {"name": "La Baule-Escoublac", "lat": 47.29221, "lng": -2.36395, "population": 17775}, {"name": "Salpêtrière", "lat": 48.83732, "lng": 2.35823, "population": 17708}, {"name": "Sin-le-Noble", "lat": 50.36159, "lng": 3.13113, "population": 17682}, {"name": "Toul", "lat": 48.68075, "lng": 5.89115, "population": 17680}, {"name": "Marseille 16", "lat": 43.35982, "lng": 5.33421, "population": 17630}, {"name": "Villeneuve-le-Roi", "lat": 48.73684, "lng": 2.40081, "population": 17575}, {"name": "Mazargues", "lat": 43.24622, "lng": 5.39788, "population": 17527}, {"name": "Saint-Jean-de-la-Ruelle", "lat": 47.91127, "lng": 1.86483, "population": 17522}, {"name": "Morlaix", "lat": 48.57784, "lng": -3.82792, "population": 17516}, {"name": "Montargis", "lat": 47.99696, "lng": 2.73261, "population": 17457}, {"name": "Soisy-sous-Montmorency", "lat": 48.98813, "lng": 2.30156, "population": 17436}, {"name": "Bischheim", "lat": 48.61612, "lng": 7.75343, "population": 17434}, {"name": "Flers", "lat": 48.73722, "lng": -0.57466, "population": 17430}, {"name": "Marly-le-Roi", "lat": 48.86667, "lng": 2.08333, "population": 17404}, {"name": "Lattes", "lat": 43.56775, "lng": 3.90279, "population": 17390}, {"name": "Saint-Cyr-sur-Loire", "lat": 47.4, "lng": 0.66667, "population": 17337}, {"name": "Fos-sur-Mer", "lat": 43.43774, "lng": 4.94457, "population": 17317}, {"name": "Arcueil", "lat": 48.79993, "lng": 2.33256, "population": 17308}, {"name": "Lingolsheim", "lat": 48.55752, "lng": 7.68253, "population": 17284}, {"name": "Vitré", "lat": 48.12279, "lng": -1.20983, "population": 17266}, {"name": "Vitry-le-François", "lat": 48.72472, "lng": 4.58439, "population": 17250}, {"name": "Elbeuf", "lat": 49.28669, "lng": 1.00288, "population": 17231}, {"name": "Pamiers", "lat": 43.1165, "lng": 1.61079, "population": 16997}, {"name": "Montereau-Fault-Yonne", "lat": 48.38333, "lng": 2.95, "population": 16993}, {"name": "Tulle", "lat": 45.26582, "lng": 1.77233, "population": 16969}, {"name": "L'Isle-sur-la-Sorgue", "lat": 43.91971, "lng": 5.05141, "population": 16968}, {"name": "Octeville", "lat": 49.62612, "lng": -1.64349, "population": 16951}, {"name": "Tassin-la-Demi-Lune", "lat": 45.75499, "lng": 4.78812, "population": 16920}, {"name": "Bouguenais", "lat": 47.17941, "lng": -1.62468, "population": 16824}, {"name": "Verneuil-sur-Seine", "lat": 48.97388, "lng": 1.9648, "population": 16790}, {"name": "Verrières-le-Buisson", "lat": 48.74565, "lng": 2.26796, "population": 16789}, {"name": "Pontivy", "lat": 48.06835, "lng": -2.96645, "population": 16752}, {"name": "Le Vésinet", "lat": 48.89281, "lng": 2.13308, "population": 16740}, {"name": "Sallanches", "lat": 45.94423, "lng": 6.63162, "population": 16725}, {"name": "Montivilliers", "lat": 49.54518, "lng": 0.18769, "population": 16706}, {"name": "Domont", "lat": 49.02782, "lng": 2.32638, "population": 16684}, {"name": "Blanquefort", "lat": 44.91065, "lng": -0.63758, "population": 16636}, {"name": "Douarnenez", "lat": 48.09542, "lng": -4.32904, "population": 16590}, {"name": "Le Camas", "lat": 43.29469, "lng": 5.39415, "population": 16585}, {"name": "Osny", "lat": 49.0701, "lng": 2.06277, "population": 16545}, {"name": "Le Pecq", "lat": 48.89317, "lng": 2.10371, "population": 16534}, {"name": "Guérande", "lat": 47.32829, "lng": -2.42934, "population": 16523}, {"name": "Floirac", "lat": 44.83061, "lng": -0.52675, "population": 16497}, {"name": "Saint-Cyr-l'École", "lat": 48.79865, "lng": 2.06814, "population": 16365}, {"name": "Laxou", "lat": 48.68372, "lng": 6.14929, "population": 16323}, {"name": "Fontenay-le-Comte", "lat": 46.46671, "lng": -0.80624, "population": 16316}, {"name": "Moissy-Cramayel", "lat": 48.62605, "lng": 2.60125, "population": 16259}, {"name": "Saran", "lat": 47.95013, "lng": 1.87601, "population": 16243}, {"name": "Bry-sur-Marne", "lat": 48.83811, "lng": 2.52488, "population": 16226}, {"name": "Cesson-Sévigné", "lat": 48.1212, "lng": -1.603, "population": 16222}, {"name": "Le Pontet", "lat": 43.96119, "lng": 4.86008, "population": 16182}, {"name": "Montbrison", "lat": 45.60752, "lng": 4.06525, "population": 16164}, {"name": "Faches-Thumesnil", "lat": 50.58333, "lng": 3.06667, "population": 16163}, {"name": "Viroflay", "lat": 48.80078, "lng": 2.16181, "population": 16137}, {"name": "Les Sables-d'Olonne", "lat": 46.49687, "lng": -1.7847, "population": 16105}, {"name": "Saint-Loup", "lat": 43.27766, "lng": 5.43133, "population": 16084}, {"name": "Saint-Leu-la-Forêt", "lat": 49.01667, "lng": 2.25, "population": 16075}, {"name": "Saint-Fons", "lat": 45.70875, "lng": 4.85325, "population": 16053}, {"name": "Landerneau", "lat": 48.4515, "lng": -4.25175, "population": 16052}, {"name": "Saint-Avertin", "lat": 47.36357, "lng": 0.73993, "population": 16007}, {"name": "Châteaudun", "lat": 48.07086, "lng": 1.33783, "population": 16006}, {"name": "Issoire", "lat": 45.54422, "lng": 3.24901, "population": 15984}, {"name": "Gien", "lat": 47.69332, "lng": 2.63094, "population": 15966}, {"name": "Bayeux", "lat": 49.27732, "lng": -0.7039, "population": 15963}, {"name": "Gentilly", "lat": 48.81294, "lng": 2.3417, "population": 15939}, {"name": "Château-Thierry", "lat": 49.04636, "lng": 3.40304, "population": 15938}, {"name": "Port-de-Bouc", "lat": 43.40657, "lng": 4.9809, "population": 15934}, {"name": "Saint-Égrève", "lat": 45.23313, "lng": 5.68154, "population": 15904}, {"name": "Villers-lès-Nancy", "lat": 48.67333, "lng": 6.15283, "population": 15899}, {"name": "Brie-Comte-Robert", "lat": 48.69247, "lng": 2.6109, "population": 15892}, {"name": "Boissy-Saint-Léger", "lat": 48.75149, "lng": 2.51163, "population": 15877}, {"name": "Guéret", "lat": 46.17185, "lng": 1.87166, "population": 15853}, {"name": "Chenôve", "lat": 47.29323, "lng": 5.00457, "population": 15791}, {"name": "Lourdes", "lat": 43.09461, "lng": -0.04611, "population": 15786}, {"name": "Wittenheim", "lat": 47.8109, "lng": 7.32756, "population": 15747}, {"name": "Canteleu", "lat": 49.44065, "lng": 1.02459, "population": 15742}, {"name": "Haubourdin", "lat": 50.60826, "lng": 2.99143, "population": 15694}, {"name": "Crépy-en-Valois", "lat": 49.23359, "lng": 2.88807, "population": 15694}, {"name": "Berck-Plage", "lat": 50.40704, "lng": 1.56446, "population": 15675}, {"name": "Les Herbiers", "lat": 46.87095, "lng": -1.0156, "population": 15664}, {"name": "Yutz", "lat": 49.35571, "lng": 6.1926, "population": 15659}, {"name": "Outreau", "lat": 50.70535, "lng": 1.5897, "population": 15648}, {"name": "Berck", "lat": 50.4, "lng": 1.6, "population": 15609}, {"name": "Mayenne", "lat": 48.30337, "lng": -0.61383, "population": 15583}, {"name": "Audincourt", "lat": 47.48327, "lng": 6.85341, "population": 15577}, {"name": "Balma", "lat": 43.61111, "lng": 1.49944, "population": 15553}, {"name": "Hautmont", "lat": 50.25077, "lng": 3.92143, "population": 15540}, {"name": "Lognes", "lat": 48.83541, "lng": 2.62998, "population": 15519}, {"name": "Hayange", "lat": 49.32881, "lng": 6.06278, "population": 15501}, {"name": "Les Moulins", "lat": 43.67523, "lng": 7.20456, "population": 15476}, {"name": "Tergnier", "lat": 49.65607, "lng": 3.30107, "population": 15475}, {"name": "Carrières-sous-Poissy", "lat": 48.94952, "lng": 2.04068, "population": 15465}, {"name": "Illzach", "lat": 47.7742, "lng": 7.35175, "population": 15457}, {"name": "Pont-à-Mousson", "lat": 48.90702, "lng": 6.05635, "population": 15411}, {"name": "Cugnaux", "lat": 43.53635, "lng": 1.34428, "population": 15393}, {"name": "Éragny", "lat": 49.01667, "lng": 2.1, "population": 15385}, {"name": "Noisiel", "lat": 48.84868, "lng": 2.62435, "population": 15362}, {"name": "La Blancarde", "lat": 43.30047, "lng": 5.40563, "population": 15292}, {"name": "Saint-Pierre-des-Corps", "lat": 47.38623, "lng": 0.74849, "population": 15284}, {"name": "Coulommiers", "lat": 48.81451, "lng": 3.08498, "population": 15274}, {"name": "Montesson", "lat": 48.90924, "lng": 2.13754, "population": 15256}, {"name": "Saint-Maximin-la-Sainte-Baume", "lat": 43.44813, "lng": 5.86081, "population": 15225}, {"name": "Les Olives", "lat": 43.32393, "lng": 5.4584, "population": 15181}, {"name": "Noyon", "lat": 49.58333, "lng": 3.0, "population": 15138}, {"name": "Porte Saint-Denis", "lat": 48.87363, "lng": 2.35197, "population": 15063}, {"name": "Brignoles", "lat": 43.4058, "lng": 6.06172, "population": 15027}, {"name": "Avon", "lat": 48.40219, "lng": 2.72022, "population": 15009}, {"name": "Billère", "lat": 43.30264, "lng": -0.39733, "population": 14914}, {"name": "Bailleul", "lat": 50.73592, "lng": 2.73594, "population": 14884}, {"name": "Courcouronnes", "lat": 48.61429, "lng": 2.40762, "population": 14856}, {"name": "Rive-de-Gier", "lat": 45.52755, "lng": 4.61589, "population": 14852}, {"name": "Mende", "lat": 44.52161, "lng": 3.49978, "population": 14837}, {"name": "Wattignies", "lat": 50.58639, "lng": 3.04394, "population": 14766}, {"name": "Beaucaire", "lat": 43.80806, "lng": 4.64417, "population": 14766}, {"name": "Tarascon", "lat": 43.80583, "lng": 4.66028, "population": 14735}, {"name": "Sablé-sur-Sarthe", "lat": 47.83765, "lng": -0.33294, "population": 14734}, {"name": "Saint-Sylvestre", "lat": 43.72254, "lng": 7.24991, "population": 14716}, {"name": "Montmagny", "lat": 48.97338, "lng": 2.34688, "population": 14708}, {"name": "Bollène", "lat": 44.28124, "lng": 4.74891, "population": 14703}, {"name": "Longwy", "lat": 49.5217, "lng": 5.76192, "population": 14695}, {"name": "Sarrebourg", "lat": 48.73558, "lng": 7.0572, "population": 14677}, {"name": "L'Ariane", "lat": 43.74726, "lng": 7.30024, "population": 14676}, {"name": "Mennecy", "lat": 48.56903, "lng": 2.44384, "population": 14646}, {"name": "La Chapelle-Saint-Luc", "lat": 48.31734, "lng": 4.03988, "population": 14623}, {"name": "Vire", "lat": 48.83849, "lng": -0.88929, "population": 14603}, {"name": "Romilly-sur-Seine", "lat": 48.51085, "lng": 3.72634, "population": 14566}, {"name": "Cusset", "lat": 46.13452, "lng": 3.45639, "population": 14562}, {"name": "Bruz", "lat": 48.02459, "lng": -1.74709, "population": 14533}, {"name": "Saint-Jean-de-Luz", "lat": 43.38871, "lng": -1.66267, "population": 14514}, {"name": "Freyming-Merlebach", "lat": 49.15, "lng": 6.78333, "population": 14507}, {"name": "Quartier du Port", "lat": 43.70018, "lng": 7.28528, "population": 14456}, {"name": "Anzin", "lat": 50.37201, "lng": 3.50387, "population": 14443}, {"name": "Bercy", "lat": 48.83828, "lng": 2.38167, "population": 14427}, {"name": "Saint-Just", "lat": 43.317, "lng": 5.40587, "population": 14417}, {"name": "Creutzwald", "lat": 49.20531, "lng": 6.69668, "population": 14416}, {"name": "Hendaye", "lat": 43.35809, "lng": -1.7744, "population": 14415}, {"name": "Issoudun", "lat": 46.94848, "lng": 1.99362, "population": 14385}, {"name": "Saint-Tronc", "lat": 43.27093, "lng": 5.42285, "population": 14372}, {"name": "Villeneuve-Loubet", "lat": 43.6579, "lng": 7.12233, "population": 14354}, {"name": "Saint-Just-Saint-Rambert", "lat": 45.49973, "lng": 4.24141, "population": 14313}, {"name": "Granville", "lat": 48.83792, "lng": -1.59714, "population": 14289}, {"name": "Hennebont", "lat": 47.80479, "lng": -3.27812, "population": 14288}, {"name": "Saint-Maurice", "lat": 48.82182, "lng": 2.42716, "population": 14282}, {"name": "Châlette-sur-Loing", "lat": 48.01337, "lng": 2.73587, "population": 14268}, {"name": "Belle de Mai", "lat": 43.31184, "lng": 5.38541, "population": 14256}, {"name": "Châteaurenard", "lat": 43.88169, "lng": 4.85493, "population": 14205}, {"name": "Fourmies", "lat": 50.01532, "lng": 4.04784, "population": 14151}, {"name": "Berre-l'Étang", "lat": 43.47809, "lng": 5.17044, "population": 14062}, {"name": "Villefranche-de-Rouergue", "lat": 44.35166, "lng": 2.03702, "population": 14030}, {"name": "Montfavet", "lat": 43.93335, "lng": 4.87342, "population": 14000}, {"name": "Nemours", "lat": 48.27511, "lng": 2.69078, "population": 13933}, {"name": "Ollioules", "lat": 43.1399, "lng": 5.84766, "population": 13916}, {"name": "Lons", "lat": 43.31505, "lng": -0.41105, "population": 13872}, {"name": "Caudry", "lat": 50.1249, "lng": 3.41186, "population": 13862}, {"name": "Plérin", "lat": 48.53451, "lng": -2.76975, "population": 13860}, {"name": "Longuenesse", "lat": 50.73395, "lng": 2.2352, "population": 13838}, {"name": "La Rose", "lat": 43.32889, "lng": 5.42859, "population": 13835}, {"name": "Val-de-Reuil", "lat": 49.27385, "lng": 1.21021, "population": 13824}, {"name": "Cinq Avenues", "lat": 43.30375, "lng": 5.39761, "population": 13809}, {"name": "Lys-lez-Lannoy", "lat": 50.66667, "lng": 3.21667, "population": 13803}, {"name": "Guipavas", "lat": 48.43411, "lng": -4.40197, "population": 13755}, {"name": "Thiers", "lat": 45.85654, "lng": 3.54758, "population": 13739}, {"name": "Pont-Sainte-Maxence", "lat": 49.30168, "lng": 2.60467, "population": 13732}, {"name": "Avrillé", "lat": 47.50663, "lng": -0.58955, "population": 13723}, {"name": "Woippy", "lat": 49.15111, "lng": 6.15132, "population": 13721}, {"name": "Raismes", "lat": 50.38333, "lng": 3.48333, "population": 13719}, {"name": "Bois-Guillaume", "lat": 49.4602, "lng": 1.12219, "population": 13711}, {"name": "Moissac", "lat": 44.1045, "lng": 1.08474, "population": 13703}, {"name": "Plougastel-Daoulas", "lat": 48.37368, "lng": -4.36978, "population": 13679}, {"name": "Rixheim", "lat": 47.7497, "lng": 7.40203, "population": 13608}, {"name": "Saint-Brice-sous-Forêt", "lat": 49.00132, "lng": 2.35361, "population": 13606}, {"name": "Saint-Giniez", "lat": 43.26946, "lng": 5.38566, "population": 13606}, {"name": "Sainte-Maxime", "lat": 43.30907, "lng": 6.63849, "population": 13582}, {"name": "Saint-François", "lat": 46.41537, "lng": 3.90542, "population": 13577}, {"name": "Harnes", "lat": 50.44643, "lng": 2.90481, "population": 13569}, {"name": "Méru", "lat": 49.23333, "lng": 2.13333, "population": 13528}, {"name": "La Motte-Servolex", "lat": 45.59702, "lng": 5.86724, "population": 13499}, {"name": "Voisins-le-Bretonneux", "lat": 48.75793, "lng": 2.05137, "population": 13486}, {"name": "Bois-d'Arcy", "lat": 48.79966, "lng": 2.02325, "population": 13475}, {"name": "Seyssinet-Pariset", "lat": 45.17675, "lng": 5.69387, "population": 13473}, {"name": "Villeneuve-lès-Avignon", "lat": 43.96773, "lng": 4.79258, "population": 13451}, {"name": "Barentin", "lat": 49.54533, "lng": 0.95515, "population": 13441}, {"name": "Pasteur", "lat": 43.72106, "lng": 7.28294, "population": 13440}, {"name": "Yzeure", "lat": 46.56596, "lng": 3.35446, "population": 13435}, {"name": "Château-d'Olonne", "lat": 46.50382, "lng": -1.74097, "population": 13420}, {"name": "Roncq", "lat": 50.7533, "lng": 3.12131, "population": 13387}, {"name": "Beausoleil", "lat": 43.74311, "lng": 7.4225, "population": 13376}, {"name": "Le Chambon-Feugerolles", "lat": 45.39145, "lng": 4.32149, "population": 13371}, {"name": "Mouvaux", "lat": 50.69944, "lng": 3.13429, "population": 13285}, {"name": "Castelsarrasin", "lat": 44.04042, "lng": 1.10666, "population": 13260}, {"name": "Ambérieu-en-Bugey", "lat": 45.95932, "lng": 5.3516, "population": 13260}, {"name": "Le Raincy", "lat": 48.89916, "lng": 2.52298, "population": 13246}, {"name": "Saint-Gilles", "lat": 43.67656, "lng": 4.43024, "population": 13231}, {"name": "Bouc-Bel-Air", "lat": 43.45217, "lng": 5.413, "population": 13184}, {"name": "Chauny", "lat": 49.61514, "lng": 3.21857, "population": 13176}, {"name": "Gravelines", "lat": 50.98651, "lng": 2.12807, "population": 13137}, {"name": "Aubenas", "lat": 44.61975, "lng": 4.39033, "population": 13134}, {"name": "Bolbec", "lat": 49.57321, "lng": 0.47339, "population": 13133}, {"name": "Nogent-le-Rotrou", "lat": 48.32157, "lng": 0.82177, "population": 13128}, {"name": "Plouzané", "lat": 48.38131, "lng": -4.61805, "population": 13118}, {"name": "Amilly", "lat": 47.97281, "lng": 2.77186, "population": 13106}, {"name": "Stiring-Wendel", "lat": 49.20198, "lng": 6.9317, "population": 13085}, {"name": "Rumilly", "lat": 45.86116, "lng": 5.94513, "population": 13077}, {"name": "Graulhet", "lat": 43.76688, "lng": 1.98938, "population": 13057}, {"name": "Sainte-Luce-sur-Loire", "lat": 47.25508, "lng": -1.48269, "population": 13056}, {"name": "Châteaubriant", "lat": 47.71675, "lng": -1.37643, "population": 13024}, {"name": "Valfin-lès-Saint-Claude", "lat": 46.43758, "lng": 5.85513, "population": 12966}, {"name": "Ambarès-et-Lagrave", "lat": 44.92737, "lng": -0.49141, "population": 12955}, {"name": "Andrésy", "lat": 48.98235, "lng": 2.05687, "population": 12929}, {"name": "Les Ponts-de-Cé", "lat": 47.42315, "lng": -0.52477, "population": 12915}, {"name": "Pornic", "lat": 47.11581, "lng": -2.10331, "population": 12897}, {"name": "Périer", "lat": 43.27755, "lng": 5.37925, "population": 12897}, {"name": "Genas", "lat": 45.73131, "lng": 5.00211, "population": 12878}, {"name": "Carrières-sur-Seine", "lat": 48.90687, "lng": 2.1792, "population": 12829}, {"name": "Épinay-sous-Sénart", "lat": 48.6897, "lng": 2.51186, "population": 12826}, {"name": "Juvignac", "lat": 43.61389, "lng": 3.81056, "population": 12783}, {"name": "Arnouville", "lat": 48.98333, "lng": 2.41667, "population": 12783}, {"name": "Riedisheim", "lat": 47.74847, "lng": 7.36716, "population": 12724}, {"name": "Pierrelatte", "lat": 44.37549, "lng": 4.70314, "population": 12691}, {"name": "Le Bourget", "lat": 48.93405, "lng": 2.43584, "population": 12690}, {"name": "Kingersheim", "lat": 47.791, "lng": 7.32647, "population": 12690}, {"name": "Provins", "lat": 48.55897, "lng": 3.29939, "population": 12685}, {"name": "Amboise", "lat": 47.41249, "lng": 0.98266, "population": 12685}, {"name": "Bruges", "lat": 44.88287, "lng": -0.61222, "population": 12650}, {"name": "Mont-Alban", "lat": 43.7012, "lng": 7.30014, "population": 12636}, {"name": "Valbonne", "lat": 43.63292, "lng": 6.99911, "population": 12633}, {"name": "La Madeleine", "lat": 43.71298, "lng": 7.2241, "population": 12632}, {"name": "Oloron-Sainte-Marie", "lat": 43.19441, "lng": -0.61069, "population": 12611}, {"name": "Fontenay-le-Fleury", "lat": 48.81253, "lng": 2.04863, "population": 12611}, {"name": "Valentigney", "lat": 47.46388, "lng": 6.83168, "population": 12608}, {"name": "Gaillac", "lat": 43.9016, "lng": 1.89686, "population": 12600}, {"name": "Saint-Orens-de-Gameville", "lat": 43.55182, "lng": 1.53413, "population": 12576}, {"name": "Triel-sur-Seine", "lat": 48.97818, "lng": 2.00743, "population": 12574}, {"name": "Ramonville-Saint-Agne", "lat": 43.54618, "lng": 1.47491, "population": 12573}, {"name": "Guebwiller", "lat": 47.91667, "lng": 7.2, "population": 12548}, {"name": "Comines", "lat": 50.7615, "lng": 3.01063, "population": 12548}, {"name": "Vaires-sur-Marne", "lat": 48.87649, "lng": 2.63982, "population": 12547}, {"name": "Roquebrune-sur-Argens", "lat": 43.44313, "lng": 6.63772, "population": 12485}, {"name": "Notre-Dame Limite", "lat": 43.38165, "lng": 5.36269, "population": 12446}, {"name": "Saverne", "lat": 48.74164, "lng": 7.36221, "population": 12439}, {"name": "Castelnaudary", "lat": 43.31814, "lng": 1.95339, "population": 12432}, {"name": "Brignais", "lat": 45.67383, "lng": 4.75418, "population": 12427}, {"name": "Saint-Claude", "lat": 46.38679, "lng": 5.86473, "population": 12418}, {"name": "Saint-Martin-Boulogne", "lat": 50.72691, "lng": 1.61864, "population": 12414}, {"name": "Maromme", "lat": 49.47925, "lng": 1.02375, "population": 12412}, {"name": "Bernay", "lat": 49.08888, "lng": 0.59858, "population": 12399}, {"name": "Juvisy-sur-Orge", "lat": 48.68333, "lng": 2.38333, "population": 12376}, {"name": "Gisors", "lat": 49.28178, "lng": 1.7801, "population": 12363}, {"name": "Lamballe", "lat": 48.46808, "lng": -2.51781, "population": 12344}, {"name": "Le Pradet", "lat": 43.10545, "lng": 6.0235, "population": 12343}, {"name": "Arcachon", "lat": 44.66126, "lng": -1.17255, "population": 12321}, {"name": "Quimperlé", "lat": 47.87215, "lng": -3.54994, "population": 12312}, {"name": "Somain", "lat": 50.35961, "lng": 3.28108, "population": 12310}, {"name": "Montolivet", "lat": 43.31715, "lng": 5.4235, "population": 12310}, {"name": "Bischwiller", "lat": 48.76826, "lng": 7.85406, "population": 12308}, {"name": "Beaumont", "lat": 45.75165, "lng": 3.08294, "population": 12295}, {"name": "Château-Gontier", "lat": 47.82705, "lng": -0.70512, "population": 12292}, {"name": "Fameck", "lat": 49.29895, "lng": 6.10915, "population": 12291}, {"name": "Auray", "lat": 47.66692, "lng": -2.98421, "population": 12269}, {"name": "Rognac", "lat": 43.48761, "lng": 5.23387, "population": 12254}, {"name": "Dinan", "lat": 48.45553, "lng": -2.05049, "population": 12237}, {"name": "Seclin", "lat": 50.54873, "lng": 3.02731, "population": 12214}, {"name": "L'Archet", "lat": 43.69415, "lng": 7.2329, "population": 12212}, {"name": "Saint-Gaudens", "lat": 43.10813, "lng": 0.72318, "population": 12193}, {"name": "Saint-Cyr-sur-Mer", "lat": 43.18048, "lng": 5.7012, "population": 12185}, {"name": "Rouet", "lat": 43.27808, "lng": 5.39158, "population": 12178}, {"name": "Ponthierry", "lat": 48.53366, "lng": 2.54419, "population": 12158}, {"name": "L'Union", "lat": 43.66042, "lng": 1.48264, "population": 12139}, {"name": "Obernai", "lat": 48.46313, "lng": 7.481, "population": 12138}, {"name": "Saint-Fargeau-Ponthierry", "lat": 48.55713, "lng": 2.5284, "population": 12097}, {"name": "Talant", "lat": 47.33693, "lng": 5.00888, "population": 12082}, {"name": "Saint-Barnabé", "lat": 43.3, "lng": 5.41667, "population": 12070}, {"name": "Francheville", "lat": 45.73637, "lng": 4.76358, "population": 12053}, {"name": "Solliès-Pont", "lat": 43.19009, "lng": 6.04115, "population": 12052}, {"name": "L'Isle-d'Abeau", "lat": 45.6196, "lng": 5.22466, "population": 12033}, {"name": "Montataire", "lat": 49.259, "lng": 2.43777, "population": 12031}, {"name": "Villetaneuse", "lat": 48.95833, "lng": 2.34167, "population": 12025}, {"name": "Saint-Mauront", "lat": 43.31552, "lng": 5.37538, "population": 12020}, {"name": "Dinard", "lat": 48.63293, "lng": -2.06274, "population": 11993}, {"name": "Saint-Amand-Montrond", "lat": 46.72284, "lng": 2.50494, "population": 11976}, {"name": "Bully-les-Mines", "lat": 50.4438, "lng": 2.72703, "population": 11975}, {"name": "Nœux-les-Mines", "lat": 50.48333, "lng": 2.66667, "population": 11970}, {"name": "Valenton", "lat": 48.74527, "lng": 2.46467, "population": 11969}, {"name": "Le Pont-de-Claix", "lat": 45.12321, "lng": 5.69782, "population": 11963}, {"name": "Allonnes", "lat": 47.96744, "lng": 0.16023, "population": 11949}, {"name": "Cimiez", "lat": 43.72045, "lng": 7.27872, "population": 11940}, {"name": "Aubergenville", "lat": 48.95996, "lng": 1.85467, "population": 11934}, {"name": "Le Relecq-Kerhuon", "lat": 48.40817, "lng": -4.39676, "population": 11911}, {"name": "Orthez", "lat": 43.48834, "lng": -0.77266, "population": 11857}, {"name": "Saint-Paul-lès-Dax", "lat": 43.72566, "lng": -1.05283, "population": 11839}, {"name": "Roquebrune-Cap-Martin", "lat": 43.76408, "lng": 7.48207, "population": 11834}, {"name": "La Queue-en-Brie", "lat": 48.7852, "lng": 2.58112, "population": 11826}, {"name": "Porto-Vecchio", "lat": 41.59101, "lng": 9.27947, "population": 11820}, {"name": "Vernouillet", "lat": 48.7209, "lng": 1.36951, "population": 11783}, {"name": "Vaux-le-Pénil", "lat": 48.52803, "lng": 2.69165, "population": 11758}, {"name": "Trélazé", "lat": 47.44629, "lng": -0.46652, "population": 11740}, {"name": "Bonneville", "lat": 46.0802, "lng": 6.40726, "population": 11722}, {"name": "Bellegarde-sur-Valserine", "lat": 46.10787, "lng": 5.82421, "population": 11699}, {"name": "Bruay-sur-l'Escaut", "lat": 50.39918, "lng": 3.54379, "population": 11690}, {"name": "Marly", "lat": 50.34556, "lng": 3.54959, "population": 11681}, {"name": "Gaillard", "lat": 46.1853, "lng": 6.20693, "population": 11660}, {"name": "Passy", "lat": 45.92341, "lng": 6.69562, "population": 11613}, {"name": "Cosne-Cours-sur-Loire", "lat": 47.41101, "lng": 2.92528, "population": 11613}, {"name": "Apt", "lat": 43.87638, "lng": 5.39635, "population": 11609}, {"name": "Parthenay", "lat": 46.64832, "lng": -0.24672, "population": 11599}, {"name": "Mondeville", "lat": 49.17497, "lng": -0.32238, "population": 11582}, {"name": "Méricourt", "lat": 50.40116, "lng": 2.86246, "population": 11580}, {"name": "Ploufragan", "lat": 48.49005, "lng": -2.79605, "population": 11577}, {"name": "Briançon", "lat": 44.89978, "lng": 6.64201, "population": 11577}, {"name": "Castanet-Tolosan", "lat": 43.5159, "lng": 1.4986, "population": 11561}, {"name": "Saint-Martin-de-Crau", "lat": 43.63955, "lng": 4.8127, "population": 11555}, {"name": "Tarnos", "lat": 43.5417, "lng": -1.46281, "population": 11554}, {"name": "Saint-Junien", "lat": 45.88746, "lng": 0.90158, "population": 11553}, {"name": "Joigny", "lat": 47.98288, "lng": 3.40096, "population": 11527}, {"name": "Baille", "lat": 43.2877, "lng": 5.39804, "population": 11527}, {"name": "Thouars", "lat": 46.9815, "lng": -0.21175, "population": 11517}, {"name": "Riquier", "lat": 43.70507, "lng": 7.28714, "population": 11512}, {"name": "Châteauneuf-les-Martigues", "lat": 43.38383, "lng": 5.16403, "population": 11496}, {"name": "Oissel-sur-Seine", "lat": 49.33309, "lng": 1.09413, "population": 11495}, {"name": "Figeac", "lat": 44.60894, "lng": 2.03155, "population": 11491}, {"name": "Mazamet", "lat": 43.49275, "lng": 2.3736, "population": 11479}, {"name": "Ville-d'Avray", "lat": 48.82358, "lng": 2.19311, "population": 11431}, {"name": "Mions", "lat": 45.66302, "lng": 4.95292, "population": 11424}, {"name": "Auchel", "lat": 50.50345, "lng": 2.47346, "population": 11419}, {"name": "Étaples", "lat": 50.52194, "lng": 1.63319, "population": 11397}, {"name": "Ussel", "lat": 45.54804, "lng": 2.30917, "population": 11384}, {"name": "Morangis", "lat": 48.70383, "lng": 2.33908, "population": 11369}, {"name": "Guilherand-Granges", "lat": 44.93278, "lng": 4.87372, "population": 11365}, {"name": "Bon-Secours", "lat": 43.31923, "lng": 5.38426, "population": 11318}, {"name": "Saint-Saulve", "lat": 50.37141, "lng": 3.55612, "population": 11303}, {"name": "Bondues", "lat": 50.70196, "lng": 3.09497, "population": 11285}, {"name": "Ostwald", "lat": 48.54369, "lng": 7.71099, "population": 11261}, {"name": "Yvetot", "lat": 49.61744, "lng": 0.75814, "population": 11232}, {"name": "Soyaux", "lat": 45.64052, "lng": 0.19752, "population": 11220}, {"name": "Saint-André-les-Vergers", "lat": 48.28527, "lng": 4.0521, "population": 11203}, {"name": "Sainte-Savine", "lat": 48.29637, "lng": 4.04642, "population": 11172}, {"name": "L'Isle-Adam", "lat": 49.10744, "lng": 2.22818, "population": 11160}, {"name": "Olonne-sur-Mer", "lat": 46.53524, "lng": -1.77293, "population": 11157}, {"name": "Canet-en-Roussillon", "lat": 42.7, "lng": 3.01667, "population": 11148}, {"name": "Malpassé", "lat": 43.3217, "lng": 5.41551, "population": 11148}, {"name": "Hirson", "lat": 49.92262, "lng": 4.08259, "population": 11133}, {"name": "Cernay", "lat": 47.8097, "lng": 7.17699, "population": 11127}, {"name": "Sarlat-la-Canéda", "lat": 44.88902, "lng": 1.21656, "population": 11126}, {"name": "Plan-de-Cuques", "lat": 43.34753, "lng": 5.46398, "population": 11125}, {"name": "Saint-Max", "lat": 48.70426, "lng": 6.20686, "population": 11123}, {"name": "Le Portel", "lat": 50.70559, "lng": 1.57574, "population": 11100}, {"name": "Chantilly", "lat": 49.19461, "lng": 2.47124, "population": 11085}, {"name": "Claye-Souilly", "lat": 48.94492, "lng": 2.68566, "population": 11069}, {"name": "Aubière", "lat": 45.75082, "lng": 3.11078, "population": 11054}, {"name": "Clermont", "lat": 49.37897, "lng": 2.41258, "population": 11025}, {"name": "Marly", "lat": 49.06382, "lng": 6.15427, "population": 10997}, {"name": "Héricourt", "lat": 47.57305, "lng": 6.76139, "population": 10985}, {"name": "Jeumont", "lat": 50.29658, "lng": 4.10108, "population": 10964}, {"name": "Enghien-les-Bains", "lat": 48.96667, "lng": 2.31667, "population": 10951}, {"name": "Rombas", "lat": 49.24946, "lng": 6.09398, "population": 10942}, {"name": "Le Cabot", "lat": 43.25884, "lng": 5.41729, "population": 10942}, {"name": "Saint-André-lez-Lille", "lat": 50.66667, "lng": 3.05, "population": 10931}, {"name": "Hœnheim", "lat": 48.62224, "lng": 7.75549, "population": 10921}, {"name": "Chambray-lès-Tours", "lat": 47.33537, "lng": 0.70286, "population": 10910}, {"name": "Carros", "lat": 43.79246, "lng": 7.18745, "population": 10883}, {"name": "Pernes-les-Fontaines", "lat": 43.99802, "lng": 5.05906, "population": 10868}, {"name": "Limoux", "lat": 43.05487, "lng": 2.22173, "population": 10844}, {"name": "Marquette-lez-Lille", "lat": 50.67628, "lng": 3.06613, "population": 10832}, {"name": "Monteux", "lat": 44.03618, "lng": 4.9963, "population": 10828}, {"name": "Tarare", "lat": 45.89614, "lng": 4.433, "population": 10806}, {"name": "Vauvert", "lat": 43.69386, "lng": 4.27587, "population": 10798}, {"name": "Vieux-Condé", "lat": 50.45944, "lng": 3.56738, "population": 10773}, {"name": "Riorges", "lat": 46.04378, "lng": 4.04255, "population": 10763}, {"name": "Florange", "lat": 49.32373, "lng": 6.1212, "population": 10758}, {"name": "Croissy-sur-Seine", "lat": 48.87925, "lng": 2.13836, "population": 10751}, {"name": "Biscarrosse", "lat": 44.39454, "lng": -1.16721, "population": 10716}, {"name": "Montigny-en-Gohelle", "lat": 50.4254, "lng": 2.93902, "population": 10713}, {"name": "Dugny", "lat": 48.95371, "lng": 2.41734, "population": 10709}, {"name": "Sassenage", "lat": 45.21266, "lng": 5.6629, "population": 10641}, {"name": "Sallaumines", "lat": 50.41749, "lng": 2.86174, "population": 10637}, {"name": "Chevigny-Saint-Sauveur", "lat": 47.29908, "lng": 5.13367, "population": 10620}, {"name": "Chamonix-Mont-Blanc", "lat": 45.92375, "lng": 6.86933, "population": 10614}, {"name": "Oignies", "lat": 50.46331, "lng": 2.99376, "population": 10609}, {"name": "Albert", "lat": 50.00091, "lng": 2.65096, "population": 10588}, {"name": "Pornichet", "lat": 47.26682, "lng": -2.33794, "population": 10584}, {"name": "Tournon-sur-Rhône", "lat": 45.06667, "lng": 4.83333, "population": 10571}, {"name": "Saint-Rémy-de-Provence", "lat": 43.78848, "lng": 4.83167, "population": 10562}, {"name": "Loudéac", "lat": 48.1776, "lng": -2.7558, "population": 10552}, {"name": "Déville-lès-Rouen", "lat": 49.46942, "lng": 1.05214, "population": 10548}, {"name": "Fosses", "lat": 49.09808, "lng": 2.50957, "population": 10543}, {"name": "Annoeullin", "lat": 50.52925, "lng": 2.9318, "population": 10528}, {"name": "Mainvilliers", "lat": 48.45003, "lng": 1.45607, "population": 10505}, {"name": "Varennes-Vauzelles", "lat": 47.01678, "lng": 3.14037, "population": 10464}, {"name": "La Capelette", "lat": 43.28086, "lng": 5.406, "population": 10454}, {"name": "Vernier", "lat": 43.70727, "lng": 7.25911, "population": 10448}, {"name": "Carmaux", "lat": 44.04963, "lng": 2.1581, "population": 10413}, {"name": "Bures-sur-Yvette", "lat": 48.69981, "lng": 2.17064, "population": 10411}, {"name": "Saint-Estève", "lat": 42.7131, "lng": 2.84152, "population": 10403}, {"name": "Aire-sur-la-Lys", "lat": 50.63871, "lng": 2.39876, "population": 10397}, {"name": "Saint-Brevin-les-Pins", "lat": 47.24693, "lng": -2.16647, "population": 10396}, {"name": "Roche-la-Molière", "lat": 45.43088, "lng": 4.3282, "population": 10372}, {"name": "Quetigny", "lat": 47.31667, "lng": 5.11667, "population": 10372}, {"name": "Courrières", "lat": 50.45701, "lng": 2.94725, "population": 10330}, {"name": "Douchy-les-Mines", "lat": 50.3008, "lng": 3.3927, "population": 10296}, {"name": "Dourdan", "lat": 48.52772, "lng": 2.01113, "population": 10261}, {"name": "Saint-Marcel", "lat": 43.28745, "lng": 5.46604, "population": 10256}, {"name": "Jarville-la-Malgrange", "lat": 48.66697, "lng": 6.20269, "population": 10248}, {"name": "Andernos-les-Bains", "lat": 44.74572, "lng": -1.10355, "population": 10236}, {"name": "Behren-lès-Forbach", "lat": 49.16949, "lng": 6.93933, "population": 10225}, {"name": "Wittelsheim", "lat": 47.80947, "lng": 7.24154, "population": 10220}, {"name": "Septèmes-les-Vallons", "lat": 43.39834, "lng": 5.36596, "population": 10220}, {"name": "Condé-sur-l'Escaut", "lat": 50.45436, "lng": 3.58884, "population": 10215}, {"name": "Voreppe", "lat": 45.29484, "lng": 5.63192, "population": 10214}, {"name": "Valréas", "lat": 44.3849, "lng": 4.99125, "population": 10211}, {"name": "La Ferté-Bernard", "lat": 48.18723, "lng": 0.65247, "population": 10201}, {"name": "Tinqueux", "lat": 49.25, "lng": 3.98333, "population": 10197}, {"name": "Eybens", "lat": 45.14771, "lng": 5.75014, "population": 10195}, {"name": "Saint-Pancrace", "lat": 43.74406, "lng": 7.23967, "population": 10184}, {"name": "Amnéville", "lat": 49.25671, "lng": 6.13414, "population": 10162}, {"name": "Lavaur", "lat": 43.69886, "lng": 1.81211, "population": 10148}, {"name": "Luçon", "lat": 46.45493, "lng": -1.16629, "population": 10140}, {"name": "Montlouis-sur-Loire", "lat": 47.38845, "lng": 0.83208, "population": 10137}, {"name": "La Trinité", "lat": 43.7405, "lng": 7.314, "population": 10128}, {"name": "Saint-Julien-en-Genevois", "lat": 46.14434, "lng": 6.08256, "population": 10108}, {"name": "Aniche", "lat": 50.32995, "lng": 3.25346, "population": 10108}, {"name": "Lillers", "lat": 50.56345, "lng": 2.48042, "population": 10104}, {"name": "Caudebec-lès-Elbeuf", "lat": 49.28082, "lng": 1.02195, "population": 10104}, {"name": "Bourg-de-Péage", "lat": 45.03151, "lng": 5.04993, "population": 10090}, {"name": "Saint-Jérôme", "lat": 43.33404, "lng": 5.41733, "population": 10087}, {"name": "Gérardmer", "lat": 48.07346, "lng": 6.87787, "population": 10084}, {"name": "Saint-Lazare", "lat": 43.30545, "lng": 5.37443, "population": 10082}, {"name": "Villers-Cotterêts", "lat": 49.25311, "lng": 3.09003, "population": 10068}, {"name": "Isbergues", "lat": 50.62328, "lng": 2.45902, "population": 10067}, {"name": "Panazol", "lat": 45.83871, "lng": 1.30995, "population": 10055}, {"name": "Argeles", "lat": 42.54714, "lng": 3.02253, "population": 10044}, {"name": "Bussy-Saint-Georges", "lat": 48.84099, "lng": 2.70165, "population": 10043}, {"name": "La Roche-sur-Foron", "lat": 46.07111, "lng": 6.3045, "population": 10026}, {"name": "Pont-Saint-Esprit", "lat": 44.25656, "lng": 4.6478, "population": 10002}, {"name": "Carabacel", "lat": 43.70803, "lng": 7.27889, "population": 9984}, {"name": "Villebon-sur-Yvette", "lat": 48.70594, "lng": 2.24019, "population": 9983}, {"name": "Pierre-Bénite", "lat": 45.70359, "lng": 4.82424, "population": 9971}, {"name": "Igny", "lat": 48.74437, "lng": 2.22428, "population": 9968}, {"name": "Vernouillet", "lat": 48.97146, "lng": 1.98082, "population": 9965}, {"name": "Molsheim", "lat": 48.54042, "lng": 7.49199, "population": 9953}, {"name": "Saint-Julien", "lat": 43.31334, "lng": 5.44935, "population": 9939}, {"name": "Ormesson-sur-Marne", "lat": 48.7863, "lng": 2.54471, "population": 9922}, {"name": "Sainte-Anne", "lat": 43.2572, "lng": 5.39377, "population": 9919}, {"name": "Villepreux", "lat": 48.82815, "lng": 1.9976, "population": 9895}, {"name": "Thorigny-sur-Marne", "lat": 48.88689, "lng": 2.71806, "population": 9887}, {"name": "Auriol", "lat": 43.37161, "lng": 5.6341, "population": 9872}, {"name": "Foix", "lat": 42.96535, "lng": 1.60705, "population": 9860}, {"name": "Maizières-lès-Metz", "lat": 49.21335, "lng": 6.15956, "population": 9845}, {"name": "Paray-le-Monial", "lat": 46.45457, "lng": 4.11584, "population": 9840}, {"name": "Saint-Maurice", "lat": 43.72384, "lng": 7.26293, "population": 9840}, {"name": "Cogolin", "lat": 43.25294, "lng": 6.52981, "population": 9838}, {"name": "Tonneins", "lat": 44.39476, "lng": 0.31014, "population": 9823}, {"name": "Leers", "lat": 50.68217, "lng": 3.24429, "population": 9823}, {"name": "Guidel-Plage", "lat": 47.76768, "lng": -3.5218, "population": 9800}, {"name": "Lillebonne", "lat": 49.5203, "lng": 0.53617, "population": 9797}, {"name": "Portet-sur-Garonne", "lat": 43.52317, "lng": 1.40511, "population": 9794}, {"name": "Marseille Vauban", "lat": 43.28408, "lng": 5.3754, "population": 9789}, {"name": "Villerupt", "lat": 49.46715, "lng": 5.93202, "population": 9763}, {"name": "La Valbarelle", "lat": 43.28494, "lng": 5.45387, "population": 9758}, {"name": "Corbas", "lat": 45.66798, "lng": 4.90198, "population": 9753}, {"name": "Arpajon", "lat": 48.58875, "lng": 2.24672, "population": 9742}, {"name": "Les Caillols", "lat": 43.30221, "lng": 5.44811, "population": 9742}, {"name": "Trets", "lat": 43.44818, "lng": 5.68328, "population": 9734}, {"name": "Lescar", "lat": 43.33358, "lng": -0.43458, "population": 9710}, {"name": "Hombourg-Haut", "lat": 49.12819, "lng": 6.77066, "population": 9702}, {"name": "Fondettes", "lat": 47.4035, "lng": 0.59686, "population": 9684}, {"name": "Saint-Vallier", "lat": 46.64107, "lng": 4.37107, "population": 9670}, {"name": "Pont-Audemer", "lat": 49.35, "lng": 0.51667, "population": 9666}, {"name": "Pithiviers", "lat": 48.17185, "lng": 2.25185, "population": 9659}, {"name": "Coutances", "lat": 49.04541, "lng": -1.44518, "population": 9657}, {"name": "Les Andelys", "lat": 49.24557, "lng": 1.41168, "population": 9655}, {"name": "Erstein", "lat": 48.42373, "lng": 7.66262, "population": 9647}, {"name": "Bondoufle", "lat": 48.61294, "lng": 2.37775, "population": 9619}, {"name": "Ifs", "lat": 49.14, "lng": -0.34899, "population": 9617}, {"name": "Grand-Couronne", "lat": 49.35563, "lng": 1.00647, "population": 9569}, {"name": "Arques", "lat": 50.73375, "lng": 2.30237, "population": 9551}, {"name": "Privas", "lat": 44.735, "lng": 4.59918, "population": 9545}, {"name": "Feyzin", "lat": 45.67287, "lng": 4.85894, "population": 9539}, {"name": "Vedène", "lat": 43.97744, "lng": 4.90428, "population": 9538}, {"name": "Saint-Jean-de-Maurienne", "lat": 45.27534, "lng": 6.35293, "population": 9536}, {"name": "La Chapelle-Saint-Mesmin", "lat": 47.88648, "lng": 1.8345, "population": 9532}, {"name": "Beauchamp", "lat": 49.01667, "lng": 2.2, "population": 9532}, {"name": "Longvic", "lat": 47.28754, "lng": 5.06341, "population": 9527}, {"name": "Gouvieux", "lat": 49.18705, "lng": 2.41439, "population": 9526}, {"name": "Chanteloup-les-Vignes", "lat": 48.97614, "lng": 2.03261, "population": 9521}, {"name": "La Conception", "lat": 43.29174, "lng": 5.39391, "population": 9511}, {"name": "Épinay-sur-Orge", "lat": 48.67338, "lng": 2.31074, "population": 9507}, {"name": "Chambly", "lat": 49.16667, "lng": 2.25, "population": 9506}, {"name": "Chutes-Lavie", "lat": 43.31017, "lng": 5.39464, "population": 9495}, {"name": "Méry-sur-Oise", "lat": 49.05876, "lng": 2.19113, "population": 9490}, {"name": "La Cabucelle", "lat": 43.33189, "lng": 5.36111, "population": 9488}, {"name": "Escaudain", "lat": 50.33315, "lng": 3.3443, "population": 9479}, {"name": "Pont-du-Château", "lat": 45.7983, "lng": 3.24839, "population": 9474}, {"name": "Redon", "lat": 47.65165, "lng": -2.08421, "population": 9472}, {"name": "La Londe-les-Maures", "lat": 43.13839, "lng": 6.23362, "population": 9471}, {"name": "Brumath", "lat": 48.73398, "lng": 7.71095, "population": 9459}, {"name": "Saint-Lambert", "lat": 43.28606, "lng": 5.36, "population": 9456}, {"name": "Andrézieux-Bouthéon", "lat": 45.52625, "lng": 4.26021, "population": 9452}, {"name": "La Ferté-sous-Jouarre", "lat": 48.9514, "lng": 3.12724, "population": 9443}, {"name": "Le Passage", "lat": 44.2014, "lng": 0.60347, "population": 9434}, {"name": "Saint-Doulchard", "lat": 47.10371, "lng": 2.352, "population": 9433}, {"name": "Neuville-en-Ferrain", "lat": 50.74839, "lng": 3.15676, "population": 9428}, {"name": "Lure", "lat": 47.68294, "lng": 6.49658, "population": 9415}, {"name": "Buxerolles", "lat": 46.61667, "lng": 0.48333, "population": 9415}, {"name": "Chassieu", "lat": 45.74584, "lng": 4.97088, "population": 9412}, {"name": "Chinon", "lat": 47.16701, "lng": 0.24284, "population": 9405}, {"name": "Gerzat", "lat": 45.82581, "lng": 3.14473, "population": 9382}, {"name": "Saint-Cyprien-Plage", "lat": 42.63229, "lng": 3.03333, "population": 9369}, {"name": "Saint-Hilaire-de-Riez", "lat": 46.72106, "lng": -1.94594, "population": 9358}, {"name": "Betton", "lat": 48.1827, "lng": -1.6448, "population": 9343}, {"name": "Remiremont", "lat": 48.01754, "lng": 6.5882, "population": 9339}, {"name": "Mouans-Sartoux", "lat": 43.62101, "lng": 6.97139, "population": 9330}, {"name": "Louvres", "lat": 49.0446, "lng": 2.50479, "population": 9323}, {"name": "Quéven", "lat": 47.78887, "lng": -3.41616, "population": 9316}, {"name": "Persan", "lat": 49.15335, "lng": 2.27218, "population": 9314}, {"name": "Avranches", "lat": 48.68436, "lng": -1.35686, "population": 9295}, {"name": "Miribel", "lat": 45.8258, "lng": 4.9544, "population": 9282}, {"name": "Les Chartreux", "lat": 43.31112, "lng": 5.4048, "population": 9273}, {"name": "Villeneuve-Tolosane", "lat": 43.52316, "lng": 1.34102, "population": 9258}, {"name": "Dombasle-sur-Meurthe", "lat": 48.61861, "lng": 6.35538, "population": 9256}, {"name": "Aulnoye-Aymeries", "lat": 50.20141, "lng": 3.83844, "population": 9242}, {"name": "Fleury-Mérogis", "lat": 48.6373, "lng": 2.36378, "population": 9241}, {"name": "Champagnole", "lat": 46.74452, "lng": 5.91354, "population": 9239}, {"name": "Fontaine-lès-Dijon", "lat": 47.34238, "lng": 5.02007, "population": 9234}, {"name": "Maxéville", "lat": 48.71324, "lng": 6.16658, "population": 9226}, {"name": "Magny-les-Hameaux", "lat": 48.74345, "lng": 2.06154, "population": 9203}, {"name": "Luxeuil-les-Bains", "lat": 47.8171, "lng": 6.365, "population": 9200}, {"name": "Saint-Louis", "lat": 43.34809, "lng": 5.35463, "population": 9188}, {"name": "Gex", "lat": 46.33323, "lng": 6.05766, "population": 9177}, {"name": "Carqueiranne", "lat": 43.09495, "lng": 6.07349, "population": 9175}, {"name": "Marck", "lat": 50.94897, "lng": 1.94328, "population": 9158}, {"name": "Larmor-Plage", "lat": 47.70646, "lng": -3.38339, "population": 9151}, {"name": "Saint-Jean", "lat": 43.66519, "lng": 1.50459, "population": 9147}, {"name": "Gignac-la-Nerthe", "lat": 43.39287, "lng": 5.23586, "population": 9146}, {"name": "Belley", "lat": 45.75917, "lng": 5.68813, "population": 9145}, {"name": "Saint-Jean-de-Védas", "lat": 43.57759, "lng": 3.82603, "population": 9134}, {"name": "Rouvroy", "lat": 50.39247, "lng": 2.90396, "population": 9122}, {"name": "Le Merlan", "lat": 43.33875, "lng": 5.40773, "population": 9112}, {"name": "Falaise", "lat": 48.89217, "lng": -0.19527, "population": 9107}, {"name": "Belsunce", "lat": 43.29834, "lng": 5.3766, "population": 9106}, {"name": "Merville", "lat": 50.64329, "lng": 2.64125, "population": 9104}, {"name": "Coulounieix-Chamiers", "lat": 45.15774, "lng": 0.68798, "population": 9103}, {"name": "Cabestany", "lat": 42.68141, "lng": 2.9409, "population": 9103}, {"name": "Moyeuvre-Grande", "lat": 49.25294, "lng": 6.04467, "population": 9099}, {"name": "Ouistreham", "lat": 49.27566, "lng": -0.2591, "population": 9067}, {"name": "Pélissanne", "lat": 43.6326, "lng": 5.1522, "population": 9064}, {"name": "Darnétal", "lat": 49.44533, "lng": 1.15144, "population": 9064}, {"name": "Beuvry", "lat": 50.51674, "lng": 2.68541, "population": 9052}, {"name": "Lézignan-Corbières", "lat": 43.20085, "lng": 2.75745, "population": 9042}, {"name": "Hagondange", "lat": 49.24879, "lng": 6.16374, "population": 9039}, {"name": "Crolles", "lat": 45.27724, "lng": 5.87837, "population": 9026}, {"name": "Saint-Jean-le-Blanc", "lat": 47.89327, "lng": 1.9154, "population": 9025}, {"name": "Guingamp", "lat": 48.56259, "lng": -3.15289, "population": 9023}, {"name": "Domérat", "lat": 46.36036, "lng": 2.53455, "population": 9015}, {"name": "Péronne", "lat": 49.93218, "lng": 2.9363, "population": 9011}, {"name": "Beaumont-sur-Oise", "lat": 49.14232, "lng": 2.28705, "population": 9011}, {"name": "Villecresnes", "lat": 48.72002, "lng": 2.5394, "population": 8978}, {"name": "Marguerittes", "lat": 43.8596, "lng": 4.44517, "population": 8974}, {"name": "Bagnères-de-Bigorre", "lat": 43.06497, "lng": 0.14876, "population": 8967}, {"name": "Ézanville", "lat": 49.02794, "lng": 2.36787, "population": 8950}, {"name": "Digoin", "lat": 46.48124, "lng": 3.97946, "population": 8941}, {"name": "La Riche", "lat": 47.38996, "lng": 0.67072, "population": 8934}, {"name": "Saint-Avé", "lat": 47.6865, "lng": -2.7349, "population": 8907}, {"name": "Bougival", "lat": 48.86223, "lng": 2.14148, "population": 8895}, {"name": "Léognan", "lat": 44.72901, "lng": -0.60052, "population": 8890}, {"name": "Le Haillan", "lat": 44.87161, "lng": -0.67691, "population": 8880}, {"name": "Irigny", "lat": 45.67313, "lng": 4.82243, "population": 8869}, {"name": "Cuers", "lat": 43.23754, "lng": 6.07178, "population": 8869}, {"name": "Verduron", "lat": 43.37063, "lng": 5.34513, "population": 8846}, {"name": "Bellerive-sur-Allier", "lat": 46.11652, "lng": 3.40406, "population": 8841}, {"name": "Notre-Dame-de-Gravenchon", "lat": 49.4894, "lng": 0.57188, "population": 8839}, {"name": "Rivesaltes", "lat": 42.76929, "lng": 2.87378, "population": 8836}, {"name": "Saint-Pierre", "lat": 43.29282, "lng": 5.40682, "population": 8836}, {"name": "Meulan-en-Yvelines", "lat": 49.00768, "lng": 1.90602, "population": 8829}, {"name": "Wingles", "lat": 50.49382, "lng": 2.855, "population": 8815}, {"name": "Wissembourg", "lat": 49.03708, "lng": 7.94548, "population": 8800}, {"name": "Romagnat", "lat": 45.72955, "lng": 3.10061, "population": 8771}, {"name": "Petit-Couronne", "lat": 49.38333, "lng": 1.01667, "population": 8761}, {"name": "Pérols", "lat": 43.5647, "lng": 3.95034, "population": 8753}, {"name": "Gleizé", "lat": 45.98916, "lng": 4.69708, "population": 8749}, {"name": "Landivisiau", "lat": 48.50906, "lng": -4.06906, "population": 8747}, {"name": "Avallon", "lat": 47.49002, "lng": 3.90832, "population": 8740}, {"name": "L'Isle-Jourdain", "lat": 43.6122, "lng": 1.0866, "population": 8729}, {"name": "Fouesnant", "lat": 47.89342, "lng": -4.0124, "population": 8722}, {"name": "Revel", "lat": 43.4589, "lng": 2.00437, "population": 8710}, {"name": "Villars", "lat": 45.46785, "lng": 4.35539, "population": 8709}, {"name": "Castelginest", "lat": 43.69382, "lng": 1.4344, "population": 8709}, {"name": "Jarny", "lat": 49.15873, "lng": 5.8764, "population": 8704}, {"name": "Onnaing", "lat": 50.38584, "lng": 3.59963, "population": 8703}, {"name": "Wambrechies", "lat": 50.68276, "lng": 3.04784, "population": 8699}, {"name": "Saint-Germain-lès-Arpajon", "lat": 48.59733, "lng": 2.26481, "population": 8695}, {"name": "Vaucresson", "lat": 48.84078, "lng": 2.15652, "population": 8693}, {"name": "Portes-lès-Valence", "lat": 44.87585, "lng": 4.87415, "population": 8675}, {"name": "Lodi", "lat": 43.28663, "lng": 5.38882, "population": 8673}, {"name": "Pézenas", "lat": 43.45997, "lng": 3.42258, "population": 8647}, {"name": "Langres", "lat": 47.86263, "lng": 5.33308, "population": 8638}, {"name": "La Joliette", "lat": 43.30496, "lng": 5.36608, "population": 8638}, {"name": "Migennes", "lat": 47.96548, "lng": 3.51787, "population": 8637}, {"name": "Déols", "lat": 46.82934, "lng": 1.70428, "population": 8635}, {"name": "Golbey", "lat": 48.19764, "lng": 6.43966, "population": 8623}, {"name": "Le Teil", "lat": 44.54531, "lng": 4.68223, "population": 8620}, {"name": "Dardilly", "lat": 45.80558, "lng": 4.75319, "population": 8612}, {"name": "Pacé", "lat": 48.14854, "lng": -1.77435, "population": 8608}, {"name": "Saint-Gély-du-Fesc", "lat": 43.69293, "lng": 3.8058, "population": 8605}, {"name": "Paimpol", "lat": 48.77831, "lng": -3.0466, "population": 8603}, {"name": "Saint-Pierre-lès-Elbeuf", "lat": 49.27901, "lng": 1.04305, "population": 8602}, {"name": "Crosne", "lat": 48.71921, "lng": 2.45728, "population": 8592}, {"name": "Bihorel", "lat": 49.45468, "lng": 1.1223, "population": 8589}, {"name": "Le Beausset", "lat": 43.19822, "lng": 5.80267, "population": 8568}, {"name": "Thiers", "lat": 43.70076, "lng": 7.2595, "population": 8568}, {"name": "Mèze", "lat": 43.42747, "lng": 3.60505, "population": 8557}, {"name": "Dammartin-en-Goële", "lat": 49.05423, "lng": 2.67777, "population": 8552}, {"name": "Saint-Affrique", "lat": 43.95575, "lng": 2.88915, "population": 8548}, {"name": "Bandol", "lat": 43.14247, "lng": 5.74718, "population": 8546}, {"name": "Lamorlaye", "lat": 49.16246, "lng": 2.44687, "population": 8540}, {"name": "Meythet", "lat": 45.91836, "lng": 6.09422, "population": 8538}, {"name": "Billy-Montigny", "lat": 50.41711, "lng": 2.90286, "population": 8533}, {"name": "Crest", "lat": 44.72639, "lng": 5.01517, "population": 8517}, {"name": "Loudun", "lat": 47.00788, "lng": 0.08296, "population": 8510}, {"name": "Mont-Saint-Martin", "lat": 49.54363, "lng": 5.78337, "population": 8509}, {"name": "Charvieu-Chavagneux", "lat": 45.75, "lng": 5.15, "population": 8506}, {"name": "Saint-Jacques-de-la-Lande", "lat": 48.0647, "lng": -1.72088, "population": 8505}, {"name": "Rethel", "lat": 49.50979, "lng": 4.3674, "population": 8505}, {"name": "Le Taillan-Médoc", "lat": 44.90429, "lng": -0.66997, "population": 8505}, {"name": "Port-Saint-Louis-du-Rhône", "lat": 43.38734, "lng": 4.82609, "population": 8503}, {"name": "Saint-Charles", "lat": 43.30199, "lng": 5.38405, "population": 8492}, {"name": "Saint-Aubin-lès-Elbeuf", "lat": 49.3036, "lng": 1.01056, "population": 8486}, {"name": "Gueugnon", "lat": 46.60357, "lng": 4.06286, "population": 8486}, {"name": "Pontchâteau", "lat": 47.43868, "lng": -2.09422, "population": 8474}, {"name": "Le Muy", "lat": 43.4728, "lng": 6.56637, "population": 8474}, {"name": "Séné", "lat": 47.619, "lng": -2.737, "population": 8465}, {"name": "Craponne", "lat": 45.74526, "lng": 4.72322, "population": 8460}, {"name": "Unieux", "lat": 45.40395, "lng": 4.27094, "population": 8456}, {"name": "Libercourt", "lat": 50.48322, "lng": 3.01584, "population": 8443}, {"name": "Livron-sur-Drôme", "lat": 44.77689, "lng": 4.8418, "population": 8440}, {"name": "Thann", "lat": 47.80789, "lng": 7.10301, "population": 8429}, {"name": "Eu", "lat": 50.04606, "lng": 1.42079, "population": 8425}, {"name": "Ploërmel", "lat": 47.93167, "lng": -2.39746, "population": 8422}, {"name": "Lésigny", "lat": 48.74374, "lng": 2.61518, "population": 8421}, {"name": "Pibrac", "lat": 43.62042, "lng": 1.2854, "population": 8413}, {"name": "Jouy-en-Josas", "lat": 48.75909, "lng": 2.16966, "population": 8383}, {"name": "Chantonnay", "lat": 46.68716, "lng": -1.05109, "population": 8375}, {"name": "Cassis", "lat": 43.21571, "lng": 5.53855, "population": 8361}, {"name": "Pfastatt", "lat": 47.76915, "lng": 7.30295, "population": 8354}, {"name": "Villeneuve-lès-Maguelone", "lat": 43.53222, "lng": 3.86047, "population": 8343}, {"name": "Aytré", "lat": 46.13417, "lng": -1.11826, "population": 8335}, {"name": "Grigny-sur-Rhône", "lat": 45.60843, "lng": 4.78976, "population": 8331}, {"name": "Les Angles", "lat": 43.95452, "lng": 4.76645, "population": 8318}, {"name": "Lempdes", "lat": 45.77097, "lng": 3.19356, "population": 8315}, {"name": "Sainte-Adresse", "lat": 49.5089, "lng": 0.08446, "population": 8310}, {"name": "Tournan-en-Brie", "lat": 48.74146, "lng": 2.772, "population": 8309}, {"name": "La Villette", "lat": 43.31181, "lng": 5.37391, "population": 8309}, {"name": "Bourg-Saint-Andéol", "lat": 44.37338, "lng": 4.64413, "population": 8301}, {"name": "Saint-Laurent-de-la-Salanque", "lat": 42.77399, "lng": 2.99041, "population": 8293}, {"name": "Cappelle-la-Grande", "lat": 50.99979, "lng": 2.35848, "population": 8293}, {"name": "Harfleur", "lat": 49.5066, "lng": 0.19827, "population": 8286}, {"name": "Chaponost", "lat": 45.7102, "lng": 4.74221, "population": 8286}, {"name": "Vert-Saint-Denis", "lat": 48.56818, "lng": 2.62007, "population": 8275}, {"name": "Blain", "lat": 47.47563, "lng": -1.76449, "population": 8274}, {"name": "Nangis", "lat": 48.55535, "lng": 3.01306, "population": 8271}, {"name": "Carhaix-Plouguer", "lat": 48.27594, "lng": -3.57326, "population": 8270}, {"name": "Gairaut", "lat": 43.73936, "lng": 7.26244, "population": 8264}, {"name": "Lorgues", "lat": 43.49325, "lng": 6.3615, "population": 8237}, {"name": "La Pointe Rouge", "lat": 43.23853, "lng": 5.37679, "population": 8227}, {"name": "Noisy-le-Roi", "lat": 48.84445, "lng": 2.06345, "population": 8218}, {"name": "Roquevaire", "lat": 43.35021, "lng": 5.60414, "population": 8210}, {"name": "Évian-les-Bains", "lat": 46.40111, "lng": 6.58793, "population": 8207}, {"name": "Veauche", "lat": 45.56326, "lng": 4.29192, "population": 8189}, {"name": "Vieille Chapelle", "lat": 43.24963, "lng": 5.38048, "population": 8181}, {"name": "Talange", "lat": 49.23577, "lng": 6.17167, "population": 8175}, {"name": "Aulnoy-lez-Valenciennes", "lat": 50.33333, "lng": 3.53333, "population": 8172}, {"name": "Ceret", "lat": 42.48533, "lng": 2.74804, "population": 8171}, {"name": "Basse-Goulaine", "lat": 47.2151, "lng": -1.46598, "population": 8160}, {"name": "Honfleur", "lat": 49.41985, "lng": 0.23294, "population": 8148}, {"name": "Saint-Mitre", "lat": 43.3464, "lng": 5.42274, "population": 8134}, {"name": "Claix", "lat": 45.11994, "lng": 5.67292, "population": 8127}, {"name": "Crozon", "lat": 48.24643, "lng": -4.48993, "population": 8123}, {"name": "Cabriès", "lat": 43.44127, "lng": 5.37884, "population": 8122}, {"name": "Houplines", "lat": 50.69499, "lng": 2.91518, "population": 8119}, {"name": "Plaine 2", "lat": 48.91543, "lng": 2.36405, "population": 8115}, {"name": "Cébazat", "lat": 45.8314, "lng": 3.09992, "population": 8114}, {"name": "Bourg-Saint-Maurice", "lat": 45.61463, "lng": 6.76845, "population": 8114}, {"name": "Vern-sur-Seiche", "lat": 48.04585, "lng": -1.60242, "population": 8110}, {"name": "Mourenx", "lat": 43.3703, "lng": -0.62986, "population": 8109}, {"name": "Malzéville", "lat": 48.71235, "lng": 6.18468, "population": 8095}, {"name": "Essey-lès-Nancy", "lat": 48.705, "lng": 6.22691, "population": 8090}, {"name": "Doué-la-Fontaine", "lat": 47.19329, "lng": -0.27633, "population": 8089}, {"name": "Isle", "lat": 45.80461, "lng": 1.22621, "population": 8085}, {"name": "Lambesc", "lat": 43.65382, "lng": 5.26211, "population": 8084}, {"name": "Roussillon", "lat": 45.37388, "lng": 4.81496, "population": 8082}, {"name": "Saint-Rémy-lès-Chevreuse", "lat": 48.70708, "lng": 2.07692, "population": 8072}, {"name": "Perros-Guirec", "lat": 48.81411, "lng": -3.4437, "population": 8062}, {"name": "Saint-Grégoire", "lat": 48.15101, "lng": -1.68579, "population": 8058}, {"name": "Monistrol-sur-Loire", "lat": 45.29263, "lng": 4.17233, "population": 8049}, {"name": "Linselles", "lat": 50.73708, "lng": 3.07878, "population": 8049}, {"name": "Neufchâteau", "lat": 48.35557, "lng": 5.69602, "population": 8047}, {"name": "Saint-Paul-Trois-Châteaux", "lat": 44.34594, "lng": 4.76356, "population": 8028}, {"name": "Bessancourt", "lat": 49.03765, "lng": 2.20936, "population": 8026}, {"name": "Thaon-les-Vosges", "lat": 48.25, "lng": 6.41667, "population": 8009}, {"name": "Ingré", "lat": 47.91995, "lng": 1.82778, "population": 8001}, {"name": "La Ricamarie", "lat": 45.40536, "lng": 4.36944, "population": 7997}, {"name": "Velaux", "lat": 43.52839, "lng": 5.25661, "population": 7963}, {"name": "Vizille", "lat": 45.07819, "lng": 5.77074, "population": 7962}, {"name": "Revin", "lat": 49.94039, "lng": 4.63503, "population": 7960}, {"name": "Montmorillon", "lat": 46.42645, "lng": 0.86963, "population": 7960}, {"name": "Auxonne", "lat": 47.19255, "lng": 5.38726, "population": 7958}, {"name": "Le Luc", "lat": 43.39453, "lng": 6.31253, "population": 7953}, {"name": "Saint-Pierre-de-Féric", "lat": 43.71535, "lng": 7.23839, "population": 7940}, {"name": "Thuir", "lat": 42.6322, "lng": 2.75577, "population": 7933},