[{"name": "Tbilisi", "lat": 41.69143, "lng": 44.83412, "population": 1049498}, {"name": "Batumi", "lat": 41.64077, "lng": 41.6306, "population": 186949}, {"name": "Kutaisi", "lat": 42.26791, "lng": 42.69459, "population": 135201}, {"name": "Rustavi", "lat": 41.56271, "lng": 44.9787, "population": 128249}, {"name": "Sokhumi", "lat": 43.00697, "lng": 40.9893, "population": 65439}, {"name": "Gori", "lat": 41.98532, "lng": 44.1129, "population": 41933}, {"name": "Poti", "lat": 42.14272, "lng": 41.67384, "population": 41175}, {"name": "Zugdidi", "lat": 42.5084, "lng": 41.86796, "population": 40067}, {"name": "Ts’khinvali", "lat": 42.22764, "lng": 43.96861, "population": 32180}, {"name": "Stantsiya Novyy Afon", "lat": 43.08056, "lng": 40.83833, "population": 26636}, {"name": "Marneuli", "lat": 41.48758, "lng": 44.79845, "population": 26400}, {"name": "Khashuri", "lat": 41.99733, "lng": 43.59905, "population": 23949}, {"name": "Samtredia", "lat": 42.1537, "lng": 42.33517, "population": 20633}, {"name": "Zestaponi", "lat": 42.10752, "lng": 43.03291, "population": 20183}, {"name": "Telavi", "lat": 41.91957, "lng": 45.47002, "population": 19875}, {"name": "Kobuleti", "lat": 41.83283, "lng": 41.77823, "population": 17538}, {"name": "Akhaltsikhe", "lat": 41.63952, "lng": 42.98604, "population": 17445}, {"name": "Senaki", "lat": 42.27077, "lng": 42.06334, "population": 14991}, {"name": "Ozurgeti", "lat": 41.92336, "lng": 42.00525, "population": 13935}, {"name": "Gardabani", "lat": 41.45967, "lng": 45.08988, "population": 12364}, {"name": "Kaspi", "lat": 41.92776, "lng": 44.42355, "population": 12319}, {"name": "Chiatura", "lat": 42.29806, "lng": 43.29889, "population": 11943}, {"name": "Gagra", "lat": 43.27858, "lng": 40.27124, "population": 11807}, {"name": "Borjomi", "lat": 41.84692, "lng": 43.3971, "population": 11248}, {"name": "Kvareli", "lat": 41.95493, "lng": 45.81716, "population": 10177}, {"name": "Sagarejo", "lat": 41.73691, "lng": 45.32596, "population": 10166}, {"name": "Gudauri", "lat": 42.47797, "lng": 44.47616, "population": 10000}, {"name": "Gudauta", "lat": 43.10191, "lng": 40.62245, "population": 8752}, {"name": "Bolnisi", "lat": 41.45124, "lng": 44.53835, "population": 8461}, {"name": "Tqibuli", "lat": 42.34781, "lng": 42.99774, "population": 7957}, {"name": "Diok’nisi", "lat": 41.62933, "lng": 42.39171, "population": 7725}, {"name": "Khoni", "lat": 42.32535, "lng": 42.42243, "population": 7651}, {"name": "Chakvi", "lat": 41.72528, "lng": 41.73278, "population": 7492}, {"name": "Gali", "lat": 42.62705, "lng": 41.73645, "population": 7452}, {"name": "Akhalkalaki", "lat": 41.40514, "lng": 43.48629, "population": 7437}, {"name": "Mart’q’opi", "lat": 41.78733, "lng": 45.02305, "population": 7397}, {"name": "Dusheti", "lat": 42.08642, "lng": 44.695, "population": 7389}, {"name": "Mtskheta", "lat": 41.84514, "lng": 44.71875, "population": 7380}, {"name": "Sadakhlo", "lat": 41.2402, "lng": 44.7891, "population": 7337}, {"name": "Gurjaani", "lat": 41.74384, "lng": 45.80246, "population": 7217}, {"name": "Tsqnet’i", "lat": 41.69472, "lng": 44.69861, "population": 7166}, {"name": "Tsqaltubo", "lat": 42.32858, "lng": 42.59808, "population": 7104}, {"name": "Surami", "lat": 42.02431, "lng": 43.55556, "population": 6973}, {"name": "Kareli", "lat": 42.0215, "lng": 43.89553, "population": 6746}, {"name": "Lanchkhuti", "lat": 42.08744, "lng": 42.03611, "population": 6214}, {"name": "Sartich’ala", "lat": 41.7179, "lng": 45.1757, "population": 6009}, {"name": "Akhmeta", "lat": 42.03495, "lng": 45.20804, "population": 5664}, {"name": "Lagodekhi", "lat": 41.82747, "lng": 46.27495, "population": 5607}, {"name": "Kazreti", "lat": 41.38163, "lng": 44.41974, "population": 5547}, {"name": "Dedoplistsqaro", "lat": 41.46566, "lng": 46.10385, "population": 5460}, {"name": "Ochamchire", "lat": 42.71232, "lng": 41.46863, "population": 5238}, {"name": "Sachkhere", "lat": 42.33594, "lng": 43.40575, "population": 5235}, {"name": "Tqvarch'eli", "lat": 42.84035, "lng": 41.68007, "population": 5044}, {"name": "Tetritsqaro", "lat": 41.54379, "lng": 44.46181, "population": 5041}, {"name": "Vale", "lat": 41.61608, "lng": 42.88112, "population": 4982}, {"name": "Gantiadi", "lat": 43.38111, "lng": 40.07944, "population": 4902}, {"name": "Terjola", "lat": 42.18058, "lng": 42.9776, "population": 4888}, {"name": "Bzipi", "lat": 43.23294, "lng": 40.37667, "population": 4820}, {"name": "Tsnori", "lat": 41.618, "lng": 45.979, "population": 4767}, {"name": "Bagdadi", "lat": 41.81667, "lng": 46.03333, "population": 4564}, {"name": "Mat’ani", "lat": 42.07804, "lng": 45.19562, "population": 4451}, {"name": "Kveda Chkhorots’q’u", "lat": 42.49158, "lng": 42.1109, "population": 4357}, {"name": "Abasha", "lat": 42.20453, "lng": 42.20357, "population": 4133}, {"name": "Ingiri", "lat": 42.49632, "lng": 41.81218, "population": 4049}, {"name": "Bich’vinta", "lat": 43.15925, "lng": 40.33985, "population": 3986}, {"name": "Martvili", "lat": 42.41429, "lng": 42.37892, "population": 3966}, {"name": "K’urdghelauri", "lat": 41.92937, "lng": 45.4881, "population": 3962}, {"name": "Tsalka", "lat": 41.59822, "lng": 44.09112, "population": 3900}, {"name": "K’ardenakhi", "lat": 41.67364, "lng": 45.8893, "population": 3873}, {"name": "Ninotsminda", "lat": 41.26697, "lng": 43.58959, "population": 3844}, {"name": "Gulripshi", "lat": 42.93057, "lng": 41.10257, "population": 3797}, {"name": "Akhaldaba", "lat": 41.65395, "lng": 42.15163, "population": 3640}, {"name": "Tianeti", "lat": 42.10987, "lng": 44.96784, "population": 3549}, {"name": "Didi Lilo", "lat": 41.73611, "lng": 44.96472, "population": 3349}, {"name": "Laituri", "lat": 41.9125, "lng": 41.90917, "population": 3225}, {"name": "Dranda", "lat": 42.87167, "lng": 41.15333, "population": 3205}, {"name": "Vani", "lat": 42.08408, "lng": 42.51189, "population": 3151}, {"name": "Shaumiani", "lat": 41.35134, "lng": 44.7645, "population": 3107}, {"name": "Dmanisi", "lat": 41.33183, "lng": 44.20296, "population": 3099}, {"name": "Jvara", "lat": 41.52514, "lng": 44.3472, "population": 3038}, {"name": "Ochkhamuri", "lat": 41.85713, "lng": 41.83219, "population": 3024}, {"name": "Khobi", "lat": 42.31746, "lng": 41.9002, "population": 2970}, {"name": "Tsalenjikha", "lat": 42.60857, "lng": 42.06693, "population": 2938}, {"name": "Dzegvi", "lat": 41.84569, "lng": 44.60097, "population": 2911}, {"name": "Agara", "lat": 42.03761, "lng": 43.82382, "population": 2803}, {"name": "P’irveli Ot’obaia", "lat": 42.48586, "lng": 41.62295, "population": 2772}, {"name": "Makhinjauri", "lat": 41.67385, "lng": 41.69401, "population": 2736}, {"name": "Ts’inandali", "lat": 41.89315, "lng": 45.57129, "population": 2675}, {"name": "Zhinvali", "lat": 42.13181, "lng": 44.77264, "population": 2643}, {"name": "P’rimorsk’oe", "lat": 43.09236, "lng": 40.6965, "population": 2573}, {"name": "Nasakirali", "lat": 41.97305, "lng": 42.06509, "population": 2558}, {"name": "Oni", "lat": 42.58453, "lng": 43.44356, "population": 2480}, {"name": "Aspindza", "lat": 41.57314, "lng": 43.24842, "population": 2425}, {"name": "Baghdati", "lat": 42.06943, "lng": 42.82505, "population": 2412}, {"name": "Chkhorotsqu", "lat": 42.51954, "lng": 42.12734, "population": 2372}, {"name": "Narazeni", "lat": 42.37194, "lng": 41.91083, "population": 2345}, {"name": "Eshera", "lat": 43.04056, "lng": 40.93583, "population": 2141}, {"name": "K’atskhi", "lat": 42.28388, "lng": 43.20872, "population": 2000}, {"name": "Shorapani", "lat": 42.09595, "lng": 43.08248, "population": 1971}, {"name": "Ambrolauri", "lat": 42.52322, "lng": 43.14982, "population": 1952}, {"name": "Zahesi", "lat": 41.82458, "lng": 44.75361, "population": 1933}, {"name": "Saq’ulia", "lat": 42.13674, "lng": 42.55377, "population": 1869}, {"name": "Agubedia", "lat": 42.76846, "lng": 41.66852, "population": 1864}, {"name": "Bakuriani", "lat": 41.75303, "lng": 43.52907, "population": 1817}, {"name": "Akhaldaba", "lat": 41.92945, "lng": 43.48762, "population": 1763}, {"name": "Kharagauli", "lat": 42.02137, "lng": 43.19773, "population": 1738}, {"name": "Mestia", "lat": 43.0438, "lng": 42.72368, "population": 1689}, {"name": "Manglisi", "lat": 41.697, "lng": 44.3845, "population": 1673}, {"name": "Ch’lou", "lat": 42.88333, "lng": 41.49483, "population": 1609}, {"name": "Ureki", "lat": 41.99556, "lng": 41.77861, "population": 1591}, {"name": "Stepantsminda", "lat": 42.65691, "lng": 44.64311, "population": 1552}, {"name": "Akhali Atoni", "lat": 43.08427, "lng": 40.8185, "population": 1518}, {"name": "Lidzava", "lat": 43.17806, "lng": 40.36156, "population": 1506}, {"name": "Aghaiani", "lat": 41.91438, "lng": 44.54318, "population": 1505}, {"name": "Naruja", "lat": 41.90694, "lng": 41.95417, "population": 1501}, {"name": "Tsikhisdziri", "lat": 41.76659, "lng": 41.75517, "population": 1500}, {"name": "Chokhatauri", "lat": 42.01896, "lng": 42.23945, "population": 1454}, {"name": "Akhalgori", "lat": 42.12433, "lng": 44.48314, "population": 1420}, {"name": "Sighnaghi", "lat": 41.61918, "lng": 45.92227, "population": 1407}, {"name": "Kelasuri", "lat": 42.97877, "lng": 41.07067, "population": 1373}, {"name": "Shemokmedi", "lat": 41.9096, "lng": 42.06693, "population": 1322}, {"name": "Anaklia", "lat": 42.39302, "lng": 41.56227, "population": 1300}, {"name": "Kojori", "lat": 41.65887, "lng": 44.70006, "population": 1232}, {"name": "Orsant’ia", "lat": 42.46777, "lng": 41.67377, "population": 1200}, {"name": "Jvari", "lat": 42.71693, "lng": 42.052, "population": 1148}, {"name": "Bak’urianis Andezit’i", "lat": 41.73371, "lng": 43.47242, "population": 1085}, {"name": "Pasanauri", "lat": 42.3506, "lng": 44.68912, "population": 1084}, {"name": "Adigeni", "lat": 41.67555, "lng": 42.70291, "population": 1068}, {"name": "Aats’i", "lat": 43.13639, "lng": 40.73222, "population": 1061}, {"name": "Keda", "lat": 41.59948, "lng": 41.93946, "population": 1055}, {"name": "Ch’iauri", "lat": 41.70322, "lng": 46.15035, "population": 1044}, {"name": "Abgharkhuki", "lat": 43.11565, "lng": 40.70453, "population": 1024}, {"name": "Lentekhi", "lat": 42.78888, "lng": 42.72228, "population": 1020}, {"name": "Tsageri", "lat": 42.64534, "lng": 42.76911, "population": 1014}, {"name": "Khulo", "lat": 41.64517, "lng": 42.31464, "population": 874}, {"name": "Shuakhevi", "lat": 41.62566, "lng": 42.18615, "population": 566}, {"name": "Java", "lat": 42.38991, "lng": 43.92421, "population": 426}, {"name": "Khelvachauri", "lat": 41.58452, "lng": 41.6731, "population": 0}]