[{"name": "Saint Peter Port", "lat": 49.45981, "lng": -2.53527, "population": 16488}, {"name": "Vale Parish", "lat": 49.4944, "lng": -2.5179, "population": 9646}, {"name": "Saint Sampson", "lat": 49.48389, "lng": -2.52333, "population": 8966}, {"name": "Saint Pierre du Bois Parish", "lat": 49.45399, "lng": -2.63808, "population": 2001}, {"name": "Forest Parish", "lat": 49.42983, "lng": -2.60168, "population": 1624}, {"name": "Torteval", "lat": 49.43333, "lng": -2.65, "population": 0}, {"name": "St Anne", "lat": 49.71549, "lng": -2.20757, "population": 0}, {"name": "Saint Saviour", "lat": 49.45694, "lng": -2.63583, "population": 0}, {"name": "Castel", "lat": 49.46757, "lng": -2.60015, "population": 0}, {"name": "Saint Andrew", "lat": 49.44389, "lng": -2.58018, "population": 0}, {"name": "St Martin", "lat": 49.43713, "lng": -2.55479, "population": 0}]