[{"name": "Gibraltar", "lat": 36.14474, "lng": -5.35257, "population": 26544}, {"name": "Reclamation Areas", "lat": 36.14399, "lng": -5.35689, "population": 13690}, {"name": "South District", "lat": 36.11397, "lng": -5.34657, "population": 5380}, {"name": "Town Area", "lat": 36.12191, "lng": -5.34889, "population": 3238}, {"name": "Upper Town", "lat": 36.1356, "lng": -5.35146, "population": 2483}, {"name": "Sandpits", "lat": 36.13973, "lng": -5.35619, "population": 2020}]