[{"name": "Nuuk", "lat": 64.18347, "lng": -51.72157, "population": 14798}, {"name": "Sisimiut", "lat": 66.93946, "lng": -53.6735, "population": 5227}, {"name": "Ilulissat", "lat": 69.21981, "lng": -51.09861, "population": 4413}, {"name": "Qaqortoq", "lat": 60.71839, "lng": -46.03561, "population": 3224}, {"name": "Aasiaat", "lat": 68.70869, "lng": -52.86366, "population": 3005}, {"name": "Maniitsoq", "lat": 65.41506, "lng": -52.89822, "population": 2534}, {"name": "Tasiilaq", "lat": 65.61451, "lng": -37.63676, "population": 1985}, {"name": "Uummannaq", "lat": 70.67442, "lng": -52.12545, "population": 1407}, {"name": "Narsaq", "lat": 60.91298, "lng": -46.05055, "population": 1346}, {"name": "Paamiut", "lat": 61.99402, "lng": -49.66776, "population": 1308}, {"name": "Nanortalik", "lat": 60.14169, "lng": -45.24069, "population": 1185}, {"name": "Upernavik", "lat": 72.78358, "lng": -56.14933, "population": 1129}, {"name": "Qasigiannguit", "lat": 68.81926, "lng": -51.19221, "population": 1081}]