[{"name": "Athens", "lat": 37.98376, "lng": 23.72784, "population": 664046}, {"name": "Thessaloníki", "lat": 40.64072, "lng": 22.93493, "population": 317778}, {"name": "Pátra", "lat": 38.2462, "lng": 21.73508, "population": 168034}, {"name": "Piraeus", "lat": 37.94203, "lng": 23.64619, "population": 163688}, {"name": "Lárisa", "lat": 39.62847, "lng": 22.42112, "population": 146926}, {"name": "Peristéri", "lat": 38.01539, "lng": 23.69187, "population": 139981}, {"name": "Irákleion", "lat": 35.32787, "lng": 25.14341, "population": 137154}, {"name": "Kallithéa", "lat": 37.95, "lng": 23.7, "population": 100641}, {"name": "Acharnés", "lat": 38.08333, "lng": 23.73333, "population": 99346}, {"name": "Kalamariá", "lat": 40.5825, "lng": 22.95028, "population": 91518}, {"name": "Níkaia", "lat": 37.96667, "lng": 23.65, "population": 89380}, {"name": "Glyfáda", "lat": 37.86289, "lng": 23.75802, "population": 87305}, {"name": "Volos", "lat": 39.36923, "lng": 22.94769, "population": 86048}, {"name": "Ílion", "lat": 38.03333, "lng": 23.7, "population": 84793}, {"name": "Ilioúpoli", "lat": 37.93149, "lng": 23.76779, "population": 78153}, {"name": "Keratsíni", "lat": 37.9625, "lng": 23.61972, "population": 77077}, {"name": "Évosmos", "lat": 40.67056, "lng": 22.90833, "population": 74686}, {"name": "Khalándrion", "lat": 38.02369, "lng": 23.80068, "population": 74192}, {"name": "Néa Smýrni", "lat": 37.94504, "lng": 23.71416, "population": 73076}, {"name": "Maroúsi", "lat": 38.05, "lng": 23.8, "population": 72333}, {"name": "Agios Dimitrios", "lat": 37.93333, "lng": 23.73333, "population": 71294}, {"name": "Zográfos", "lat": 37.97574, "lng": 23.76911, "population": 71026}, {"name": "Aigáleo", "lat": 37.98333, "lng": 23.68333, "population": 69946}, {"name": "Néa Ionía", "lat": 38.0357, "lng": 23.75733, "population": 67134}, {"name": "Ioánnina", "lat": 39.66341, "lng": 20.85187, "population": 65574}, {"name": "Palaió Fáliro", "lat": 37.92812, "lng": 23.70105, "population": 64021}, {"name": "Korydallós", "lat": 37.98468, "lng": 23.64711, "population": 63445}, {"name": "Tríkala", "lat": 39.55493, "lng": 21.76837, "population": 61653}, {"name": "Výronas", "lat": 37.96105, "lng": 23.753, "population": 61308}, {"name": "Agía Paraskeví", "lat": 38.01667, "lng": 23.83333, "population": 59704}, {"name": "Galátsi", "lat": 38.01667, "lng": 23.75, "population": 59345}, {"name": "Chalkída", "lat": 38.46354, "lng": 23.60284, "population": 59125}, {"name": "Petroúpolis", "lat": 38.04187, "lng": 23.68494, "population": 58979}, {"name": "Sérres", "lat": 41.08499, "lng": 23.54757, "population": 58287}, {"name": "Políchni", "lat": 40.66671, "lng": 22.94881, "population": 56685}, {"name": "Ródos", "lat": 36.43556, "lng": 28.22199, "population": 56128}, {"name": "Kalamata", "lat": 37.03913, "lng": 22.11265, "population": 54100}, {"name": "Kavála", "lat": 40.93959, "lng": 24.40687, "population": 54027}, {"name": "Chaniá", "lat": 35.51124, "lng": 24.02921, "population": 53910}, {"name": "Kateríni", "lat": 40.26956, "lng": 22.50608, "population": 53293}, {"name": "Alexandroupoli", "lat": 40.84995, "lng": 25.87644, "population": 52979}, {"name": "Lamía", "lat": 38.89947, "lng": 22.4335, "population": 52006}, {"name": "Irákleio", "lat": 38.05282, "lng": 23.76523, "population": 49642}, {"name": "Xánthi", "lat": 41.13488, "lng": 24.888, "population": 48221}, {"name": "Kifisiá", "lat": 38.07438, "lng": 23.81106, "population": 47332}, {"name": "Agrínio", "lat": 38.62139, "lng": 21.40778, "population": 46899}, {"name": "Stavroúpoli", "lat": 40.66944, "lng": 22.93806, "population": 46008}, {"name": "Chaïdári", "lat": 38.01135, "lng": 23.66597, "population": 45642}, {"name": "Komotiní", "lat": 41.11758, "lng": 25.40587, "population": 45631}, {"name": "Sykiés", "lat": 40.64944, "lng": 22.95083, "population": 44955}, {"name": "Dráma", "lat": 41.15283, "lng": 24.1473, "population": 44823}, {"name": "Véroia", "lat": 40.52437, "lng": 22.20242, "population": 44464}, {"name": "Álimos", "lat": 37.91033, "lng": 23.72361, "population": 41720}, {"name": "Corfu", "lat": 39.62441, "lng": 19.92016, "population": 40047}, {"name": "Kozáni", "lat": 40.29931, "lng": 21.78984, "population": 36481}, {"name": "Thívai", "lat": 38.325, "lng": 23.31889, "population": 36477}, {"name": "Pylaía", "lat": 40.59918, "lng": 22.98613, "population": 34625}, {"name": "Ágioi Anárgyroi", "lat": 38.03013, "lng": 23.72379, "population": 34168}, {"name": "Argyroúpoli", "lat": 37.90594, "lng": 23.75035, "population": 34097}, {"name": "Áno Liósia", "lat": 38.08333, "lng": 23.7, "population": 33565}, {"name": "Kardítsa", "lat": 39.36485, "lng": 21.92191, "population": 32789}, {"name": "Néa Ionía", "lat": 39.37904, "lng": 22.92752, "population": 32661}, {"name": "Rethymno", "lat": 35.36555, "lng": 24.48232, "population": 32468}, {"name": "Cholargós", "lat": 38.0, "lng": 23.8, "population": 30840}, {"name": "Vrilissia", "lat": 38.03381, "lng": 23.82962, "population": 30741}, {"name": "Asprópyrgos", "lat": 38.06134, "lng": 23.58971, "population": 30251}, {"name": "Kórinthos", "lat": 37.94007, "lng": 22.9513, "population": 30176}, {"name": "Ptolemaḯda", "lat": 40.51472, "lng": 21.67861, "population": 30045}, {"name": "Gérakas", "lat": 38.02277, "lng": 23.8576, "population": 29939}, {"name": "Metamórfosi", "lat": 38.06576, "lng": 23.76356, "population": 29891}, {"name": "Voúla", "lat": 37.84221, "lng": 23.77651, "population": 28364}, {"name": "Kamaterón", "lat": 38.05586, "lng": 23.70515, "population": 28361}, {"name": "Mytilene", "lat": 39.10772, "lng": 26.55529, "population": 28322}, {"name": "Giannitsá", "lat": 40.79194, "lng": 22.4075, "population": 27817}, {"name": "Neapoli", "lat": 40.6532, "lng": 22.94156, "population": 27084}, {"name": "Elefthério - Kordelió", "lat": 40.66391, "lng": 22.89693, "population": 27067}, {"name": "Trípoli", "lat": 37.50959, "lng": 22.37883, "population": 26561}, {"name": "Agía Varvára", "lat": 37.98938, "lng": 23.66011, "population": 26550}, {"name": "Kaisarianí", "lat": 37.9634, "lng": 23.76523, "population": 26370}, {"name": "Néa Filadélfeia", "lat": 38.03491, "lng": 23.73811, "population": 25734}, {"name": "Moskháton", "lat": 37.94789, "lng": 23.6788, "population": 25441}, {"name": "Pérama", "lat": 37.96775, "lng": 23.5721, "population": 25389}, {"name": "Salamína", "lat": 37.96427, "lng": 23.49649, "population": 25370}, {"name": "Elefsína", "lat": 38.04135, "lng": 23.54295, "population": 24910}, {"name": "Chios", "lat": 38.36875, "lng": 26.13718, "population": 23953}, {"name": "Mégara", "lat": 37.99471, "lng": 23.34324, "population": 23456}, {"name": "Kilkís", "lat": 40.99302, "lng": 22.87433, "population": 22914}, {"name": "Dhafní", "lat": 37.95002, "lng": 23.73437, "population": 22913}, {"name": "Melíssia", "lat": 38.05, "lng": 23.83333, "population": 22741}, {"name": "Pýrgos", "lat": 37.67513, "lng": 21.44102, "population": 22399}, {"name": "Árgos", "lat": 37.63333, "lng": 22.73333, "population": 22209}, {"name": "Árta", "lat": 39.16014, "lng": 20.98561, "population": 21895}, {"name": "Livadeiá", "lat": 38.43616, "lng": 22.87665, "population": 21492}, {"name": "Artémida", "lat": 37.96727, "lng": 23.99684, "population": 21488}, {"name": "Péfki", "lat": 38.06019, "lng": 23.79264, "population": 21352}, {"name": "Oraiókastro", "lat": 40.73083, "lng": 22.91722, "population": 20852}, {"name": "Aígio", "lat": 38.24861, "lng": 22.08194, "population": 20422}, {"name": "Náousa", "lat": 40.62944, "lng": 22.06806, "population": 19887}, {"name": "Kos", "lat": 36.89295, "lng": 27.28768, "population": 19244}, {"name": "Koropí", "lat": 37.89886, "lng": 23.87181, "population": 19164}, {"name": "Édessa", "lat": 40.8026, "lng": 22.04751, "population": 18669}, {"name": "Peraía", "lat": 40.49874, "lng": 22.92617, "population": 18326}, {"name": "Flórina", "lat": 40.78197, "lng": 21.40981, "population": 17686}, {"name": "Panórama", "lat": 40.58779, "lng": 23.0315, "population": 17444}, {"name": "Néa Erythraía", "lat": 38.0927, "lng": 23.82223, "population": 17379}, {"name": "Préveza", "lat": 38.95617, "lng": 20.7505, "population": 17283}, {"name": "Ellinikó", "lat": 37.89013, "lng": 23.74406, "population": 17259}, {"name": "Amaliáda", "lat": 37.79842, "lng": 21.35068, "population": 16763}, {"name": "Ágios Athanásios", "lat": 40.71598, "lng": 22.72841, "population": 16563}, {"name": "Sparta", "lat": 37.07446, "lng": 22.43009, "population": 16239}, {"name": "Orestiáda", "lat": 41.50306, "lng": 26.52972, "population": 16221}, {"name": "Agios Ioannis Rentis", "lat": 37.96491, "lng": 23.66511, "population": 16050}, {"name": "Vári", "lat": 37.8332, "lng": 23.80311, "population": 15855}, {"name": "Meneméni", "lat": 40.65829, "lng": 22.89712, "population": 15706}, {"name": "Néa Mákri", "lat": 38.08733, "lng": 23.97642, "population": 15554}, {"name": "Távros", "lat": 37.97064, "lng": 23.69043, "population": 14972}, {"name": "Pallíni", "lat": 38.00514, "lng": 23.88302, "population": 14808}, {"name": "Paianía", "lat": 37.95527, "lng": 23.85443, "population": 14595}, {"name": "Náfplio", "lat": 37.56863, "lng": 22.80691, "population": 14582}, {"name": "Kalývia Thorikoú", "lat": 37.83894, "lng": 23.92505, "population": 14424}, {"name": "Thérmi", "lat": 40.54712, "lng": 23.01967, "population": 14373}, {"name": "Drapetsóna", "lat": 37.94988, "lng": 23.62309, "population": 13968}, {"name": "Efkarpía", "lat": 40.68797, "lng": 22.95348, "population": 13905}, {"name": "Papágou", "lat": 37.98642, "lng": 23.79347, "population": 13699}, {"name": "Alexándreia", "lat": 40.62667, "lng": 22.44417, "population": 13665}, {"name": "Náfpaktos", "lat": 38.39167, "lng": 21.8275, "population": 13415}, {"name": "Kastoria", "lat": 40.52165, "lng": 21.26341, "population": 13387}, {"name": "Péfka", "lat": 40.65806, "lng": 22.99378, "population": 13052}, {"name": "Néa Alikarnassós", "lat": 35.33893, "lng": 25.15972, "population": 12925}, {"name": "Mesolóngi", "lat": 38.37138, "lng": 21.43151, "population": 12785}, {"name": "Gázi", "lat": 35.32531, "lng": 25.06694, "population": 12606}, {"name": "Ierápetra", "lat": 35.01186, "lng": 25.74234, "population": 12355}, {"name": "Kálymnos", "lat": 36.9503, "lng": 26.98388, "population": 12324}, {"name": "Rafína", "lat": 38.01812, "lng": 24.00599, "population": 12168}, {"name": "Loutráki", "lat": 37.9783, "lng": 22.97781, "population": 11564}, {"name": "Zakynthos", "lat": 37.78022, "lng": 20.89555, "population": 11541}, {"name": "Ágios Nikólaos", "lat": 35.19106, "lng": 25.71524, "population": 11421}, {"name": "Ermoúpolis", "lat": 37.44466, "lng": 24.9429, "population": 11351}, {"name": "Ialysós", "lat": 36.41352, "lng": 28.15516, "population": 11331}, {"name": "Mándra", "lat": 38.06667, "lng": 23.5, "population": 11327}, {"name": "Diavatá", "lat": 40.68744, "lng": 22.85799, "population": 11140}, {"name": "Ymittos", "lat": 37.95342, "lng": 23.74897, "population": 11000}, {"name": "Týrnavos", "lat": 39.73778, "lng": 22.28917, "population": 10796}, {"name": "Grevená", "lat": 40.08452, "lng": 21.42744, "population": 10563}, {"name": "Fársala", "lat": 39.29472, "lng": 22.38472, "population": 10380}, {"name": "Néo Psychikó", "lat": 38.00624, "lng": 23.78373, "population": 10137}, {"name": "Polýgyros", "lat": 40.37704, "lng": 23.44135, "population": 10000}, {"name": "Triandría", "lat": 40.622, "lng": 22.97, "population": 9986}, {"name": "Ágios Stéfanos", "lat": 38.14657, "lng": 23.85608, "population": 9892}, {"name": "Néa Chalkidóna", "lat": 38.0271, "lng": 23.73051, "population": 9822}, {"name": "Argostólion", "lat": 38.18109, "lng": 20.48903, "population": 9820}, {"name": "Kiáto", "lat": 38.01321, "lng": 22.74839, "population": 9812}, {"name": "Anatolí", "lat": 39.63531, "lng": 20.86578, "population": 9798}, {"name": "Limín Mesoyaías", "lat": 37.89108, "lng": 24.00307, "population": 9686}, {"name": "Lykóvrysi", "lat": 38.06933, "lng": 23.78223, "population": 9650}, {"name": "Psychikó", "lat": 38.01324, "lng": 23.77223, "population": 9529}, {"name": "Markópoulo", "lat": 37.88333, "lng": 23.93333, "population": 9513}, {"name": "Igoumenítsa", "lat": 39.50342, "lng": 20.26728, "population": 9496}, {"name": "Néa Artáki", "lat": 38.52027, "lng": 23.63296, "population": 9489}, {"name": "Zefyri", "lat": 38.06647, "lng": 23.71701, "population": 9454}, {"name": "Néa Moudhaniá", "lat": 40.2439, "lng": 23.28484, "population": 9342}, {"name": "Síndos", "lat": 40.67045, "lng": 22.80545, "population": 9289}, {"name": "Spáta", "lat": 37.96163, "lng": 23.91514, "population": 9198}, {"name": "Epanomí", "lat": 40.42614, "lng": 22.92782, "population": 8979}, {"name": "Chrysoúpolis", "lat": 40.98556, "lng": 24.69389, "population": 8885}, {"name": "Néa Michanióna", "lat": 40.46371, "lng": 22.8617, "population": 8775}, {"name": "Sitia", "lat": 35.20783, "lng": 26.10467, "population": 8707}, {"name": "Lefkáda", "lat": 38.83036, "lng": 20.70442, "population": 8673}, {"name": "Didymóteicho", "lat": 41.349, "lng": 26.49377, "population": 8336}, {"name": "Néa Péramos", "lat": 38.00647, "lng": 23.42348, "population": 8333}, {"name": "Kalampáka", "lat": 39.70444, "lng": 21.62694, "population": 8138}, {"name": "Gastoúni", "lat": 37.85, "lng": 21.25, "population": 8114}, {"name": "Almyrós", "lat": 39.18222, "lng": 22.75944, "population": 7955}, {"name": "Giánnouli", "lat": 39.66717, "lng": 22.39597, "population": 7885}, {"name": "Koufália", "lat": 40.77778, "lng": 22.57194, "population": 7850}, {"name": "Lagkadás", "lat": 40.75, "lng": 23.06667, "population": 7764}, {"name": "Keratéa", "lat": 37.80585, "lng": 23.9774, "population": 7493}, {"name": "Argos Orestiko", "lat": 40.45354, "lng": 21.25889, "population": 7473}, {"name": "Filothéi", "lat": 38.02524, "lng": 23.78257, "population": 7302}, {"name": "Chalástra", "lat": 40.62643, "lng": 22.73291, "population": 7270}, {"name": "Néa Kallikráteia", "lat": 40.31312, "lng": 23.06343, "population": 7238}, {"name": "Trílofos", "lat": 40.46898, "lng": 22.9718, "population": 7227}, {"name": "Néa Pentéli", "lat": 38.06059, "lng": 23.85926, "population": 7198}, {"name": "Drosiá", "lat": 38.11977, "lng": 23.86428, "population": 7186}, {"name": "Marathónas", "lat": 38.15317, "lng": 23.96278, "population": 7170}, {"name": "Lávrio", "lat": 37.71445, "lng": 24.05647, "population": 7078}, {"name": "Náxos", "lat": 37.10556, "lng": 25.37639, "population": 7070}, {"name": "Polýkastro", "lat": 40.99444, "lng": 22.56909, "population": 7064}, {"name": "Elassóna", "lat": 39.89472, "lng": 22.18861, "population": 7060}, {"name": "Filiatrá", "lat": 37.15637, "lng": 21.58532, "population": 6970}, {"name": "Karpenísi", "lat": 38.91218, "lng": 21.79836, "population": 6888}, {"name": "Aegina", "lat": 37.74667, "lng": 23.4275, "population": 6867}, {"name": "Ámfissa", "lat": 38.52813, "lng": 22.37713, "population": 6854}, {"name": "Ágios Pávlos", "lat": 40.64075, "lng": 22.96039, "population": 6852}, {"name": "Krýa Vrýsi", "lat": 40.68738, "lng": 22.30516, "population": 6839}, {"name": "Messíni", "lat": 37.05111, "lng": 22.00778, "population": 6773}, {"name": "Soúda", "lat": 35.48717, "lng": 24.07344, "population": 6729}, {"name": "Litóchoro", "lat": 40.10056, "lng": 22.49778, "population": 6709}, {"name": "Néon Karlovásion", "lat": 37.79209, "lng": 26.7049, "population": 6708}, {"name": "Vasilikón", "lat": 38.42586, "lng": 23.67189, "population": 6571}, {"name": "Aridaía", "lat": 40.97306, "lng": 22.05639, "population": 6561}, {"name": "Áyios Konstandínos", "lat": 38.63337, "lng": 21.3995, "population": 6534}, {"name": "Anoixi", "lat": 38.13267, "lng": 23.85874, "population": 6510}, {"name": "Asvestochóri", "lat": 40.64125, "lng": 23.02528, "population": 6392}, {"name": "Moíres", "lat": 35.05143, "lng": 24.8733, "population": 6379}, {"name": "Paralía", "lat": 38.19833, "lng": 21.70263, "population": 6336}, {"name": "Gargaliánoi", "lat": 37.06518, "lng": 21.63809, "population": 6282}, {"name": "Anávyssos", "lat": 37.73414, "lng": 23.94389, "population": 6202}, {"name": "Thrakomakedónes", "lat": 38.12964, "lng": 23.75751, "population": 6200}, {"name": "Faliraki", "lat": 36.33981, "lng": 28.19942, "population": 6000}, {"name": "Néoi Epivátes", "lat": 40.49863, "lng": 22.91192, "population": 5984}, {"name": "Ampelóna", "lat": 39.74481, "lng": 22.36575, "population": 5961}, {"name": "Leondárion", "lat": 37.987, "lng": 23.85518, "population": 5929}, {"name": "Orchomenós", "lat": 38.4929, "lng": 22.97962, "population": 5919}, {"name": "Néa Anchiálos", "lat": 39.28015, "lng": 22.81819, "population": 5908}, {"name": "Zacháro", "lat": 37.48333, "lng": 21.65, "population": 5894}, {"name": "Ekáli", "lat": 38.11035, "lng": 23.83505, "population": 5889}, {"name": "Ovriá", "lat": 38.18866, "lng": 21.72903, "population": 5838}, {"name": "Psachná", "lat": 38.57852, "lng": 23.64326, "population": 5828}, {"name": "Káto Achaḯa", "lat": 38.15, "lng": 21.55, "population": 5752}, {"name": "Avlónas", "lat": 38.25149, "lng": 23.69554, "population": 5744}, {"name": "Palamás", "lat": 39.46667, "lng": 22.08333, "population": 5719}, {"name": "Diónysos", "lat": 38.10458, "lng": 23.87938, "population": 5651}, {"name": "Siátista", "lat": 40.26194, "lng": 21.54417, "population": 5612}, {"name": "Diakoptó", "lat": 38.19522, "lng": 22.19994, "population": 5603}, {"name": "Afántou", "lat": 36.29354, "lng": 28.16225, "population": 5562}, {"name": "Agriá", "lat": 39.34078, "lng": 23.01258, "population": 5519}, {"name": "Efpálio", "lat": 38.41949, "lng": 21.92908, "population": 5508}, {"name": "Xylókastro", "lat": 38.07762, "lng": 22.63166, "population": 5500}, {"name": "Fíliro", "lat": 40.69151, "lng": 23.0046, "population": 5495}, {"name": "Mýrina", "lat": 39.87483, "lng": 25.06359, "population": 5406}, {"name": "Féres", "lat": 40.89305, "lng": 26.17234, "population": 5403}, {"name": "Archángelos", "lat": 36.21492, "lng": 28.11487, "population": 5398}, {"name": "Plagiári", "lat": 40.47276, "lng": 22.9579, "population": 5392}, {"name": "Vrontádos", "lat": 38.40876, "lng": 26.12948, "population": 5323}, {"name": "Mourniés", "lat": 35.48228, "lng": 24.01253, "population": 5318}, {"name": "Páros", "lat": 37.08333, "lng": 25.15, "population": 5289}, {"name": "Tympáki", "lat": 35.07286, "lng": 24.76851, "population": 5285}, {"name": "Megalópoli", "lat": 37.40111, "lng": 22.14222, "population": 5283}, {"name": "Skiáthos", "lat": 39.16227, "lng": 23.49089, "population": 5187}, {"name": "Alivéri", "lat": 38.41667, "lng": 24.03333, "population": 5184}, {"name": "Sidirókastro", "lat": 41.23499, "lng": 23.38899, "population": 5177}, {"name": "Kárystos", "lat": 38.01333, "lng": 24.41611, "population": 5091}, {"name": "Kryonéri", "lat": 38.13712, "lng": 23.83055, "population": 5040}, {"name": "Kyparissía", "lat": 37.25111, "lng": 21.67361, "population": 5033}, {"name": "Dhrosiá", "lat": 38.48413, "lng": 23.54774, "population": 5020}, {"name": "Atalánti", "lat": 38.65111, "lng": 22.99917, "population": 4978}, {"name": "Makrochóri", "lat": 40.55125, "lng": 22.24955, "population": 4965}, {"name": "Agios Georgis", "lat": 39.72363, "lng": 19.69969, "population": 4958}, {"name": "Koskinoù", "lat": 36.38794, "lng": 28.21506, "population": 4948}, {"name": "Nigríta", "lat": 40.90528, "lng": 23.49944, "population": 4947}, {"name": "Stylída", "lat": 38.91667, "lng": 22.61667, "population": 4892}, {"name": "Chortiátis", "lat": 40.60954, "lng": 23.10014, "population": 4873}, {"name": "Aiánteio", "lat": 37.92135, "lng": 23.45877, "population": 4860}, {"name": "Pentéli", "lat": 38.05, "lng": 23.86667, "population": 4851}, {"name": "Vrachnaíika", "lat": 38.10722, "lng": 21.47869, "population": 4834}, {"name": "Kítsi", "lat": 37.85181, "lng": 23.84068, "population": 4788}, {"name": "Itéa", "lat": 38.43201, "lng": 22.42443, "population": 4782}, {"name": "Magoúla", "lat": 38.07989, "lng": 23.52108, "population": 4735}, {"name": "Darátsos", "lat": 35.49955, "lng": 23.97488, "population": 4732}, {"name": "Ampelákia", "lat": 37.95055, "lng": 23.52803, "population": 4710}, {"name": "Vónitsa", "lat": 38.91639, "lng": 20.88639, "population": 4703}, {"name": "Kremastí", "lat": 36.40981, "lng": 28.1192, "population": 4700}, {"name": "Kalochóri", "lat": 40.64189, "lng": 22.85734, "population": 4672}, {"name": "Río", "lat": 38.29558, "lng": 21.78504, "population": 4664}, {"name": "Ágioi Theódoroi", "lat": 37.92736, "lng": 23.14221, "population": 4643}, {"name": "Filippiáda", "lat": 39.20472, "lng": 20.88222, "population": 4619}, {"name": "Saraváli", "lat": 38.19036, "lng": 21.76244, "population": 4618}, {"name": "Tínos", "lat": 37.53753, "lng": 25.16343, "population": 4573}, {"name": "Skýdra", "lat": 40.76722, "lng": 22.15194, "population": 4562}, {"name": "Vágia", "lat": 38.31748, "lng": 23.17752, "population": 4535}, {"name": "Vasiliká", "lat": 40.47966, "lng": 23.13695, "population": 4519}, {"name": "Sápes", "lat": 41.02861, "lng": 25.69306, "population": 4506}, {"name": "Nerokoúros", "lat": 35.47587, "lng": 24.03995, "population": 4388}, {"name": "Zevgolateió", "lat": 37.93333, "lng": 22.8, "population": 4363}, {"name": "Eleftheroúpolis", "lat": 40.91389, "lng": 24.25139, "population": 4360}, {"name": "Mália", "lat": 35.28367, "lng": 25.46262, "population": 4343}, {"name": "Istiaía", "lat": 38.9552, "lng": 23.1521, "population": 4339}, {"name": "Aitolikó", "lat": 38.43704, "lng": 21.35358, "population": 4323}, {"name": "Gýtheio", "lat": 36.755, "lng": 22.56417, "population": 4279}, {"name": "Tragano", "lat": 37.67212, "lng": 21.41497, "population": 4276}, {"name": "Alíartos", "lat": 38.36667, "lng": 23.1, "population": 4275}, {"name": "Aigínio", "lat": 40.50139, "lng": 22.54, "population": 4275}, {"name": "Néa Magnisía", "lat": 40.68785, "lng": 22.84582, "population": 4266}, {"name": "Mystrás", "lat": 37.06853, "lng": 22.37216, "population": 4238}, {"name": "Kíssamos", "lat": 35.49459, "lng": 23.65375, "population": 4236}, {"name": "Korinós", "lat": 40.31659, "lng": 22.58817, "population": 4191}, {"name": "Vouliagméni", "lat": 37.81423, "lng": 23.77892, "population": 4180}, {"name": "Erétria", "lat": 38.40097, "lng": 23.8022, "population": 4166}, {"name": "Asopós", "lat": 36.72986, "lng": 22.85455, "population": 4164}, {"name": "Souflí", "lat": 41.19194, "lng": 26.29944, "population": 4149}, {"name": "Kanáli", "lat": 39.60556, "lng": 19.8925, "population": 4086}, {"name": "Schimatári", "lat": 38.35, "lng": 23.58333, "population": 4035}, {"name": "Amfilochía", "lat": 38.85944, "lng": 21.16639, "population": 4022}, {"name": "Prosotsáni", "lat": 41.18333, "lng": 23.96667, "population": 4021}, {"name": "Kranídi", "lat": 37.37974, "lng": 23.15969, "population": 4006}, {"name": "Spétses", "lat": 37.26191, "lng": 23.15943, "population": 4001}, {"name": "Fálanna", "lat": 39.71986, "lng": 22.39733, "population": 3987}, {"name": "Ano Arhanes", "lat": 35.23333, "lng": 25.16667, "population": 3913}, {"name": "Katsikás", "lat": 39.62281, "lng": 20.88758, "population": 3885}, {"name": "Néa Raidestós", "lat": 40.52447, "lng": 23.05375, "population": 3869}, {"name": "Deskáti", "lat": 39.92422, "lng": 21.81031, "population": 3856}, {"name": "Neméa", "lat": 37.82068, "lng": 22.66102, "population": 3853}, {"name": "Potamós", "lat": 39.6242, "lng": 19.87826, "population": 3840}, {"name": "Malesína", "lat": 38.62225, "lng": 23.2337, "population": 3833}, {"name": "Irákleia", "lat": 41.18217, "lng": 23.28243, "population": 3786}, {"name": "Mykonos", "lat": 37.44529, "lng": 25.32872, "population": 3783}, {"name": "Agía Marína", "lat": 37.82036, "lng": 23.84424, "population": 3765}, {"name": "Lixoúri", "lat": 38.20133, "lng": 20.43706, "population": 3752}, {"name": "Lechainá", "lat": 37.93333, "lng": 21.26667, "population": 3714}, {"name": "Stavrós", "lat": 40.66498, "lng": 23.70015, "population": 3672}, {"name": "Amýntaio", "lat": 40.68967, "lng": 21.67974, "population": 3671}, {"name": "Drymós", "lat": 40.78099, "lng": 22.95889, "population": 3659}, {"name": "Kýmina", "lat": 40.61354, "lng": 22.69278, "population": 3652}, {"name": "Póros", "lat": 37.49944, "lng": 23.45361, "population": 3651}, {"name": "Amárynthos", "lat": 38.393, "lng": 23.88492, "population": 3647}, {"name": "Andravída", "lat": 37.90588, "lng": 21.26936, "population": 3626}, {"name": "Gouménissa", "lat": 40.94604, "lng": 22.44974, "population": 3609}, {"name": "Lagyná", "lat": 40.72351, "lng": 23.0042, "population": 3591}, {"name": "Kolindrós", "lat": 40.47888, "lng": 22.48319, "population": 3590}, {"name": "Arkalochóri", "lat": 35.14634, "lng": 25.26538, "population": 3537}, {"name": "Néa Péramos", "lat": 40.83854, "lng": 24.3013, "population": 3514}, {"name": "Kalampáki", "lat": 41.05, "lng": 24.18333, "population": 3514}, {"name": "Rodhítsa", "lat": 38.88829, "lng": 22.4641, "population": 3509}, {"name": "Eleoúsa", "lat": 39.70639, "lng": 20.7925, "population": 3484}, {"name": "Chóra", "lat": 37.05106, "lng": 21.7169, "population": 3454}, {"name": "Áyios Nikólaos", "lat": 38.42051, "lng": 23.64772, "population": 3426}, {"name": "Kimméria", "lat": 41.14788, "lng": 24.93869, "population": 3424}, {"name": "Ágios Athanásios", "lat": 41.07463, "lng": 24.24545, "population": 3419}, {"name": "Kardía", "lat": 40.46909, "lng": 22.99378, "population": 3394}, {"name": "Sérvia", "lat": 40.17972, "lng": 21.99444, "population": 3390}, {"name": "Velventós", "lat": 40.25532, "lng": 22.07543, "population": 3378}, {"name": "Oía", "lat": 36.4626, "lng": 25.37637, "population": 3376}, {"name": "Leptokaryá", "lat": 40.06032, "lng": 22.5612, "population": 3366}, {"name": "Krinídes", "lat": 41.01396, "lng": 24.29647, "population": 3365}, {"name": "Kapandríti", "lat": 38.21579, "lng": 23.87938, "population": 3359}, {"name": "Vrakháti", "lat": 37.95895, "lng": 22.80573, "population": 3338}, {"name": "Perivólia", "lat": 35.48491, "lng": 23.99421, "population": 3320}, {"name": "Várda", "lat": 38.03058, "lng": 21.36506, "population": 3307}, {"name": "Lití", "lat": 40.74533, "lng": 22.97982, "population": 3302}, {"name": "Melissochóri", "lat": 40.76796, "lng": 22.92858, "population": 3287}, {"name": "Níkaia", "lat": 39.56667, "lng": 22.46667, "population": 3274}, {"name": "Oichalía", "lat": 39.60827, "lng": 21.97996, "population": 3271}, {"name": "Ierissós", "lat": 40.39748, "lng": 23.87505, "population": 3266}, {"name": "Thásos", "lat": 40.77806, "lng": 24.70944, "population": 3234}, {"name": "Kardamítsia", "lat": 39.67816, "lng": 20.81956, "population": 3172}, {"name": "Galatás", "lat": 35.49864, "lng": 23.96341, "population": 3166}, {"name": "Néos Marmarás", "lat": 40.0961, "lng": 23.78323, "population": 3158}, {"name": "Alepoú", "lat": 39.61594, "lng": 19.89564, "population": 3149}, {"name": "Paralía Avlídhos", "lat": 38.38002, "lng": 23.62842, "population": 3115}, {"name": "Sochós", "lat": 40.81788, "lng": 23.35546, "population": 3109}, {"name": "Kallithéa", "lat": 40.2739, "lng": 22.57775, "population": 3100}, {"name": "Vélo", "lat": 37.9761, "lng": 22.75985, "population": 3096}, {"name": "Agía Triáda", "lat": 40.50003, "lng": 22.87351, "population": 3096}, {"name": "Chalkidóna", "lat": 40.73184, "lng": 22.59992, "population": 3094}, {"name": "Chlói", "lat": 40.53918, "lng": 21.25923, "population": 3079}, {"name": "Néa Tríglia", "lat": 40.30575, "lng": 23.2066, "population": 3071}, {"name": "Vartholomió", "lat": 37.86219, "lng": 21.20575, "population": 3068}, {"name": "Dhráfi", "lat": 38.02375, "lng": 23.90788, "population": 3055}, {"name": "Maniákoi", "lat": 40.50064, "lng": 21.24446, "population": 3055}, {"name": "Géfyra", "lat": 40.73253, "lng": 22.69359, "population": 3052}, {"name": "Néa Mesimvría", "lat": 40.75158, "lng": 22.76904, "population": 3050}, {"name": "Velestíno", "lat": 39.38181, "lng": 22.74616, "population": 3044}, {"name": "Melíki", "lat": 40.51685, "lng": 22.39599, "population": 3033}, {"name": "Galaxídhion", "lat": 38.38067, "lng": 22.38001, "population": 3030}, {"name": "Leonídio", "lat": 37.16679, "lng": 22.85773, "population": 3020}, {"name": "Moláoi", "lat": 36.80757, "lng": 22.85132, "population": 3018}, {"name": "Amfíkleia", "lat": 38.63912, "lng": 22.59171, "population": 3012}, {"name": "Krókos", "lat": 40.26349, "lng": 21.8176, "population": 3004}, {"name": "Plomári", "lat": 38.97527, "lng": 26.37137, "population": 2996}, {"name": "Kými", "lat": 38.63477, "lng": 24.10287, "population": 2979}, {"name": "Ormýlia", "lat": 40.29451, "lng": 23.54332, "population": 2979}, {"name": "Eksochí", "lat": 39.68744, "lng": 20.8224, "population": 2975}, {"name": "Limín Khersonísou", "lat": 35.32297, "lng": 25.39275, "population": 2968}, {"name": "Aléa", "lat": 37.45469, "lng": 22.42068, "population": 2959}, {"name": "Néo Rýsi", "lat": 40.49605, "lng": 22.98794, "population": 2952}, {"name": "Kónitsa", "lat": 40.04861, "lng": 20.75667, "population": 2942}, {"name": "Fylí", "lat": 38.10235, "lng": 23.66901, "population": 2937}, {"name": "Kraniá Elassónas", "lat": 39.95094, "lng": 21.97078, "population": 2936}, {"name": "Panaitólion", "lat": 38.58316, "lng": 21.44729, "population": 2935}, {"name": "Lefkímmi", "lat": 39.42336, "lng": 20.07094, "population": 2935}, {"name": "Saronída", "lat": 37.74809, "lng": 23.91059, "population": 2932}, {"name": "Oinófyta", "lat": 38.31163, "lng": 23.64, "population": 2927}, {"name": "Stamáta", "lat": 38.12546, "lng": 23.88038, "population": 2906}, {"name": "Axioúpoli", "lat": 40.98582, "lng": 22.54165, "population": 2897}, {"name": "Ágios Vasíleios", "lat": 38.31464, "lng": 21.8164, "population": 2889}, {"name": "Skópelos", "lat": 39.12144, "lng": 23.72686, "population": 2886}, {"name": "Pediní", "lat": 39.59994, "lng": 20.84261, "population": 2871}, {"name": "Erythrés", "lat": 38.21741, "lng": 23.32234, "population": 2862}, {"name": "Asproválta", "lat": 40.73049, "lng": 23.7118, "population": 2838}, {"name": "Néos Mylótopos", "lat": 40.81872, "lng": 22.35489, "population": 2835}, {"name": "Katochí", "lat": 38.41237, "lng": 21.25258, "population": 2829}, {"name": "Neochórion", "lat": 38.40847, "lng": 21.27511, "population": 2827}, {"name": "Agiá", "lat": 39.71901, "lng": 22.75869, "population": 2827}, {"name": "Skála", "lat": 36.85, "lng": 22.66667, "population": 2817}, {"name": "Krousón", "lat": 35.23062, "lng": 24.98291, "population": 2811}, {"name": "Kainoúryion", "lat": 38.60453, "lng": 21.48776, "population": 2790}, {"name": "Violí Charáki", "lat": 35.35864, "lng": 24.43857, "population": 2785}, {"name": "Néa Kíos", "lat": 37.59023, "lng": 22.74342, "population": 2778}, {"name": "Kassándreia", "lat": 40.04835, "lng": 23.41362, "population": 2775}, {"name": "Loutrópoli Thermís", "lat": 39.18019, "lng": 26.48558, "population": 2772}, {"name": "Kaména Voúrla", "lat": 38.77844, "lng": 22.78573, "population": 2761}, {"name": "Káto Tithoréa", "lat": 38.60751, "lng": 22.71348, "population": 2753}, {"name": "Agía Marína", "lat": 37.1543, "lng": 26.85162, "population": 2743}, {"name": "Amygdaleónas", "lat": 40.96346, "lng": 24.36007, "population": 2724}, {"name": "Néa Palátia", "lat": 38.31942, "lng": 23.79649, "population": 2723}, {"name": "Choristí", "lat": 41.13056, "lng": 24.20843, "population": 2719}, {"name": "Palaiá Fókaia", "lat": 37.71998, "lng": 23.94792, "population": 2713}, {"name": "Níkiti", "lat": 40.22204, "lng": 23.66837, "population": 2711}, {"name": "Zipári", "lat": 36.87696, "lng": 27.20532, "population": 2706}, {"name": "Pláka Dílesi", "lat": 38.3495, "lng": 23.65056, "population": 2696}, {"name": "Spercheiáda", "lat": 38.90656, "lng": 22.12792, "population": 2691}, {"name": "Neápoli", "lat": 35.25627, "lng": 25.60415, "population": 2683}, {"name": "Néa Výssa", "lat": 41.58449, "lng": 26.54318, "population": 2673}, {"name": "Xiropótamos", "lat": 41.19206, "lng": 24.10385, "population": 2670}, {"name": "Polichnítos", "lat": 39.07911, "lng": 26.18215, "population": 2667}, {"name": "Aráchova", "lat": 38.47958, "lng": 22.5835, "population": 2657}, {"name": "Livádi", "lat": 40.12625, "lng": 22.15753, "population": 2655}, {"name": "Lékhaio", "lat": 37.93279, "lng": 22.85002, "population": 2643}, {"name": "Eirinoúpoli", "lat": 40.67806, "lng": 22.19278, "population": 2635}, {"name": "Paradeísi", "lat": 36.39967, "lng": 28.08368, "population": 2623}, {"name": "Náousa", "lat": 37.12181, "lng": 25.24014, "population": 2596}, {"name": "Megáli Panagía", "lat": 40.44505, "lng": 23.67999, "population": 2592}, {"name": "Pálairos", "lat": 38.783, "lng": 20.88183, "population": 2589}, {"name": "Anatolikó", "lat": 40.66152, "lng": 22.7119, "population": 2589}, {"name": "Íasmos", "lat": 41.12747, "lng": 25.18573, "population": 2586}, {"name": "Néa Vrasná", "lat": 40.70592, "lng": 23.6985, "population": 2577}, {"name": "Vrachnaíika", "lat": 38.16253, "lng": 21.66693, "population": 2571}, {"name": "Astakós", "lat": 38.53556, "lng": 21.08135, "population": 2569}, {"name": "Paramythiá", "lat": 39.47111, "lng": 20.51111, "population": 2568}, {"name": "Rododáfni", "lat": 38.26976, "lng": 22.04875, "population": 2564}, {"name": "Loutrá Aidhipsoú", "lat": 38.85695, "lng": 23.04739, "population": 2560}, {"name": "Livanátes", "lat": 38.711, "lng": 23.0503, "population": 2559}, {"name": "Petalídi", "lat": 36.95847, "lng": 21.92703, "population": 2555}, {"name": "Markópoulo Oropoú", "lat": 38.2898, "lng": 23.82475, "population": 2549}, {"name": "Anógeia", "lat": 35.29084, "lng": 24.88412, "population": 2545}, {"name": "Galátista", "lat": 40.4682, "lng": 23.28015, "population": 2537}, {"name": "Néa Zíchni", "lat": 41.03204, "lng": 23.8287, "population": 2530}, {"name": "Kéfalos", "lat": 36.74507, "lng": 26.95961, "population": 2528}, {"name": "Tsarítsani", "lat": 39.88117, "lng": 22.22758, "population": 2514}, {"name": "Selínia", "lat": 37.9332, "lng": 23.53147, "population": 2509}, {"name": "Ermióni", "lat": 37.38492, "lng": 23.24686, "population": 2505}, {"name": "Metsovo", "lat": 39.76944, "lng": 21.18222, "population": 2503}, {"name": "Stavrós", "lat": 38.89641, "lng": 22.37082, "population": 2489}, {"name": "Georgioupolis", "lat": 35.36225, "lng": 24.26013, "population": 2483}, {"name": "Ligourión", "lat": 37.61233, "lng": 23.03773, "population": 2482}, {"name": "Pélla", "lat": 40.76169, "lng": 22.52637, "population": 2476}, {"name": "Áyios Konstandínos", "lat": 38.75612, "lng": 22.85757, "population": 2471}, {"name": "Limenária", "lat": 40.62741, "lng": 24.5765, "population": 2471}, {"name": "Galatádes", "lat": 40.7559, "lng": 22.28062, "population": 2459}, {"name": "Perístasi", "lat": 40.27443, "lng": 22.54164, "population": 2454}, {"name": "Kanaláki", "lat": 39.23361, "lng": 20.6, "population": 2446}, {"name": "Pylí", "lat": 36.84472, "lng": 27.15932, "population": 2430}, {"name": "Símantra", "lat": 40.34563, "lng": 23.31026, "population": 2421}, {"name": "Traganón", "lat": 37.89789, "lng": 21.31245, "population": 2414}, {"name": "Vlachiótis", "lat": 36.86094, "lng": 22.70831, "population": 2404}, {"name": "Néa Málgara", "lat": 40.60985, "lng": 22.68196, "population": 2404}, {"name": "Néo Soúli", "lat": 41.09397, "lng": 23.64376, "population": 2399}, {"name": "Lefkónas", "lat": 41.10029, "lng": 23.49658, "population": 2388}, {"name": "Zagorá", "lat": 39.45, "lng": 23.1, "population": 2385}, {"name": "Vathí", "lat": 38.4049, "lng": 23.60332, "population": 2385}, {"name": "Párga", "lat": 39.28572, "lng": 20.40044, "population": 2379}, {"name": "Firá", "lat": 36.42107, "lng": 25.43087, "population": 2376}, {"name": "Delphi", "lat": 38.47942, "lng": 22.49357, "population": 2373}, {"name": "Palaióchora", "lat": 35.23128, "lng": 23.68185, "population": 2372}, {"name": "Eláteia", "lat": 38.6277, "lng": 22.76492, "population": 2372}, {"name": "Sými", "lat": 36.61547, "lng": 27.83619, "population": 2354}, {"name": "Pýlos", "lat": 36.91298, "lng": 21.6965, "population": 2345}, {"name": "Agiásos", "lat": 39.08295, "lng": 26.37218, "population": 2320}, {"name": "Sykoúrio", "lat": 39.75947, "lng": 22.58, "population": 2318}, {"name": "Vathýlakkos", "lat": 40.76942, "lng": 22.7088, "population": 2316}, {"name": "Arnaía", "lat": 40.48652, "lng": 23.59537, "population": 2300}, {"name": "Folói", "lat": 37.78978, "lng": 21.71975, "population": 2293}, {"name": "Evxinoúpolis", "lat": 39.18414, "lng": 22.73831, "population": 2281}, {"name": "Antimácheia", "lat": 36.80888, "lng": 27.09764, "population": 2251}, {"name": "Makrakómi", "lat": 38.9415, "lng": 22.11535, "population": 2245}, {"name": "Agía Paraskeví", "lat": 40.4815, "lng": 23.04863, "population": 2244}, {"name": "Karpathos", "lat": 35.50701, "lng": 27.21322, "population": 2243}, {"name": "Nikísiani", "lat": 40.94739, "lng": 24.14311, "population": 2236}, {"name": "Katoúna", "lat": 38.78547, "lng": 21.11417, "population": 2234}, {"name": "Platý", "lat": 40.64241, "lng": 22.53458, "population": 2228}, {"name": "Kyriáki", "lat": 38.35365, "lng": 22.78841, "population": 2227}, {"name": "Karítsa", "lat": 40.18745, "lng": 22.48171, "population": 2225}, {"name": "Ástros", "lat": 37.40395, "lng": 22.72118, "population": 2222}, {"name": "Néa Manoláda", "lat": 38.05378, "lng": 21.38189, "population": 2219}, {"name": "Trópaia", "lat": 37.73235, "lng": 21.95895, "population": 2217}, {"name": "Zarós", "lat": 35.1303, "lng": 24.90412, "population": 2205}, {"name": "Kopanós", "lat": 40.63382, "lng": 22.12893, "population": 2202}, {"name": "Karditsomagoúla", "lat": 39.39061, "lng": 21.9233, "population": 2200}, {"name": "Néa Lámpsakos", "lat": 38.43729, "lng": 23.62824, "population": 2196}, {"name": "Vrontoú", "lat": 40.19356, "lng": 22.43203, "population": 2196}, {"name": "Galatás", "lat": 37.49618, "lng": 23.44886, "population": 2195}, {"name": "Agía Paraskeví", "lat": 39.24792, "lng": 26.27178, "population": 2195}, {"name": "Palaió Tsiflíki", "lat": 40.90495, "lng": 24.35083, "population": 2195}, {"name": "Eloúnda", "lat": 35.265, "lng": 25.72127, "population": 2193}, {"name": "Zagkliveri", "lat": 40.57146, "lng": 23.28878, "population": 2169}, {"name": "Terpní", "lat": 40.91643, "lng": 23.48137, "population": 2169}, {"name": "Agía Varvára", "lat": 35.13715, "lng": 25.00131, "population": 2167}, {"name": "Echínos", "lat": 41.27558, "lng": 24.97237, "population": 2162}, {"name": "Néa Karváli", "lat": 40.96148, "lng": 24.51132, "population": 2160}, {"name": "Skoútari", "lat": 41.01871, "lng": 23.51971, "population": 2154}, {"name": "Káto Goúves", "lat": 35.32934, "lng": 25.31353, "population": 2153}, {"name": "Kompóti", "lat": 39.10255, "lng": 21.08389, "population": 2150}, {"name": "Káto Soúlion", "lat": 38.16803, "lng": 24.01628, "population": 2142}, {"name": "Anthoúsa", "lat": 38.02544, "lng": 23.87617, "population": 2132}, {"name": "Filiátes", "lat": 39.60111, "lng": 20.31194, "population": 2129}, {"name": "Mouzáki", "lat": 39.42972, "lng": 21.66361, "population": 2127}, {"name": "Alistráti", "lat": 41.06443, "lng": 23.95751, "population": 2127}, {"name": "Kypséli", "lat": 37.76021, "lng": 23.45448, "population": 2124}, {"name": "Mindilóglion", "lat": 38.18387, "lng": 21.70133, "population": 2120}, {"name": "Aianí", "lat": 40.16381, "lng": 21.81945, "population": 2119}, {"name": "Gónnoi", "lat": 39.86153, "lng": 22.47647, "population": 2113}, {"name": "Dióni", "lat": 38.02328, "lng": 23.93286, "population": 2111}, {"name": "Neochóri", "lat": 39.07025, "lng": 21.01892, "population": 2102}, {"name": "Mesopotamía", "lat": 40.50252, "lng": 21.1611, "population": 2099}, {"name": "Kipséli", "lat": 38.00288, "lng": 23.73755, "population": 2096}, {"name": "Khalkoútsion", "lat": 38.33263, "lng": 23.73188, "population": 2094}, {"name": "Lepenoú", "lat": 38.70839, "lng": 21.2897, "population": 2090}, {"name": "Tagarádes", "lat": 40.48893, "lng": 23.02229, "population": 2088}, {"name": "Kontariótissa", "lat": 40.22754, "lng": 22.461, "population": 2088}, {"name": "Galatiní", "lat": 40.31966, "lng": 21.55148, "population": 2085}, {"name": "Aria", "lat": 37.57372, "lng": 22.83539, "population": 2080}, {"name": "Ádendro", "lat": 40.67131, "lng": 22.60466, "population": 2079}, {"name": "Kostakioí", "lat": 39.13672, "lng": 20.95761, "population": 2078}, {"name": "Rodópoli", "lat": 38.11669, "lng": 23.87572, "population": 2078}, {"name": "Límni", "lat": 38.76667, "lng": 23.31667, "population": 2072}, {"name": "Rodolívos", "lat": 40.92055, "lng": 23.97489, "population": 2072}, {"name": "Pánormos", "lat": 36.97156, "lng": 26.93727, "population": 2069}, {"name": "Svorónos", "lat": 40.26805, "lng": 22.46366, "population": 2066}, {"name": "Kolchikón", "lat": 40.75662, "lng": 23.13377, "population": 2062}, {"name": "Sélero", "lat": 41.13382, "lng": 24.99408, "population": 2059}, {"name": "Ágios Geórgios", "lat": 38.39343, "lng": 22.93189, "population": 2045}, {"name": "Kleitoría", "lat": 37.897, "lng": 22.12208, "population": 2038}, {"name": "Loúros", "lat": 39.166, "lng": 20.75608, "population": 2033}, {"name": "Tycheró", "lat": 41.02878, "lng": 26.29455, "population": 2029}, {"name": "Íos", "lat": 36.72293, "lng": 25.2817, "population": 2024}, {"name": "Pentálofos", "lat": 40.74296, "lng": 22.85256, "population": 2022}, {"name": "Pikérmi", "lat": 38.00161, "lng": 23.94075, "population": 2009}, {"name": "Makrýgialos", "lat": 40.41551, "lng": 22.60392, "population": 2009}, {"name": "Yimnón", "lat": 38.44048, "lng": 23.884, "population": 2008}, {"name": "Néa Éfesos", "lat": 40.22923, "lng": 22.49811, "population": 2006}, {"name": "Agía Marína", "lat": 35.51778, "lng": 23.92675, "population": 2005}, {"name": "Kavallári", "lat": 40.71539, "lng": 23.04588, "population": 1993}, {"name": "Terpsithéa", "lat": 39.61898, "lng": 22.35087, "population": 1992}, {"name": "Episkopí", "lat": 40.68748, "lng": 22.1364, "population": 1990}, {"name": "Petroússa", "lat": 41.1947, "lng": 24.01731, "population": 1985}, {"name": "Mytilinioí", "lat": 37.72716, "lng": 26.90747, "population": 1982}, {"name": "Dílesi", "lat": 38.33762, "lng": 23.67077, "population": 1976}, {"name": "Ássiros", "lat": 40.82106, "lng": 23.03137, "population": 1975}, {"name": "Mólos", "lat": 38.80998, "lng": 22.64544, "population": 1974}, {"name": "Stefanovíkeio", "lat": 39.46354, "lng": 22.74198, "population": 1970}, {"name": "Paralía Vérgas", "lat": 37.00708, "lng": 22.15676, "population": 1966}, {"name": "Karyótissa", "lat": 40.76915, "lng": 22.31331, "population": 1965}, {"name": "Thérmo", "lat": 38.57358, "lng": 21.66628, "population": 1957}, {"name": "Lakkí", "lat": 37.13344, "lng": 26.85237, "population": 1956}, {"name": "Káto Scholári", "lat": 40.42906, "lng": 23.02978, "population": 1954}, {"name": "Epitálio", "lat": 37.62675, "lng": 21.49528, "population": 1953}, {"name": "Néa Apollonía", "lat": 40.62558, "lng": 23.44074, "population": 1953}, {"name": "Péta", "lat": 39.16667, "lng": 21.03472, "population": 1952}, {"name": "Néa Kerasiá", "lat": 40.47539, "lng": 22.86891, "population": 1948}, {"name": "Emporeío", "lat": 36.35816, "lng": 25.44615, "population": 1946}, {"name": "Néa Fókaia", "lat": 40.13333, "lng": 23.39754, "population": 1944}, {"name": "Arkhaía Kórinthos", "lat": 37.90953, "lng": 22.88353, "population": 1939}, {"name": "Genisséa", "lat": 41.06165, "lng": 24.96248, "population": 1935}, {"name": "Néos Skopós", "lat": 41.0239, "lng": 23.60927, "population": 1934}, {"name": "Néo Petrítsi", "lat": 41.27459, "lng": 23.29381, "population": 1932}, {"name": "Pellána", "lat": 37.20611, "lng": 22.3214, "population": 1931}, {"name": "Pefkochóri", "lat": 39.98784, "lng": 23.61219, "population": 1931}, {"name": "Kardámaina", "lat": 36.78305, "lng": 27.14289, "population": 1926}, {"name": "Martínon", "lat": 38.56817, "lng": 23.21458, "population": 1916}, {"name": "Ássos", "lat": 37.93955, "lng": 22.82223, "population": 1916}, {"name": "Agios Kirykos", "lat": 37.61472, "lng": 26.29444, "population": 1908}, {"name": "Afidnés", "lat": 38.20332, "lng": 23.83982, "population": 1908}, {"name": "Áyioi Apóstoloi", "lat": 38.29169, "lng": 23.91011, "population": 1904}, {"name": "Sykiá", "lat": 40.03874, "lng": 23.94046, "population": 1903}, {"name": "Makrísia", "lat": 37.60957, "lng": 21.60509, "population": 1902}, {"name": "Ýdra", "lat": 37.34976, "lng": 23.4656, "population": 1900}, {"name": "Gaïtánion", "lat": 37.79134, "lng": 20.87407, "population": 1899}, {"name": "Platýkampos", "lat": 39.61667, "lng": 22.53333, "population": 1889}, {"name": "Vathý", "lat": 37.74692, "lng": 26.98316, "population": 1888}, {"name": "Samos", "lat": 37.75427, "lng": 26.97699, "population": 1885}, {"name": "Kréstena", "lat": 37.59193, "lng": 21.62034, "population": 1864}, {"name": "Agnanteró", "lat": 39.48586, "lng": 21.84789, "population": 1859}, {"name": "Koutsopódi", "lat": 37.68426, "lng": 22.71355, "population": 1857}, {"name": "Megála Kalývia", "lat": 39.49693, "lng": 21.78802, "population": 1849}, {"name": "Fotolívos", "lat": 41.06013, "lng": 24.04724, "population": 1844}, {"name": "Itháki", "lat": 38.36421, "lng": 20.71848, "population": 1843}, {"name": "Pérama", "lat": 39.69331, "lng": 20.84656, "population": 1841}, {"name": "Maritsá", "lat": 36.36045, "lng": 28.1171, "population": 1841}, {"name": "Dório", "lat": 37.28824, "lng": 21.85625, "population": 1839}, {"name": "Chálki", "lat": 39.56853, "lng": 22.54017, "population": 1837}, {"name": "Makrychóri", "lat": 39.8, "lng": 22.48333, "population": 1835}, {"name": "Athíkia", "lat": 37.81675, "lng": 22.92939, "population": 1834}, {"name": "Mesiméri", "lat": 40.41344, "lng": 23.0075, "population": 1831}, {"name": "Kastélli", "lat": 35.20902, "lng": 25.33773, "population": 1828}, {"name": "Kálamos", "lat": 38.28447, "lng": 23.86308, "population": 1824}, {"name": "Chrysochóri", "lat": 40.93328, "lng": 24.71088, "population": 1818}, {"name": "Pórto Chéli", "lat": 37.32786, "lng": 23.14384, "population": 1817}, {"name": "Graviá", "lat": 38.67156, "lng": 22.43118, "population": 1811}, {"name": "Examília", "lat": 37.89736, "lng": 22.92832, "population": 1810}, {"name": "Mytikas", "lat": 38.44373, "lng": 23.65365, "population": 1808}, {"name": "Paralía", "lat": 40.2671, "lng": 22.59615, "population": 1801}, {"name": "Androúsa", "lat": 37.11008, "lng": 21.94343, "population": 1800}, {"name": "Mantoúdi", "lat": 38.79808, "lng": 23.47967, "population": 1794}, {"name": "Pýli", "lat": 39.45806, "lng": 21.61889, "population": 1790}, {"name": "Argyropoúli", "lat": 39.82567, "lng": 22.30689, "population": 1782}, {"name": "Kalloní", "lat": 39.23318, "lng": 26.20724, "population": 1776}, {"name": "Kalí", "lat": 40.81931, "lng": 22.17761, "population": 1773}, {"name": "Lófos", "lat": 40.24395, "lng": 22.38033, "population": 1772}, {"name": "Filótas", "lat": 40.6252, "lng": 21.70851, "population": 1772}, {"name": "Ágios Geórgios", "lat": 40.60215, "lng": 22.1943, "population": 1767}, {"name": "Proástio", "lat": 39.48682, "lng": 21.90288, "population": 1766}, {"name": "Plátanos", "lat": 37.66731, "lng": 21.61108, "population": 1764}, {"name": "Neochoroúda", "lat": 40.73817, "lng": 22.87557, "population": 1763}, {"name": "Kokkíni Cháni", "lat": 35.32827, "lng": 25.2581, "population": 1755}, {"name": "Káto Glykóvrysi", "lat": 36.82791, "lng": 22.77732, "population": 1753}, {"name": "Káto Lekhónia", "lat": 39.33091, "lng": 23.03957, "population": 1751}, {"name": "Desfína", "lat": 38.41685, "lng": 22.52928, "population": 1748}, {"name": "Skála", "lat": 37.32218, "lng": 26.543, "population": 1747}, {"name": "Prómachoi", "lat": 41.02517, "lng": 22.00437, "population": 1740}, {"name": "Evropós", "lat": 40.89703, "lng": 22.55277, "population": 1734}, {"name": "Skýros", "lat": 38.90417, "lng": 24.56306, "population": 1732}, {"name": "Schísma Eloúndas", "lat": 35.25757, "lng": 25.72796, "population": 1730}, {"name": "Áthyra", "lat": 40.82615, "lng": 22.59279, "population": 1722}, {"name": "Thesprotikó", "lat": 39.25114, "lng": 20.78528, "population": 1718}, {"name": "Ágios Nikólaos", "lat": 40.24926, "lng": 23.69616, "population": 1714}, {"name": "Lianovérgi", "lat": 40.63526, "lng": 22.5082, "population": 1712}, {"name": "Ritíni", "lat": 40.28835, "lng": 22.28361, "population": 1711}, {"name": "Elikístra", "lat": 38.21592, "lng": 21.80117, "population": 1710}, {"name": "Tríkala", "lat": 40.59814, "lng": 22.55733, "population": 1704}, {"name": "Zonianá", "lat": 35.29502, "lng": 24.82944, "population": 1703}, {"name": "Mouzaki", "lat": 37.73565, "lng": 20.82291, "population": 1702}, {"name": "Khiliomódhi", "lat": 37.81016, "lng": 22.86972, "population": 1699}, {"name": "Aristoménis", "lat": 37.08632, "lng": 21.83959, "population": 1696}, {"name": "Tsotíli", "lat": 40.26147, "lng": 21.32533, "population": 1695}, {"name": "Anthíli", "lat": 38.85, "lng": 22.47906, "population": 1693}, {"name": "Néa Sánta", "lat": 40.84084, "lng": 22.92163, "population": 1693}, {"name": "Pyrgetós", "lat": 39.91869, "lng": 22.59339, "population": 1681}, {"name": "Sofikón", "lat": 37.79412, "lng": 23.05204, "population": 1679}, {"name": "Pontisméno", "lat": 41.20885, "lng": 23.28325, "population": 1666}, {"name": "Ágios Loukás", "lat": 40.71799, "lng": 22.29545, "population": 1665}, {"name": "Dhokímion", "lat": 38.61352, "lng": 21.38072, "population": 1664}, {"name": "Livaderó", "lat": 40.03455, "lng": 21.94279, "population": 1663}, {"name": "Vassilies", "lat": 35.27064, "lng": 25.13783, "population": 1662}, {"name": "Kontokáli", "lat": 39.64436, "lng": 19.85194, "population": 1660}, {"name": "Pérama", "lat": 35.3703, "lng": 24.70345, "population": 1655}, {"name": "Manoláda", "lat": 38.04708, "lng": 21.34814, "population": 1650}, {"name": "Rízia", "lat": 41.6249, "lng": 26.42771, "population": 1645}, {"name": "Kalávryta", "lat": 38.03222, "lng": 22.1125, "population": 1629}, {"name": "Patitírion", "lat": 39.14657, "lng": 23.86494, "population": 1628}, {"name": "Goúrnes", "lat": 35.32626, "lng": 25.2774, "population": 1628}, {"name": "Kavásila", "lat": 37.87581, "lng": 21.26422, "population": 1623}, {"name": "Néa Mádytos", "lat": 40.62275, "lng": 23.56102, "population": 1621}, {"name": "Koróni", "lat": 36.79526, "lng": 21.95794, "population": 1620}, {"name": "Strymonikó", "lat": 41.04144, "lng": 23.31487, "population": 1619}, {"name": "Palaiá Epídavros", "lat": 37.63847, "lng": 23.15609, "population": 1618}, {"name": "Periyiáli", "lat": 37.94041, "lng": 22.83946, "population": 1616}, {"name": "Kýria", "lat": 41.099, "lng": 24.28915, "population": 1611}, {"name": "Ambelókipoi", "lat": 37.75809, "lng": 20.87248, "population": 1606}, {"name": "Néa Flogitá", "lat": 40.26108, "lng": 23.22107, "population": 1604}, {"name": "Verdikoússa", "lat": 39.78175, "lng": 21.97728, "population": 1602}, {"name": "Sylivainiótika", "lat": 38.16139, "lng": 22.33156, "population": 1595}, {"name": "Néa Pélla", "lat": 40.76516, "lng": 22.49173, "population": 1595}, {"name": "Aghios Panteleímon", "lat": 38.11643, "lng": 23.98182, "population": 1591}, {"name": "Karellás", "lat": 37.93445, "lng": 23.86484, "population": 1579}, {"name": "Mitrópoli", "lat": 39.33933, "lng": 21.83751, "population": 1572}, {"name": "Mavrothálassa", "lat": 40.89427, "lng": 23.75048, "population": 1572}, {"name": "Chrysó", "lat": 41.05806, "lng": 23.65108, "population": 1571}, {"name": "Tsiflikópoulo", "lat": 39.65624, "lng": 20.83882, "population": 1571}, {"name": "Thymianá", "lat": 38.31439, "lng": 26.13259, "population": 1566}, {"name": "Megalochóri", "lat": 39.55982, "lng": 21.84195, "population": 1564}, {"name": "Stavráki", "lat": 39.65614, "lng": 20.81806, "population": 1563}, {"name": "Sevastianá", "lat": 40.76874, "lng": 22.12346, "population": 1561}, {"name": "Sourotí", "lat": 40.47274, "lng": 23.09197, "population": 1560}, {"name": "Néa Iraklítsa", "lat": 40.86442, "lng": 24.3165, "population": 1560}, {"name": "Néa Poteídaia", "lat": 40.19409, "lng": 23.32832, "population": 1559}, {"name": "Néa Potídhaia", "lat": 40.19428, "lng": 23.32874, "population": 1559}, {"name": "Míthymna", "lat": 39.36781, "lng": 26.17639, "population": 1558}, {"name": "Árnissa", "lat": 40.79555, "lng": 21.83577, "population": 1556}, {"name": "Koryfí", "lat": 40.60286, "lng": 22.50681, "population": 1552}, {"name": "Áno Kómi", "lat": 40.2266, "lng": 21.82827, "population": 1547}, {"name": "Tsikalariá", "lat": 35.47623, "lng": 24.06274, "population": 1545}, {"name": "Magoúla", "lat": 37.08007, "lng": 22.40469, "population": 1545}, {"name": "Aetós", "lat": 37.24536, "lng": 21.83264, "population": 1540}, {"name": "Lagós", "lat": 41.45102, "lng": 26.46067, "population": 1536}, {"name": "Pappádos", "lat": 39.03905, "lng": 26.45598, "population": 1534}, {"name": "Domokós", "lat": 39.12722, "lng": 22.30028, "population": 1531}, {"name": "Kavýli", "lat": 41.56225, "lng": 26.5147, "population": 1531}, {"name": "Skópelos", "lat": 39.02922, "lng": 26.44836, "population": 1530}, {"name": "Stavrós", "lat": 40.58939, "lng": 22.30861, "population": 1529}, {"name": "Grizáno", "lat": 39.63192, "lng": 22.05258, "population": 1528}, {"name": "Gra Liyiá", "lat": 35.01467, "lng": 25.69127, "population": 1528}, {"name": "Angelochóri", "lat": 40.67862, "lng": 22.19933, "population": 1526}, {"name": "Fyteíes", "lat": 38.69524, "lng": 21.18467, "population": 1516}, {"name": "Aravissós", "lat": 40.84352, "lng": 22.30178, "population": 1513}, {"name": "Ágios Pétros", "lat": 40.86725, "lng": 22.58298, "population": 1505}, {"name": "Kopanáki", "lat": 37.28913, "lng": 21.81854, "population": 1500}, {"name": "Thrapsanón", "lat": 35.18798, "lng": 25.28091, "population": 1499}, {"name": "Politiká", "lat": 38.59673, "lng": 23.54457, "population": 1498}, {"name": "Pelasgía", "lat": 38.94813, "lng": 22.8398, "population": 1497}, {"name": "Vathý", "lat": 37.7642, "lng": 23.48011, "population": 1495}, {"name": "Aktaío", "lat": 38.30444, "lng": 21.7944, "population": 1494}, {"name": "Koíla", "lat": 40.33055, "lng": 21.79102, "population": 1493}, {"name": "Palaiochóri", "lat": 40.49186, "lng": 23.64928, "population": 1489}, {"name": "Dravískos", "lat": 40.92393, "lng": 23.87119, "population": 1488}, {"name": "Zygós", "lat": 41.0132, "lng": 24.38132, "population": 1485}, {"name": "Triandaíika", "lat": 38.6553, "lng": 21.38315, "population": 1484}, {"name": "Rizómylos", "lat": 39.42763, "lng": 22.74717, "population": 1482}, {"name": "Profítis Ilías", "lat": 35.20555, "lng": 25.09985, "population": 1482}, {"name": "Mitroúsi", "lat": 41.07041, "lng": 23.46064, "population": 1479}, {"name": "Kaparéllion", "lat": 38.23697, "lng": 23.21411, "population": 1478}, {"name": "Filótion", "lat": 37.05167, "lng": 25.49829, "population": 1477}, {"name": "Pérdika", "lat": 39.36967, "lng": 20.30419, "population": 1476}, {"name": "Palaífyto", "lat": 40.78283, "lng": 22.27388, "population": 1475}, {"name": "Nisí", "lat": 40.6361, "lng": 22.38884, "population": 1473}, {"name": "Kokkinóchoma", "lat": 40.9269, "lng": 24.30805, "population": 1472}, {"name": "Synoikismós Chavaríou", "lat": 37.85575, "lng": 21.38789, "population": 1466}, {"name": "Mouzourás", "lat": 35.53885, "lng": 24.15554, "population": 1462}, {"name": "Aíyira", "lat": 38.14846, "lng": 22.35426, "population": 1462}, {"name": "Vlycháda", "lat": 38.02734, "lng": 23.43663, "population": 1462}, {"name": "Tolón", "lat": 37.52021, "lng": 22.8586, "population": 1460}, {"name": "Fílla", "lat": 38.44177, "lng": 23.68306, "population": 1459}, {"name": "Áno Merá", "lat": 37.44904, "lng": 25.39095, "population": 1459}, {"name": "Agkathiá", "lat": 40.55535, "lng": 22.47083, "population": 1459}, {"name": "Soúrpi", "lat": 39.10319, "lng": 22.89789, "population": 1457}, {"name": "Falaisía", "lat": 37.28678, "lng": 22.17252, "population": 1455}, {"name": "Antikyra", "lat": 38.38333, "lng": 22.63333, "population": 1448}, {"name": "Lávara", "lat": 41.26957, "lng": 26.38522, "population": 1447}, {"name": "Vlachópoulo", "lat": 37.03186, "lng": 21.79158, "population": 1446}, {"name": "Kinéta", "lat": 37.96843, "lng": 23.21351, "population": 1446}, {"name": "Xylaganí", "lat": 40.97437, "lng": 25.42022, "population": 1445}, {"name": "Gérgeri", "lat": 35.13281, "lng": 24.94963, "population": 1444}, {"name": "Neápolis", "lat": 38.67144, "lng": 21.36274, "population": 1442}, {"name": "Xilópolis", "lat": 40.92669, "lng": 23.17854, "population": 1442}, {"name": "Keramotí", "lat": 40.85591, "lng": 24.70595, "population": 1438}, {"name": "Thespiés", "lat": 38.303, "lng": 23.15016, "population": 1437}, {"name": "Grammatikó", "lat": 38.20251, "lng": 23.96504, "population": 1432}, {"name": "Melíti", "lat": 40.83434, "lng": 21.58426, "population": 1432}, {"name": "Meligalás", "lat": 37.21667, "lng": 21.96667, "population": 1431}, {"name": "Skála Oropoú", "lat": 38.31964, "lng": 23.78763, "population": 1430}, {"name": "Portariá", "lat": 39.3895, "lng": 22.99948, "population": 1429}, {"name": "Kalýves", "lat": 35.45046, "lng": 24.17507, "population": 1429}, {"name": "Andros", "lat": 37.8367, "lng": 24.9367, "population": 1428}, {"name": "Mavrommáti", "lat": 39.42386, "lng": 21.69379, "population": 1426}, {"name": "Kouvarás", "lat": 37.82711, "lng": 23.96715, "population": 1426}, {"name": "Néa Karyá", "lat": 40.90621, "lng": 24.70726, "population": 1426}, {"name": "Askós", "lat": 40.74946, "lng": 23.38755, "population": 1426}, {"name": "Skotoússa", "lat": 41.12844, "lng": 23.38174, "population": 1415}, {"name": "Koímisi", "lat": 41.21282, "lng": 23.30035, "population": 1414}, {"name": "Díon", "lat": 40.17169, "lng": 22.48463, "population": 1413}, {"name": "Artesianó", "lat": 39.40194, "lng": 21.89649, "population": 1412}, {"name": "Kleidí", "lat": 40.56632, "lng": 22.59033, "population": 1412}, {"name": "Kítros", "lat": 40.37399, "lng": 22.57862, "population": 1412}, {"name": "Rízoma", "lat": 39.66432, "lng": 21.73541, "population": 1410}, {"name": "Megáli Khóra", "lat": 38.64629, "lng": 21.37309, "population": 1408}, {"name": "Zárkos", "lat": 39.6086, "lng": 22.12336, "population": 1407}, {"name": "Afrátion", "lat": 38.45212, "lng": 23.68775, "population": 1405}, {"name": "Iliokentima", "lat": 40.94931, "lng": 24.78859, "population": 1405}, {"name": "Vounoplagiá", "lat": 39.69161, "lng": 20.78597, "population": 1404}, {"name": "Palaiochóri", "lat": 40.94338, "lng": 24.17747, "population": 1404}, {"name": "Akrolímni", "lat": 40.6802, "lng": 22.2645, "population": 1398}, {"name": "Akráta", "lat": 38.15469, "lng": 22.3183, "population": 1393}, {"name": "Atsipópoulo", "lat": 35.35253, "lng": 24.43378, "population": 1392}, {"name": "Arsénio", "lat": 40.71412, "lng": 22.15923, "population": 1389}, {"name": "Vasilikí", "lat": 39.63984, "lng": 21.70448, "population": 1388}, {"name": "Polydéndri", "lat": 38.216, "lng": 23.86806, "population": 1385}, {"name": "Potamiá", "lat": 40.71633, "lng": 24.72859, "population": 1383}, {"name": "Erátyra", "lat": 40.34253, "lng": 21.51333, "population": 1383}, {"name": "Chairóneia", "lat": 38.49551, "lng": 22.84424, "population": 1382}, {"name": "Kleítos", "lat": 40.4314, "lng": 21.85806, "population": 1382}, {"name": "Perivóli", "lat": 39.41936, "lng": 20.01469, "population": 1378}, {"name": "Katastárion", "lat": 37.83012, "lng": 20.75755, "population": 1378}, {"name": "Lápas", "lat": 38.09755, "lng": 21.41861, "population": 1377}, {"name": "Varybóbi", "lat": 38.12723, "lng": 23.78729, "population": 1377}, {"name": "Asopía", "lat": 38.29882, "lng": 23.50189, "population": 1375}, {"name": "Néos Oropós", "lat": 39.15064, "lng": 20.73636, "population": 1375}, {"name": "Krithiá", "lat": 40.84184, "lng": 22.98292, "population": 1374}, {"name": "Perdíkkas", "lat": 40.56001, "lng": 21.69764, "population": 1372}, {"name": "Kastélla", "lat": 38.57048, "lng": 23.63131, "population": 1370}, {"name": "Agía Galíni", "lat": 35.09707, "lng": 24.68818, "population": 1369}, {"name": "Langádhia", "lat": 37.68186, "lng": 22.03002, "population": 1363}, {"name": "Ávato", "lat": 40.96279, "lng": 24.80441, "population": 1357}, {"name": "Ágio Pnévma", "lat": 41.10142, "lng": 23.67992, "population": 1353}, {"name": "Kírra", "lat": 38.42944, "lng": 22.44443, "population": 1348}, {"name": "Lárdos", "lat": 36.09419, "lng": 28.01565, "population": 1348}, {"name": "Sámi", "lat": 38.25081, "lng": 20.64686, "population": 1347}, {"name": "Adámas", "lat": 36.72506, "lng": 24.44685, "population": 1347}, {"name": "Mataránga", "lat": 38.52359, "lng": 21.47325, "population": 1344}, {"name": "Savália", "lat": 37.82158, "lng": 21.29425, "population": 1339}, {"name": "Ágios Spyrídon", "lat": 40.20778, "lng": 22.44311, "population": 1337}, {"name": "Axós", "lat": 40.80223, "lng": 22.36158, "population": 1336}, {"name": "Kalýves Polygýrou", "lat": 40.28659, "lng": 23.39033, "population": 1333}, {"name": "Patrída", "lat": 40.56071, "lng": 22.18545, "population": 1330}, {"name": "Krokeés", "lat": 36.88297, "lng": 22.54683, "population": 1329}, {"name": "Ágios Vasíleios", "lat": 40.66424, "lng": 23.11373, "population": 1328}, {"name": "Varnávas", "lat": 38.22358, "lng": 23.92307, "population": 1326}, {"name": "Neochorópoulo", "lat": 39.62553, "lng": 20.83558, "population": 1326}, {"name": "Geráki", "lat": 36.99227, "lng": 22.70663, "population": 1323}, {"name": "Moúlki", "lat": 37.99319, "lng": 22.72531, "population": 1316}, {"name": "Gázoros", "lat": 41.02557, "lng": 23.77574, "population": 1315}, {"name": "Pappadátes", "lat": 39.31444, "lng": 20.79314, "population": 1313}, {"name": "Kríkellos", "lat": 38.94532, "lng": 21.1791, "population": 1312}, {"name": "Lithakiá", "lat": 37.71935, "lng": 20.83013, "population": 1307}, {"name": "Mikró Monastíri", "lat": 40.7043, "lng": 22.54112, "population": 1306}, {"name": "Arkoúdi", "lat": 37.84681, "lng": 21.11022, "population": 1305}, {"name": "Eleftherés", "lat": 40.84666, "lng": 24.25431, "population": 1303}, {"name": "Thouría", "lat": 37.08356, "lng": 22.04891, "population": 1302}, {"name": "Pithári", "lat": 35.51672, "lng": 24.08653, "population": 1302}, {"name": "Itéa", "lat": 39.45669, "lng": 22.16577, "population": 1301}, {"name": "Géfyra", "lat": 36.68715, "lng": 23.03509, "population": 1299}, {"name": "Pétra", "lat": 39.32682, "lng": 26.17648, "population": 1299}, {"name": "Monastiráki", "lat": 38.85053, "lng": 20.94458, "population": 1299}, {"name": "Pásion", "lat": 38.01294, "lng": 22.72814, "population": 1298}, {"name": "Kritsá", "lat": 35.15821, "lng": 25.64459, "population": 1296}, {"name": "Loutrós", "lat": 40.58873, "lng": 22.39976, "population": 1296}, {"name": "Diavatós", "lat": 40.54606, "lng": 22.26686, "population": 1294}, {"name": "Oreoí", "lat": 38.95034, "lng": 23.09191, "population": 1293}, {"name": "Áyios Thomás", "lat": 38.27717, "lng": 23.58906, "population": 1292}, {"name": "Exaplátanos", "lat": 40.97643, "lng": 22.12958, "population": 1292}, {"name": "Royítika", "lat": 38.18268, "lng": 21.68414, "population": 1288}, {"name": "Mavrochóri", "lat": 40.51224, "lng": 21.32038, "population": 1287}, {"name": "Káto Miliá", "lat": 40.25403, "lng": 22.34342, "population": 1286}, {"name": "Argalastí", "lat": 39.22627, "lng": 23.21868, "population": 1285}, {"name": "Arfará", "lat": 37.15619, "lng": 22.04485, "population": 1285}, {"name": "Chalkiádes", "lat": 39.15981, "lng": 20.93292, "population": 1284}, {"name": "Varvásaina", "lat": 37.67106, "lng": 21.49886, "population": 1280}, {"name": "Exochi", "lat": 40.63017, "lng": 23.04271, "population": 1280}, {"name": "Iráklion", "lat": 40.7568, "lng": 23.0356, "population": 1278}, {"name": "Kalós Agrós", "lat": 41.10543, "lng": 24.0857, "population": 1275}, {"name": "Palaiokómi", "lat": 40.87068, "lng": 23.90121, "population": 1274}, {"name": "Áfytos", "lat": 40.09915, "lng": 23.4367, "population": 1273}, {"name": "Pythagóreio", "lat": 37.69102, "lng": 26.94341, "population": 1272}, {"name": "Drépanon", "lat": 37.53888, "lng": 22.89323, "population": 1272}, {"name": "Vília", "lat": 38.16716, "lng": 23.33659, "population": 1269}, {"name": "Vári", "lat": 37.39859, "lng": 24.94904, "population": 1266}, {"name": "Soroní", "lat": 36.36212, "lng": 28.00267, "population": 1265}, {"name": "Káto Asítai", "lat": 35.20271, "lng": 24.99827, "population": 1264}, {"name": "Áyios Vasílios", "lat": 37.79763, "lng": 22.79727, "population": 1264}, {"name": "Graikochóri", "lat": 39.49789, "lng": 20.27608, "population": 1263}, {"name": "Asímion", "lat": 35.04321, "lng": 25.09277, "population": 1259}, {"name": "Grammenítsa", "lat": 39.18444, "lng": 20.97933, "population": 1258}, {"name": "Skarmagkás", "lat": 38.01133, "lng": 23.60303, "population": 1255}, {"name": "Pámfila", "lat": 39.15697, "lng": 26.5217, "population": 1251}, {"name": "Ammochóri", "lat": 40.78203, "lng": 21.48458, "population": 1250}, {"name": "Aidipsós", "lat": 38.87924, "lng": 23.04691, "population": 1249}, {"name": "Kandíla", "lat": 38.70564, "lng": 20.94749, "population": 1245}, {"name": "Vergína", "lat": 40.48654, "lng": 22.31735, "population": 1242}, {"name": "Mesariá", "lat": 36.39893, "lng": 25.44807, "population": 1233}, {"name": "Neochóri", "lat": 41.05231, "lng": 23.57997, "population": 1227}, {"name": "Chávari", "lat": 37.84842, "lng": 21.38403, "population": 1225}, {"name": "Vólakas", "lat": 41.31661, "lng": 24.00215, "population": 1225}, {"name": "Profítis Ilías", "lat": 40.81373, "lng": 22.16166, "population": 1225}, {"name": "Gerakaroú", "lat": 40.62666, "lng": 23.21566, "population": 1223}, {"name": "Angelókastro", "lat": 38.56585, "lng": 21.29631, "population": 1220}, {"name": "Chóra", "lat": 37.70374, "lng": 26.90454, "population": 1218}, {"name": "Áno Lekhónia", "lat": 39.32763, "lng": 23.05395, "population": 1214}, {"name": "Próchoma", "lat": 40.79826, "lng": 22.66659, "population": 1214}, {"name": "Kastaniés", "lat": 41.64551, "lng": 26.47676, "population": 1214}, {"name": "Néa Seléfkeia", "lat": 39.52461, "lng": 20.25519, "population": 1213}, {"name": "Myrsíni", "lat": 37.92117, "lng": 21.237, "population": 1213}, {"name": "Limnokhórion", "lat": 38.14115, "lng": 21.48047, "population": 1213}, {"name": "Prínos", "lat": 40.7409, "lng": 24.57787, "population": 1211}, {"name": "Omvriakí", "lat": 39.10118, "lng": 22.27106, "population": 1210}, {"name": "Sfendámi", "lat": 40.41307, "lng": 22.54677, "population": 1209}, {"name": "Kallifóni", "lat": 39.27712, "lng": 21.96128, "population": 1208}, {"name": "Archaía Olympía", "lat": 37.64788, "lng": 21.6271, "population": 1208}, {"name": "Roviés", "lat": 38.80971, "lng": 23.23073, "population": 1206}, {"name": "Mándalo", "lat": 40.85677, "lng": 22.21264, "population": 1204}, {"name": "Portariá", "lat": 40.28405, "lng": 23.29549, "population": 1202}, {"name": "Káto Dhiminió", "lat": 38.0249, "lng": 22.73294, "population": 1201}, {"name": "Virós", "lat": 39.5834, "lng": 19.8827, "population": 1201}, {"name": "Kamárai", "lat": 38.29881, "lng": 21.99892, "population": 1200}, {"name": "Akraifnía", "lat": 38.45663, "lng": 23.22093, "population": 1195}, {"name": "Elaiochóri", "lat": 40.8203, "lng": 24.24373, "population": 1195}, {"name": "Archontochóri", "lat": 38.70053, "lng": 21.03896, "population": 1194}, {"name": "Alífeira", "lat": 37.53923, "lng": 21.86266, "population": 1189}, {"name": "Makrychóri", "lat": 39.43978, "lng": 21.96582, "population": 1188}, {"name": "Álli Meriá", "lat": 39.37039, "lng": 22.9835, "population": 1188}, {"name": "Néa Tírins", "lat": 37.60793, "lng": 22.81996, "population": 1186}, {"name": "Sikyón", "lat": 37.9823, "lng": 22.72462, "population": 1185}, {"name": "Palaiókipos", "lat": 39.05563, "lng": 26.45053, "population": 1184}, {"name": "Tríkeri", "lat": 39.10114, "lng": 23.07669, "population": 1182}, {"name": "Stalís", "lat": 35.29257, "lng": 25.43292, "population": 1182}, {"name": "Palaiomonástiro", "lat": 39.46269, "lng": 21.65793, "population": 1182}, {"name": "Pyrgetós", "lat": 39.55276, "lng": 21.74846, "population": 1179}, {"name": "Kallithéa", "lat": 40.07374, "lng": 23.44637, "population": 1179}, {"name": "Sosándra", "lat": 40.99894, "lng": 22.03254, "population": 1178}, {"name": "Angelochóri", "lat": 40.49717, "lng": 22.8344, "population": 1178}, {"name": "Mória", "lat": 39.13248, "lng": 26.51698, "population": 1176}, {"name": "Próti", "lat": 40.94411, "lng": 24.00118, "population": 1176}, {"name": "Néo Agionéri", "lat": 40.80826, "lng": 22.70733, "population": 1176}, {"name": "Kastráki", "lat": 39.71692, "lng": 21.61865, "population": 1172}, {"name": "Fáros", "lat": 38.39959, "lng": 23.62275, "population": 1171}, {"name": "Lákkoma", "lat": 40.39139, "lng": 23.05578, "population": 1171}, {"name": "Kampánis", "lat": 40.88951, "lng": 22.91682, "population": 1170}, {"name": "Lálas", "lat": 37.70936, "lng": 21.72117, "population": 1168}, {"name": "Methóni", "lat": 36.81973, "lng": 21.70486, "population": 1165}, {"name": "Koilás", "lat": 37.4123, "lng": 23.12553, "population": 1165}, {"name": "Kalí Vrýsi", "lat": 41.14653, "lng": 23.90667, "population": 1163}, {"name": "Loukísia", "lat": 38.47946, "lng": 23.44796, "population": 1161}, {"name": "Perivolákion", "lat": 40.74418, "lng": 23.03571, "population": 1160}, {"name": "Neochóri", "lat": 41.51131, "lng": 26.4574, "population": 1160}, {"name": "Néon Monastírion", "lat": 39.23988, "lng": 22.27465, "population": 1159}, {"name": "Pigí", "lat": 39.51061, "lng": 21.70103, "population": 1158}, {"name": "Arrianá", "lat": 41.08131, "lng": 25.69494, "population": 1158}, {"name": "Pánormos", "lat": 35.41815, "lng": 24.69091, "population": 1157}, {"name": "Taxiárches", "lat": 39.57565, "lng": 21.89245, "population": 1157}, {"name": "Rizómata", "lat": 40.35061, "lng": 22.21079, "population": 1157}, {"name": "Sárti", "lat": 40.09369, "lng": 23.97859, "population": 1156}, {"name": "Kouloúra", "lat": 40.54652, "lng": 22.31795, "population": 1156}, {"name": "Néa Róda", "lat": 40.38119, "lng": 23.92374, "population": 1153}, {"name": "Áratos", "lat": 41.08139, "lng": 25.55186, "population": 1152}, {"name": "Ayía Triás", "lat": 37.63707, "lng": 22.80504, "population": 1151}, {"name": "Anaráchi", "lat": 40.49234, "lng": 21.57279, "population": 1147}, {"name": "Loutráki", "lat": 40.97116, "lng": 21.94659, "population": 1146}, {"name": "Paralía Ofryníou", "lat": 40.76663, "lng": 23.90039, "population": 1146}, {"name": "Anávra", "lat": 39.18996, "lng": 22.09308, "population": 1145}, {"name": "Loutrá Oraías Elénis", "lat": 37.86466, "lng": 22.99614, "population": 1145}, {"name": "Perachóra", "lat": 38.03021, "lng": 22.94902, "population": 1141}, {"name": "Rodotópi", "lat": 39.70822, "lng": 20.72656, "population": 1140}, {"name": "Pteleós", "lat": 39.05261, "lng": 22.95271, "population": 1140}, {"name": "Domvraína", "lat": 38.253, "lng": 22.98211, "population": 1138}, {"name": "Kardamás", "lat": 37.76729, "lng": 21.33946, "population": 1138}, {"name": "Kainoúryion", "lat": 38.79283, "lng": 22.7247, "population": 1138}, {"name": "Áno Sýros", "lat": 37.44997, "lng": 24.93562, "population": 1138}, {"name": "Prámanta", "lat": 39.52306, "lng": 21.10139, "population": 1137}, {"name": "Pýrgos", "lat": 35.00611, "lng": 25.15191, "population": 1134}, {"name": "Isthmía", "lat": 37.91356, "lng": 23.0046, "population": 1134}, {"name": "Vareiá", "lat": 39.07941, "lng": 26.57777, "population": 1133}, {"name": "Stános", "lat": 38.80453, "lng": 21.17461, "population": 1132}, {"name": "Mokhós", "lat": 35.26342, "lng": 25.42305, "population": 1132}, {"name": "Kalá Déndra", "lat": 41.09941, "lng": 23.42396, "population": 1131}, {"name": "Mýki", "lat": 41.24384, "lng": 24.92084, "population": 1130}, {"name": "Kalývia", "lat": 40.75508, "lng": 22.21753, "population": 1130}, {"name": "Astypálaia", "lat": 36.55, "lng": 26.35, "population": 1129}, {"name": "Kyrás Vrýsi", "lat": 37.91295, "lng": 22.98651, "population": 1128}, {"name": "Néa Plágia", "lat": 40.26537, "lng": 23.20376, "population": 1127}, {"name": "Káto Kamíla", "lat": 41.02119, "lng": 23.48336, "population": 1127}, {"name": "Parapótamos", "lat": 39.54858, "lng": 20.32436, "population": 1126}, {"name": "Komniná", "lat": 40.59057, "lng": 21.77671, "population": 1126}, {"name": "Témeni", "lat": 38.23707, "lng": 22.12533, "population": 1125}, {"name": "Farakláta", "lat": 38.20236, "lng": 20.52014, "population": 1123}, {"name": "Ápsalos", "lat": 40.8924, "lng": 22.05709, "population": 1121}, {"name": "Mantamádos", "lat": 39.31003, "lng": 26.33629, "population": 1120}, {"name": "Paravóla", "lat": 38.61472, "lng": 21.52046, "population": 1118}, {"name": "Koutselió", "lat": 39.58808, "lng": 20.91197, "population": 1118}, {"name": "Loutrá", "lat": 39.05695, "lng": 26.54476, "population": 1116}, {"name": "Neos Voutzás", "lat": 38.04312, "lng": 23.97749, "population": 1116}, {"name": "Léchovo", "lat": 40.58442, "lng": 21.49218, "population": 1115}, {"name": "Akriní", "lat": 40.43492, "lng": 21.90609, "population": 1113}, {"name": "Platanórevma", "lat": 40.20083, "lng": 22.02488, "population": 1112}, {"name": "Oropós", "lat": 38.30326, "lng": 23.75549, "population": 1111}, {"name": "Anéza", "lat": 39.08658, "lng": 20.923, "population": 1111}, {"name": "Ólynthos", "lat": 40.29147, "lng": 23.34205, "population": 1111}, {"name": "Menídi", "lat": 39.04213, "lng": 21.11875, "population": 1110}, {"name": "Páchni", "lat": 41.30506, "lng": 24.89438, "population": 1110}, {"name": "Prokópi", "lat": 38.73402, "lng": 23.4906, "population": 1108}, {"name": "Rizó", "lat": 40.73331, "lng": 22.13674, "population": 1106}, {"name": "Chrysavgí", "lat": 40.76478, "lng": 23.08104, "population": 1106}, {"name": "Neochóri", "lat": 37.90794, "lng": 21.20392, "population": 1105}, {"name": "Sitagroí", "lat": 41.11067, "lng": 24.02755, "population": 1105}, {"name": "Vamvakoú", "lat": 39.33708, "lng": 22.41983, "population": 1104}, {"name": "Valteró", "lat": 41.17927, "lng": 23.32022, "population": 1102}, {"name": "Provatás", "lat": 41.06825, "lng": 23.3903, "population": 1099}, {"name": "Kallíthiro", "lat": 39.28099, "lng": 21.90491, "population": 1098}, {"name": "Fíki", "lat": 39.51602, "lng": 21.65556, "population": 1098}, {"name": "Agía Triáda", "lat": 38.35505, "lng": 22.90881, "population": 1098}, {"name": "Rizári", "lat": 40.78373, "lng": 22.088, "population": 1098}, {"name": "Kallífytos", "lat": 41.1728, "lng": 24.21527, "population": 1098}, {"name": "Malakónta", "lat": 38.4, "lng": 23.76667, "population": 1097}, {"name": "Kyprínos", "lat": 41.57542, "lng": 26.22905, "population": 1095}, {"name": "Palekastro", "lat": 35.19793, "lng": 26.25429, "population": 1094}, {"name": "Mikrópolis", "lat": 41.19351, "lng": 23.8157, "population": 1094}, {"name": "Eleoúsa", "lat": 39.15278, "lng": 20.96214, "population": 1093}, {"name": "Marína", "lat": 40.692, "lng": 22.10099, "population": 1091}, {"name": "Ágios Matthaíos", "lat": 39.49506, "lng": 19.87336, "population": 1088}, {"name": "Lianokládhion", "lat": 38.91655, "lng": 22.30336, "population": 1085}, {"name": "Vraná", "lat": 38.12497, "lng": 23.95198, "population": 1082}, {"name": "Xinó Neró", "lat": 40.69028, "lng": 21.62324, "population": 1081}, {"name": "Lýkeio", "lat": 41.06413, "lng": 25.6857, "population": 1081}, {"name": "Áyios Adhrianós", "lat": 37.59975, "lng": 22.8456, "population": 1080}, {"name": "Kyllíni", "lat": 37.93542, "lng": 21.14503, "population": 1079}, {"name": "Árma", "lat": 38.35121, "lng": 23.48599, "population": 1078}, {"name": "Pappadhátai", "lat": 38.52816, "lng": 21.45016, "population": 1077}, {"name": "Káto Lipochóri", "lat": 40.75754, "lng": 22.17962, "population": 1074}, {"name": "Pelópi", "lat": 37.67444, "lng": 21.59344, "population": 1073}, {"name": "Goúmero", "lat": 37.76236, "lng": 21.61853, "population": 1072}, {"name": "Ampeleíes", "lat": 40.83417, "lng": 22.38767, "population": 1070}, {"name": "Marathókampos", "lat": 37.72674, "lng": 26.68964, "population": 1069}, {"name": "Arísvi", "lat": 41.07, "lng": 25.59041, "population": 1068}, {"name": "Alfeioúsa", "lat": 37.64019, "lng": 21.5375, "population": 1067}, {"name": "Mavrovoúni", "lat": 40.78243, "lng": 22.15629, "population": 1067}, {"name": "Sardínia", "lat": 38.89003, "lng": 21.20619, "population": 1064}, {"name": "Gómfoi", "lat": 39.46413, "lng": 21.69342, "population": 1064}, {"name": "Magoúla", "lat": 38.41178, "lng": 23.82128, "population": 1063}, {"name": "Oxílithos", "lat": 38.57988, "lng": 24.11184, "population": 1061}, {"name": "Émponas", "lat": 36.22683, "lng": 27.85645, "population": 1061}, {"name": "Vamvakófyto", "lat": 41.17916, "lng": 23.39602, "population": 1061}, {"name": "Kokkári", "lat": 37.77908, "lng": 26.89179, "population": 1060}, {"name": "Póros", "lat": 38.15369, "lng": 20.7712, "population": 1059}, {"name": "Karpochóri", "lat": 39.33575, "lng": 22.01129, "population": 1059}, {"name": "Galatás", "lat": 38.35742, "lng": 21.56222, "population": 1057}, {"name": "Stratónion", "lat": 40.51406, "lng": 23.82471, "population": 1057}, {"name": "Steíri", "lat": 38.40831, "lng": 22.71162, "population": 1056}, {"name": "Kokkónion", "lat": 37.97061, "lng": 22.78018, "population": 1056}, {"name": "Asíni", "lat": 37.54431, "lng": 22.86435, "population": 1055}, {"name": "Kynopiástes", "lat": 39.56785, "lng": 19.88362, "population": 1054}, {"name": "Petrochóri", "lat": 41.08742, "lng": 24.84092, "population": 1052}, {"name": "Polykárpi", "lat": 40.92598, "lng": 22.01634, "population": 1049}, {"name": "Karyés", "lat": 37.29119, "lng": 22.50066, "population": 1048}, {"name": "Dídyma", "lat": 37.4625, "lng": 23.17183, "population": 1047}, {"name": "Ouranoupolis", "lat": 40.33333, "lng": 23.98333, "population": 1047}, {"name": "Vanáton", "lat": 37.79446, "lng": 20.85188, "population": 1045}, {"name": "Platariá", "lat": 39.45044, "lng": 20.27781, "population": 1044}, {"name": "Eresós", "lat": 39.16973, "lng": 25.93437, "population": 1042}, {"name": "Charopó", "lat": 41.26031, "lng": 23.37279, "population": 1042}, {"name": "Fillýra", "lat": 41.11667, "lng": 25.63333, "population": 1041}, {"name": "Stathmós Mourión", "lat": 41.26378, "lng": 22.83855, "population": 1040}, {"name": "Péplos", "lat": 40.95755, "lng": 26.26577, "population": 1037}, {"name": "Magoúla", "lat": 39.45395, "lng": 21.80351, "population": 1036}, {"name": "Áris", "lat": 37.0992, "lng": 22.00443, "population": 1036}, {"name": "Palaiópyrgos", "lat": 39.60845, "lng": 21.8172, "population": 1035}, {"name": "Ágios Andréas", "lat": 37.34519, "lng": 22.76466, "population": 1033}, {"name": "Empório", "lat": 40.48866, "lng": 21.55768, "population": 1033}, {"name": "Kolympári", "lat": 35.54115, "lng": 23.77995, "population": 1032}, {"name": "Sykiá", "lat": 36.76398, "lng": 22.94302, "population": 1031}, {"name": "Néa Stíra", "lat": 38.17935, "lng": 24.20842, "population": 1031}, {"name": "Agía Triáda", "lat": 39.46361, "lng": 21.89848, "population": 1030}, {"name": "Polídhrosos", "lat": 38.64015, "lng": 22.53174, "population": 1027}, {"name": "Tílisos", "lat": 35.29607, "lng": 25.01587, "population": 1026}, {"name": "Levídion", "lat": 37.68269, "lng": 22.29586, "population": 1025}, {"name": "Ornós", "lat": 37.42391, "lng": 25.32248, "population": 1025}, {"name": "Melíssi", "lat": 40.77406, "lng": 22.35304, "population": 1024}, {"name": "Argithéa", "lat": 37.97506, "lng": 23.88556, "population": 1024}, {"name": "Chrysochórafa", "lat": 41.18097, "lng": 23.23551, "population": 1023}, {"name": "Kamariótissa", "lat": 40.47501, "lng": 25.47456, "population": 1022}, {"name": "Kentrí", "lat": 35.03258, "lng": 25.7528, "population": 1021}, {"name": "Perama", "lat": 39.58289, "lng": 19.9122, "population": 1021}, {"name": "Vokhaïkó", "lat": 37.94843, "lng": 22.79203, "population": 1020}, {"name": "Stýpsi", "lat": 39.31121, "lng": 26.22056, "population": 1020}, {"name": "Kalamiá", "lat": 39.16528, "lng": 20.93206, "population": 1018}, {"name": "Gavaloú", "lat": 38.52903, "lng": 21.53226, "population": 1018}, {"name": "Antirrio", "lat": 38.33014, "lng": 21.76413, "population": 1018}, {"name": "Kanália", "lat": 39.49928, "lng": 22.88589, "population": 1015}, {"name": "Pentaplátano", "lat": 40.81902, "lng": 22.41903, "population": 1015}, {"name": "Peteinós", "lat": 41.10056, "lng": 24.89847, "population": 1014}, {"name": "Marmárion", "lat": 38.04839, "lng": 24.32039, "population": 1013}, {"name": "Acharávi", "lat": 39.7936, "lng": 19.81736, "population": 1013}, {"name": "Skalánion", "lat": 35.28262, "lng": 25.18684, "population": 1012}, {"name": "Anakasiá", "lat": 39.38112, "lng": 22.97484, "population": 1012}, {"name": "Agios Dimítrios Kropiás", "lat": 37.80612, "lng": 23.85793, "population": 1011}, {"name": "Batsíon", "lat": 37.86008, "lng": 24.7849, "population": 1010}, {"name": "Valsamáta", "lat": 38.176, "lng": 20.58392, "population": 1008}, {"name": "Kallikomo", "lat": 37.5833, "lng": 21.5833, "population": 1008}, {"name": "Fteliá", "lat": 41.08266, "lng": 24.18968, "population": 1006}, {"name": "Káto Mazaráki", "lat": 38.07035, "lng": 21.65097, "population": 1005}, {"name": "Sperchógeia", "lat": 37.07405, "lng": 22.06248, "population": 1004}, {"name": "Karátoula", "lat": 37.73564, "lng": 21.53578, "population": 1004}, {"name": "Sísion", "lat": 35.3077, "lng": 25.52021, "population": 1003}, {"name": "Áno Kastrítsi", "lat": 38.27228, "lng": 21.836, "population": 1003}, {"name": "Loutró", "lat": 38.95208, "lng": 21.20489, "population": 1002}, {"name": "Néa Anatolí", "lat": 35.0092, "lng": 25.6617, "population": 1002}, {"name": "Chalandrítsa", "lat": 38.10843, "lng": 21.78349, "population": 949}, {"name": "Nestório", "lat": 40.41278, "lng": 21.06222, "population": 865}, {"name": "Lidoríki", "lat": 38.52389, "lng": 22.19972, "population": 840}, {"name": "Kímolos", "lat": 36.79368, "lng": 24.57577, "population": 837}, {"name": "Mílos", "lat": 36.74536, "lng": 24.4265, "population": 819}, {"name": "Oinoússes", "lat": 38.51458, "lng": 26.22241, "population": 792}, {"name": "Vrýses", "lat": 35.37585, "lng": 24.20109, "population": 740}, {"name": "Dimitsána", "lat": 37.59524, "lng": 22.04025, "population": 739}, {"name": "Samothráki", "lat": 40.47333, "lng": 25.52222, "population": 719}, {"name": "Mandráki", "lat": 36.61139, "lng": 27.13333, "population": 682}, {"name": "Folégandros", "lat": 36.62794, "lng": 24.92021, "population": 667}, {"name": "Kalpáki", "lat": 39.88778, "lng": 20.62389, "population": 625}, {"name": "Voulgaréli", "lat": 39.37194, "lng": 21.18333, "population": 590}, {"name": "Megalochóri", "lat": 37.71051, "lng": 23.34659, "population": 566}, {"name": "Pátmos", "lat": 37.30895, "lng": 26.54723, "population": 541}, {"name": "Gáïos", "lat": 39.19722, "lng": 20.18556, "population": 487}, {"name": "Morfovoúni", "lat": 39.3525, "lng": 21.75, "population": 485}, {"name": "Psará", "lat": 38.54097, "lng": 25.56287, "population": 454}, {"name": "Amorgós", "lat": 36.83175, "lng": 25.89821, "population": 397}, {"name": "Sérifos", "lat": 37.15397, "lng": 24.50614, "population": 364}, {"name": "Fry", "lat": 35.41623, "lng": 26.92328, "population": 357}, {"name": "Kardamýli", "lat": 36.88778, "lng": 22.23317, "population": 300}, {"name": "Kýthira", "lat": 36.14955, "lng": 22.98979, "population": 281}, {"name": "Kerasochóri", "lat": 39.00556, "lng": 21.63778, "population": 274}, {"name": "Anthiró", "lat": 39.34722, "lng": 21.45833, "population": 270}, {"name": "Chóra Sfakíon", "lat": 35.20176, "lng": 24.13711, "population": 243}, {"name": "Karyes", "lat": 40.25715, "lng": 24.24498, "population": 237}, {"name": "Laimós", "lat": 40.83628, "lng": 21.14061, "population": 185}, {"name": "Áno Kalentíni", "lat": 39.25, "lng": 21.18528, "population": 172}, {"name": "Megálo Chorió", "lat": 37.4582, "lng": 26.97272, "population": 168}, {"name": "Asprángeloi", "lat": 39.82328, "lng": 20.72862, "population": 165}, {"name": "Agía Kyriakí", "lat": 39.52264, "lng": 20.88358, "population": 83}, {"name": "Kastrí", "lat": 34.8346, "lng": 24.08572, "population": 37}, {"name": "Geráni", "lat": 35.51721, "lng": 23.87818, "population": 0}, {"name": "Sofádes", "lat": 39.33333, "lng": 22.1, "population": 0}, {"name": "Síkinos", "lat": 36.7, "lng": 25.11667, "population": 0}, {"name": "Megísti", "lat": 36.14889, "lng": 29.59361, "population": 0}, {"name": "Megálo Chorió", "lat": 36.45505, "lng": 27.34563, "population": 0}, {"name": "Leipsoí", "lat": 37.28333, "lng": 26.76667, "population": 0}, {"name": "Kýthnos", "lat": 37.41237, "lng": 24.43068, "population": 0}, {"name": "Chálki", "lat": 36.22243, "lng": 27.61191, "population": 0}, {"name": "Kéa", "lat": 37.63333, "lng": 24.35, "population": 0}, {"name": "Farkadóna", "lat": 39.6, "lng": 22.06667, "population": 0}, {"name": "Dístomo", "lat": 38.42892, "lng": 22.66728, "population": 0}, {"name": "Ágios Efstrátios", "lat": 39.53889, "lng": 24.99167, "population": 0}, {"name": "Ágioi Déka", "lat": 35.06667, "lng": 24.96667, "population": 0}, {"name": "Antíparos", "lat": 37.0394, "lng": 25.08258, "population": 0}, {"name": "Anáfi", "lat": 36.35, "lng": 25.76667, "population": 0}, {"name": "Smínthi", "lat": 41.23064, "lng": 24.88, "population": 0}, {"name": "Paranésti", "lat": 41.26667, "lng": 24.5, "population": 0}, {"name": "Káto Nevrokópi", "lat": 41.35, "lng": 23.86667, "population": 0}, {"name": "Évlalo", "lat": 40.98333, "lng": 24.8, "population": 0}, {"name": "Agía Foteiní", "lat": 35.25459, "lng": 24.63495, "population": 0}, {"name": "Ampelókipoi", "lat": 40.65304, "lng": 22.92624, "population": 0}, {"name": "Foúrnoi", "lat": 37.5785, "lng": 26.48069, "population": 0}, {"name": "Nea Lava", "lat": 40.19048, "lng": 22.0132, "population": 0}, {"name": "Mosynopolis, Maximianopolis, Μαξιμιανούπολις", "lat": 41.12863, "lng": 25.32546, "population": 0}, {"name": "Xinos", "lat": 37.05724, "lng": 22.0055, "population": 0}]