[{"name": "Guatemala City", "lat": 14.64072, "lng": -90.51327, "population": 994938}, {"name": "Villa Nueva", "lat": 14.52512, "lng": -90.58544, "population": 618397}, {"name": "Mixco", "lat": 14.63077, "lng": -90.60711, "population": 465773}, {"name": "Cobán", "lat": 15.47025, "lng": -90.37455, "population": 212047}, {"name": "Quetzaltenango", "lat": 14.84462, "lng": -91.52316, "population": 180706}, {"name": "Jalapa", "lat": 14.63542, "lng": -89.99112, "population": 159840}, {"name": "Escuintla", "lat": 14.30097, "lng": -90.78816, "population": 156313}, {"name": "Villa Canales", "lat": 14.48285, "lng": -90.53425, "population": 155423}, {"name": "Jutiapa", "lat": 14.28491, "lng": -89.88798, "population": 145880}, {"name": "Chichicastenango", "lat": 14.94333, "lng": -91.11116, "population": 141567}, {"name": "San Juan Sacatepéquez", "lat": 14.71889, "lng": -90.64417, "population": 136886}, {"name": "Petapa", "lat": 14.50189, "lng": -90.56196, "population": 135447}, {"name": "Santa Lucía Cotzumalguapa", "lat": 14.33505, "lng": -91.02339, "population": 112780}, {"name": "Chiquimula", "lat": 14.8009, "lng": -89.54641, "population": 111505}, {"name": "Coatepeque", "lat": 14.70413, "lng": -91.86426, "population": 105415}, {"name": "Chinautla", "lat": 14.70289, "lng": -90.49983, "population": 104972}, {"name": "Totonicapán", "lat": 14.91188, "lng": -91.36054, "population": 103952}, {"name": "Puerto Barrios", "lat": 15.72724, "lng": -88.59787, "population": 100593}, {"name": "Chimaltenango", "lat": 14.65881, "lng": -90.8216, "population": 96985}, {"name": "Malacatán", "lat": 14.91132, "lng": -92.05788, "population": 92816}, {"name": "Retalhuleu", "lat": 14.53575, "lng": -91.67848, "population": 90505}, {"name": "Santa Catarina Pinula", "lat": 14.57047, "lng": -90.49925, "population": 80582}, {"name": "San José Pinula", "lat": 14.546, "lng": -90.41288, "population": 79844}, {"name": "Huehuetenango", "lat": 15.32097, "lng": -91.47001, "population": 79426}, {"name": "Santa Cruz del Quiché", "lat": 15.02995, "lng": -91.14876, "population": 78279}, {"name": "Mazatenango", "lat": 14.53412, "lng": -91.50311, "population": 77431}, {"name": "Panzos", "lat": 15.39862, "lng": -89.64147, "population": 71846}, {"name": "Amatitlán", "lat": 14.4774, "lng": -90.63489, "population": 71836}, {"name": "Palín", "lat": 14.40358, "lng": -90.69659, "population": 65873}, {"name": "Salamá", "lat": 15.1021, "lng": -90.31906, "population": 65275}, {"name": "Chicacao", "lat": 14.54295, "lng": -91.32636, "population": 60735}, {"name": "Zacapa", "lat": 14.96867, "lng": -89.52732, "population": 60424}, {"name": "Comitancillo", "lat": 15.08937, "lng": -91.74971, "population": 59489}, {"name": "Fraijanes", "lat": 14.46528, "lng": -90.44083, "population": 58922}, {"name": "San Pedro Ayampuc", "lat": 14.77943, "lng": -90.45318, "population": 58609}, {"name": "Patzún", "lat": 14.68189, "lng": -91.01397, "population": 58240}, {"name": "San Francisco El Alto", "lat": 14.9449, "lng": -91.4431, "population": 57894}, {"name": "Ostuncalco", "lat": 14.86899, "lng": -91.62137, "population": 51828}, {"name": "Soloma", "lat": 15.65841, "lng": -91.42994, "population": 49030}, {"name": "Asunción Mita", "lat": 14.33365, "lng": -89.71094, "population": 48297}, {"name": "Colomba", "lat": 14.7073, "lng": -91.73167, "population": 47544}, {"name": "Barberena", "lat": 14.30739, "lng": -90.36156, "population": 47093}, {"name": "San Marcos", "lat": 14.96437, "lng": -91.79486, "population": 47063}, {"name": "Antigua Guatemala", "lat": 14.55636, "lng": -90.7332, "population": 46054}, {"name": "Sololá", "lat": 14.7707, "lng": -91.18344, "population": 45373}, {"name": "Masagua", "lat": 14.20306, "lng": -90.84806, "population": 45323}, {"name": "Cantel", "lat": 14.81154, "lng": -91.45536, "population": 42142}, {"name": "Cuilapa", "lat": 14.27537, "lng": -90.29865, "population": 41359}, {"name": "Patulul", "lat": 14.42321, "lng": -91.16049, "population": 40683}, {"name": "San Pedro Sacatepéquez", "lat": 14.96807, "lng": -91.76172, "population": 40021}, {"name": "Nuevo San Carlos", "lat": 14.593, "lng": -91.6939, "population": 39565}, {"name": "Jacaltenango", "lat": 15.66662, "lng": -91.71177, "population": 37171}, {"name": "Yepocapa", "lat": 14.50195, "lng": -90.95396, "population": 34948}, {"name": "Tecpán Guatemala", "lat": 14.76181, "lng": -90.99247, "population": 34519}, {"name": "Ciudad Vieja", "lat": 14.52396, "lng": -90.76308, "population": 33405}, {"name": "Santiago Atitlán", "lat": 14.63823, "lng": -91.22901, "population": 33309}, {"name": "Comalapa", "lat": 14.74086, "lng": -90.88761, "population": 32312}, {"name": "Momostenango", "lat": 15.04437, "lng": -91.40864, "population": 31739}, {"name": "San Benito", "lat": 16.91675, "lng": -89.91898, "population": 30764}, {"name": "Santiago Sacatepéquez", "lat": 14.6351, "lng": -90.67654, "population": 29238}, {"name": "San Sebastián", "lat": 14.56177, "lng": -91.64865, "population": 29167}, {"name": "Jalpatagua", "lat": 14.1369, "lng": -90.00908, "population": 28832}, {"name": "Sumpango", "lat": 14.64623, "lng": -90.73427, "population": 28488}, {"name": "Nahualá", "lat": 14.8429, "lng": -91.31799, "population": 27690}, {"name": "San Andrés Itzapa", "lat": 14.62222, "lng": -90.84314, "population": 24992}, {"name": "Guastatoya", "lat": 14.85442, "lng": -90.06991, "population": 24831}, {"name": "San Luis Jilotepeque", "lat": 14.64724, "lng": -89.72463, "population": 24679}, {"name": "San Felipe", "lat": 14.62304, "lng": -91.595, "population": 24446}, {"name": "Zaragoza", "lat": 14.64968, "lng": -90.89034, "population": 24022}, {"name": "La Gomera", "lat": 14.08213, "lng": -91.05383, "population": 24001}, {"name": "Alotenango", "lat": 14.48585, "lng": -90.80437, "population": 23986}, {"name": "Nebaj", "lat": 15.40614, "lng": -91.14682, "population": 23301}, {"name": "Cabricán", "lat": 15.07485, "lng": -91.648, "population": 23033}, {"name": "San Francisco Zapotitlán", "lat": 14.58939, "lng": -91.52144, "population": 22533}, {"name": "Santa María de Jesús", "lat": 14.49452, "lng": -90.71036, "population": 21795}, {"name": "Patzicía", "lat": 14.63194, "lng": -90.92659, "population": 21249}, {"name": "San Lucas Sacatepéquez", "lat": 14.61075, "lng": -90.65681, "population": 20723}, {"name": "Esquipulas", "lat": 14.56571, "lng": -89.35166, "population": 20674}, {"name": "El Estor", "lat": 15.53221, "lng": -89.33111, "population": 20489}, {"name": "Flores", "lat": 16.92258, "lng": -89.89941, "population": 20464}, {"name": "San Pablo Jocopilas", "lat": 14.58882, "lng": -91.45188, "population": 20433}, {"name": "San Cristóbal Verapaz", "lat": 15.36663, "lng": -90.47825, "population": 19664}, {"name": "Salcajá", "lat": 14.87964, "lng": -91.45699, "population": 19434}, {"name": "Gualán", "lat": 15.11952, "lng": -89.35721, "population": 19354}, {"name": "Morales", "lat": 15.47225, "lng": -88.8407, "population": 18994}, {"name": "Guazacapán", "lat": 14.07417, "lng": -90.41667, "population": 18855}, {"name": "Puerto San José", "lat": 13.92216, "lng": -90.81906, "population": 18655}, {"name": "Palencia", "lat": 14.66715, "lng": -90.35721, "population": 18574}, {"name": "Tiquisate", "lat": 14.28356, "lng": -91.36063, "population": 18189}, {"name": "Lívingston", "lat": 15.82826, "lng": -88.75039, "population": 17923}, {"name": "Jocotenango", "lat": 14.57814, "lng": -90.73804, "population": 17918}, {"name": "El Asintal", "lat": 14.59626, "lng": -91.72744, "population": 17388}, {"name": "Poptún", "lat": 16.33111, "lng": -89.41694, "population": 17320}, {"name": "Santa Bárbara", "lat": 14.43563, "lng": -91.22685, "population": 17172}, {"name": "Chisec", "lat": 15.81311, "lng": -90.28896, "population": 17018}, {"name": "La Esperanza", "lat": 14.87169, "lng": -91.5614, "population": 16461}, {"name": "San Pedro Carchá", "lat": 15.47745, "lng": -90.31105, "population": 16353}, {"name": "Sanarate", "lat": 14.78828, "lng": -90.19876, "population": 15843}, {"name": "El Tejar", "lat": 14.64683, "lng": -90.79122, "population": 15639}, {"name": "El Palmar", "lat": 14.65083, "lng": -91.578, "population": 15167}, {"name": "Rabinal", "lat": 15.0853, "lng": -90.49255, "population": 15157}, {"name": "San Andrés Xecul", "lat": 14.90482, "lng": -91.48307, "population": 15074}, {"name": "Santa Catarina Ixtahuacán", "lat": 14.79797, "lng": -91.35866, "population": 14734}, {"name": "San Lucas Tolimán", "lat": 14.59471, "lng": -91.14659, "population": 14545}, {"name": "San Pedro Sacatepéquez", "lat": 14.68612, "lng": -90.64253, "population": 14315}, {"name": "Zunil", "lat": 14.78463, "lng": -91.48345, "population": 14118}, {"name": "Barillas", "lat": 15.80361, "lng": -91.31583, "population": 14100}, {"name": "San Miguel Chicaj", "lat": 15.09472, "lng": -90.39442, "population": 13747}, {"name": "San Pablo", "lat": 14.93269, "lng": -92.00415, "population": 13668}, {"name": "San Antonio Suchitepéquez", "lat": 14.53938, "lng": -91.41442, "population": 13666}, {"name": "Monjas", "lat": 14.50309, "lng": -89.87246, "population": 13541}, {"name": "La Democracia", "lat": 14.22919, "lng": -90.94806, "population": 13400}, {"name": "San Juan Chamelco", "lat": 15.42433, "lng": -90.33044, "population": 13264}, {"name": "San Mateo Ixtatán", "lat": 15.83194, "lng": -91.47806, "population": 13213}, {"name": "Joyabaj", "lat": 14.99311, "lng": -90.80161, "population": 13164}, {"name": "Chiquimulilla", "lat": 14.0838, "lng": -90.38547, "population": 12842}, {"name": "Pastores", "lat": 14.59433, "lng": -90.75473, "population": 12621}, {"name": "Almolonga", "lat": 14.81591, "lng": -91.49464, "population": 12299}, {"name": "Santa Lucía Milpas Altas", "lat": 14.57655, "lng": -90.67632, "population": 12234}, {"name": "Acatenango", "lat": 14.55451, "lng": -90.94368, "population": 12136}, {"name": "El Quetzal", "lat": 14.76865, "lng": -91.81757, "population": 12122}, {"name": "Sacapulas", "lat": 15.28801, "lng": -91.08914, "population": 12088}, {"name": "Senahú", "lat": 15.4164, "lng": -89.82215, "population": 12084}, {"name": "Flores Costa Cuca", "lat": 14.63238, "lng": -91.86341, "population": 11984}, {"name": "Magdalena Milpas Altas", "lat": 14.54801, "lng": -90.67477, "population": 11856}, {"name": "Chajul", "lat": 15.48523, "lng": -91.0352, "population": 11657}, {"name": "Atescatempa", "lat": 14.1755, "lng": -89.74184, "population": 11543}, {"name": "Melchor de Mencos", "lat": 17.06606, "lng": -89.15229, "population": 11457}, {"name": "Ciudad Tecún Umán", "lat": 14.67737, "lng": -92.14039, "population": 11432}, {"name": "Panajachel", "lat": 14.74185, "lng": -91.15676, "population": 11142}, {"name": "Nueva Concepción", "lat": 14.2, "lng": -91.3, "population": 11121}, {"name": "San Juan Cotzal", "lat": 15.43368, "lng": -91.03481, "population": 11046}, {"name": "Cuyotenango", "lat": 14.54006, "lng": -91.57179, "population": 10825}, {"name": "Santa Catarina Mita", "lat": 14.45131, "lng": -89.74285, "population": 10817}, {"name": "Cubulco", "lat": 15.10452, "lng": -90.62871, "population": 10681}, {"name": "Dolores", "lat": 16.51178, "lng": -89.41704, "population": 10604}, {"name": "San Agustín Acasaguastlán", "lat": 14.945, "lng": -89.96967, "population": 10335}, {"name": "Oratorio", "lat": 14.22806, "lng": -90.17583, "population": 10155}, {"name": "Nueva Santa Rosa", "lat": 14.38111, "lng": -90.27611, "population": 10130}, {"name": "Nuevo León", "lat": 15.79369, "lng": -91.09237, "population": 10000}, {"name": "Huitán", "lat": 15.0492, "lng": -91.63944, "population": 9958}, {"name": "Champerico", "lat": 14.29206, "lng": -91.91339, "population": 9941}, {"name": "San Martín Jilotepeque", "lat": 14.78008, "lng": -90.79259, "population": 9846}, {"name": "San Pedro La Laguna", "lat": 14.69297, "lng": -91.27201, "population": 9681}, {"name": "Parramos", "lat": 14.60891, "lng": -90.80303, "population": 9613}, {"name": "Santa Ana", "lat": 16.80582, "lng": -89.82708, "population": 9523}, {"name": "Zacualpa", "lat": 15.02681, "lng": -90.87815, "population": 9241}, {"name": "San Cristóbal Cucho", "lat": 14.90505, "lng": -91.78123, "population": 9152}, {"name": "Sayaxché", "lat": 16.52446, "lng": -90.18801, "population": 9100}, {"name": "Tactic", "lat": 15.32218, "lng": -90.35448, "population": 8999}, {"name": "Samayac", "lat": 14.58084, "lng": -91.46135, "population": 8994}, {"name": "Estanzuela", "lat": 14.99777, "lng": -89.57285, "population": 8937}, {"name": "Concepción Huista", "lat": 15.62378, "lng": -91.66521, "population": 8925}, {"name": "El Tumbador", "lat": 14.86375, "lng": -91.93416, "population": 8856}, {"name": "Santo Domingo Xenacoj", "lat": 14.68057, "lng": -90.70012, "population": 8791}, {"name": "San Raimundo", "lat": 14.76462, "lng": -90.59493, "population": 8689}, {"name": "La Libertad", "lat": 16.7885, "lng": -90.11698, "population": 8646}, {"name": "Chiantla", "lat": 15.35484, "lng": -91.45807, "population": 8465}, {"name": "San Miguel Dueñas", "lat": 14.52241, "lng": -90.79938, "population": 8424}, {"name": "Cunén", "lat": 15.33626, "lng": -91.02776, "population": 8400}, {"name": "Jocotán", "lat": 14.82072, "lng": -89.38991, "population": 8387}, {"name": "Pajapita", "lat": 14.72152, "lng": -92.03521, "population": 8164}, {"name": "Moyuta", "lat": 14.03861, "lng": -90.08083, "population": 8145}, {"name": "Nuevo Progreso", "lat": 14.79174, "lng": -91.91946, "population": 8113}, {"name": "San Jerónimo", "lat": 15.06032, "lng": -90.2405, "population": 8093}, {"name": "Concepción Chiquirichapa", "lat": 14.8551, "lng": -91.6236, "population": 8080}, {"name": "Santa Cruz Balanyá", "lat": 14.68522, "lng": -90.91906, "population": 7825}, {"name": "San Antonio Aguas Calientes", "lat": 14.54676, "lng": -90.78054, "population": 7811}, {"name": "San Antonio La Paz", "lat": 14.75888, "lng": -90.28485, "population": 7781}, {"name": "Casillas", "lat": 14.41915, "lng": -90.24328, "population": 7698}, {"name": "Río Bravo", "lat": 14.40042, "lng": -91.31713, "population": 7568}, {"name": "San Miguel Sigüilá", "lat": 14.89547, "lng": -91.61457, "population": 7551}, {"name": "Mataquescuintla", "lat": 14.52917, "lng": -90.18417, "population": 7539}, {"name": "Chahal", "lat": 15.79122, "lng": -89.60518, "population": 7465}, {"name": "El Progreso", "lat": 14.35604, "lng": -89.84854, "population": 7350}, {"name": "San Andrés", "lat": 16.96863, "lng": -89.91181, "population": 7235}, {"name": "San Vicente Pacaya", "lat": 14.41466, "lng": -90.63613, "population": 7162}, {"name": "Chuarrancho", "lat": 14.81794, "lng": -90.51568, "population": 7149}, {"name": "Santo Tomás La Unión", "lat": 14.63219, "lng": -91.41075, "population": 7081}, {"name": "Santa María Chiquimula", "lat": 15.02992, "lng": -91.3292, "population": 6980}, {"name": "San Carlos Sija", "lat": 14.98436, "lng": -91.54912, "population": 6831}, {"name": "San Luis", "lat": 16.19889, "lng": -89.44028, "population": 6776}, {"name": "Uspantán", "lat": 15.34672, "lng": -90.8705, "population": 6664}, {"name": "Taxisco", "lat": 14.06719, "lng": -90.46791, "population": 6518}, {"name": "La Libertad", "lat": 15.51421, "lng": -91.86944, "population": 6439}, {"name": "Tacaná", "lat": 15.24058, "lng": -92.06721, "population": 6438}, {"name": "Teculután", "lat": 14.98901, "lng": -89.71936, "population": 6407}, {"name": "San José Acatempa", "lat": 14.26528, "lng": -90.12694, "population": 6367}, {"name": "Santo Domingo Suchitepéquez", "lat": 14.47901, "lng": -91.48327, "population": 6270}, {"name": "San Bartolomé Milpas Altas", "lat": 14.6069, "lng": -90.67807, "population": 6261}, {"name": "Santa Cruz Naranjo", "lat": 14.38806, "lng": -90.36972, "population": 6254}, {"name": "San Pablo La Laguna", "lat": 14.72092, "lng": -91.27242, "population": 6186}, {"name": "Concepción Tutuapa", "lat": 15.2394, "lng": -91.8446, "population": 6006}, {"name": "Río Hondo", "lat": 15.04505, "lng": -89.58523, "population": 5997}, {"name": "San José Poaquil", "lat": 14.81808, "lng": -90.91248, "population": 5987}, {"name": "Santa Rosa de Lima", "lat": 14.38806, "lng": -90.29556, "population": 5984}, {"name": "Santa Cruz Verapaz", "lat": 15.37342, "lng": -90.42857, "population": 5843}, {"name": "San Antonio Huista", "lat": 15.6501, "lng": -91.77163, "population": 5669}, {"name": "Aguacatán", "lat": 15.34222, "lng": -91.31141, "population": 5572}, {"name": "San Mateo", "lat": 14.858, "lng": -91.59004, "population": 5534}, {"name": "San Bernardino", "lat": 14.5424, "lng": -91.45811, "population": 5501}, {"name": "Purulhá", "lat": 15.23566, "lng": -90.23571, "population": 5370}, {"name": "Santa Clara La Laguna", "lat": 14.71509, "lng": -91.30355, "population": 5306}, {"name": "Ipala", "lat": 14.61987, "lng": -89.6194, "population": 5283}, {"name": "San Andrés Villa Seca", "lat": 14.57801, "lng": -91.58539, "population": 5102}, {"name": "Usumatlán", "lat": 14.94779, "lng": -89.77712, "population": 4987}, {"name": "Santa Eulalia", "lat": 15.7306, "lng": -91.45846, "population": 4921}, {"name": "San José del Golfo", "lat": 14.76414, "lng": -90.37228, "population": 4908}, {"name": "La Reforma", "lat": 14.80104, "lng": -91.82233, "population": 4905}, {"name": "Tucurú", "lat": 15.29402, "lng": -90.11916, "population": 4772}, {"name": "Cabañas", "lat": 14.93333, "lng": -89.8, "population": 4678}, {"name": "Cahabón", "lat": 15.60662, "lng": -89.81172, "population": 4671}, {"name": "San Juan La Laguna", "lat": 14.69453, "lng": -91.28666, "population": 4608}, {"name": "Jerez", "lat": 14.09083, "lng": -89.7511, "population": 4421}, {"name": "San Martín Zapotitlán", "lat": 14.60794, "lng": -91.60613, "population": 4419}, {"name": "Ocós", "lat": 14.50998, "lng": -92.19298, "population": 4417}, {"name": "Tajumulco", "lat": 15.08349, "lng": -91.92225, "population": 4329}, {"name": "San Rafael Pie de la Cuesta", "lat": 14.93052, "lng": -91.91388, "population": 4320}, {"name": "El Jícaro", "lat": 14.91333, "lng": -89.89654, "population": 4242}, {"name": "Pueblo Nuevo Viñas", "lat": 14.22576, "lng": -90.47613, "population": 4211}, {"name": "San Cristóbal Totonicapán", "lat": 14.91682, "lng": -91.4406, "population": 4191}, {"name": "Quezaltepeque", "lat": 14.63553, "lng": -89.44241, "population": 4126}, {"name": "San Gabriel", "lat": 14.51076, "lng": -91.50745, "population": 4118}, {"name": "Iztapa", "lat": 13.93333, "lng": -90.7075, "population": 4020}, {"name": "San Francisco", "lat": 16.7978, "lng": -89.93507, "population": 3954}, {"name": "Pochuta", "lat": 14.5445, "lng": -91.08904, "population": 3879}, {"name": "Sansare", "lat": 14.74572, "lng": -90.11615, "population": 3792}, {"name": "Génova", "lat": 14.62216, "lng": -91.8358, "population": 3744}, {"name": "Ixtahuacán", "lat": 15.41688, "lng": -91.76927, "population": 3708}, {"name": "La Unión", "lat": 14.96656, "lng": -89.29023, "population": 3682}, {"name": "San Miguel Ixtahuacán", "lat": 15.27247, "lng": -91.74785, "population": 3662}, {"name": "San Martín Sacatepéquez", "lat": 14.82443, "lng": -91.64192, "population": 3658}, {"name": "Santa María Ixhuatán", "lat": 14.19, "lng": -90.27472, "population": 3634}, {"name": "San Antonio Palopó", "lat": 14.69232, "lng": -91.11638, "population": 3588}, {"name": "San Pedro Necta", "lat": 15.49142, "lng": -91.76551, "population": 3554}, {"name": "Los Amates", "lat": 15.25645, "lng": -89.09723, "population": 3417}, {"name": "Conguaco", "lat": 14.04417, "lng": -90.03111, "population": 3415}, {"name": "San Pedro Pinula", "lat": 14.66349, "lng": -89.84625, "population": 3302}, {"name": "Concepción", "lat": 14.78417, "lng": -91.14754, "population": 3292}, {"name": "Todos Santos Cuchumatán", "lat": 15.50846, "lng": -91.60382, "population": 3289}, {"name": "Santa Catarina Barahona", "lat": 14.55135, "lng": -90.78598, "population": 3214}, {"name": "Pueblo Nuevo", "lat": 14.64709, "lng": -91.53946, "population": 3116}, {"name": "Catarina", "lat": 14.85354, "lng": -92.07682, "population": 3040}, {"name": "Yupiltepeque", "lat": 14.19705, "lng": -89.79262, "population": 3028}, {"name": "Santiago Chimaltenango", "lat": 15.47658, "lng": -91.69656, "population": 3020}, {"name": "Santa Catarina Palopó", "lat": 14.72335, "lng": -91.13428, "population": 2948}, {"name": "Cajolá", "lat": 14.92205, "lng": -91.61478, "population": 2927}, {"name": "Guanagazapa", "lat": 14.22598, "lng": -90.64332, "population": 2842}, {"name": "Agua Blanca", "lat": 14.49805, "lng": -89.64961, "population": 2776}, {"name": "San Miguel Acatán", "lat": 15.70401, "lng": -91.59771, "population": 2773}, {"name": "Zunilito", "lat": 14.61264, "lng": -91.5098, "population": 2745}, {"name": "Huité", "lat": 14.92786, "lng": -89.71627, "population": 2712}, {"name": "Santa Cruz Muluá", "lat": 14.58153, "lng": -91.62441, "population": 2706}, {"name": "Chinique", "lat": 15.04147, "lng": -91.02594, "population": 2693}, {"name": "San Marcos La Laguna", "lat": 14.72504, "lng": -91.25844, "population": 2681}, {"name": "San Juan Bautista", "lat": 14.42274, "lng": -91.17904, "population": 2680}, {"name": "Tejutla", "lat": 15.12254, "lng": -91.80635, "population": 2653}, {"name": "San Manuel Chaparrón", "lat": 14.51987, "lng": -89.76917, "population": 2624}, {"name": "San Andrés Semetabaj", "lat": 14.74497, "lng": -91.13344, "population": 2605}, {"name": "San Rafael Las Flores", "lat": 14.47604, "lng": -90.17855, "population": 2572}, {"name": "Morazán", "lat": 14.93278, "lng": -90.14306, "population": 2554}, {"name": "San Juan Ixcoy", "lat": 15.60022, "lng": -91.44639, "population": 2535}, {"name": "Nentón", "lat": 15.80113, "lng": -91.75423, "population": 2530}, {"name": "San José El Ídolo", "lat": 14.45016, "lng": -91.42222, "population": 2412}, {"name": "Chiché", "lat": 15.00885, "lng": -91.06379, "population": 2406}, {"name": "Santa Apolonia", "lat": 14.79049, "lng": -90.97267, "population": 2396}, {"name": "El Chol", "lat": 14.96055, "lng": -90.48799, "population": 2391}, {"name": "San José La Arada", "lat": 14.72266, "lng": -89.58599, "population": 2361}, {"name": "Pachalum", "lat": 14.92472, "lng": -90.66278, "population": 2344}, {"name": "El Adelanto", "lat": 14.17102, "lng": -89.82715, "population": 2341}, {"name": "Ixchiguán", "lat": 15.16375, "lng": -91.93256, "population": 2263}, {"name": "Quesada", "lat": 14.27028, "lng": -90.04028, "population": 2250}, {"name": "San Juan Tecuaco", "lat": 14.08361, "lng": -90.26649, "population": 2210}, {"name": "San Cristóbal Acasaguastlán", "lat": 14.92485, "lng": -89.87427, "population": 2171}, {"name": "San Lorenzo", "lat": 14.48606, "lng": -91.51263, "population": 2165}, {"name": "Malacatancito", "lat": 15.24457, "lng": -91.49901, "population": 2121}, {"name": "Chicamán", "lat": 15.34786, "lng": -90.79968, "population": 2090}, {"name": "San Miguel Panán", "lat": 14.52865, "lng": -91.36733, "population": 2024}, {"name": "San Antonio Ilotenango", "lat": 15.05472, "lng": -91.22986, "population": 2021}, {"name": "Lanquín", "lat": 15.57568, "lng": -89.98078, "population": 2006}, {"name": "Santa Ana Huista", "lat": 15.68085, "lng": -91.82005, "population": 2004}, {"name": "San Andrés Sajcabajá", "lat": 15.17603, "lng": -90.9422, "population": 1988}, {"name": "San Juan Atitán", "lat": 15.42886, "lng": -91.62398, "population": 1910}, {"name": "El Rodeo", "lat": 14.91447, "lng": -91.97631, "population": 1887}, {"name": "Pasaco", "lat": 13.97722, "lng": -90.20639, "population": 1873}, {"name": "Cuilco", "lat": 15.40719, "lng": -91.94667, "population": 1713}, {"name": "Canillá", "lat": 15.16549, "lng": -90.85256, "population": 1698}, {"name": "Palestina de los Altos", "lat": 14.93338, "lng": -91.69403, "population": 1691}, {"name": "Olopa", "lat": 14.69229, "lng": -89.35003, "population": 1690}, {"name": "Colotenango", "lat": 15.40602, "lng": -91.71267, "population": 1690}, {"name": "San Antonio Sacatepéquez", "lat": 14.9606, "lng": -91.73154, "population": 1658}, {"name": "Sibinal", "lat": 15.14963, "lng": -92.04892, "population": 1657}, {"name": "San Juan Ermita", "lat": 14.76471, "lng": -89.43014, "population": 1623}, {"name": "San Bartolomé Jocotenango", "lat": 15.19153, "lng": -91.07806, "population": 1620}, {"name": "Zapotitlán", "lat": 14.13917, "lng": -89.82628, "population": 1617}, {"name": "Camotán", "lat": 14.82017, "lng": -89.37224, "population": 1597}, {"name": "Esquipulas Palo Gordo", "lat": 14.94135, "lng": -91.82564, "population": 1533}, {"name": "San Rafael Petzal", "lat": 15.40487, "lng": -91.66451, "population": 1525}, {"name": "San Jacinto", "lat": 14.67687, "lng": -89.50272, "population": 1519}, {"name": "Comapa", "lat": 14.11282, "lng": -89.91471, "population": 1493}, {"name": "Santa María Visitación", "lat": 14.71717, "lng": -91.30844, "population": 1487}, {"name": "Santa Cruz La Laguna", "lat": 14.74421, "lng": -91.20716, "population": 1422}, {"name": "Santa Lucia La Reforma", "lat": 15.12819, "lng": -91.23619, "population": 1406}, {"name": "San Sebastián Huehuetenango", "lat": 15.38768, "lng": -91.6153, "population": 1311}, {"name": "Santa Lucía Utatlán", "lat": 14.77135, "lng": -91.267, "population": 1305}, {"name": "Concepción Las Minas", "lat": 14.52173, "lng": -89.45717, "population": 1295}, {"name": "San Bartolo", "lat": 15.08438, "lng": -91.45606, "population": 1290}, {"name": "San José Ojetenán", "lat": 15.21667, "lng": -91.96667, "population": 1269}, {"name": "San José", "lat": 16.98333, "lng": -89.9, "population": 1201}, {"name": "Sibilia", "lat": 14.99391, "lng": -91.62371, "population": 1180}, {"name": "San Francisco la Unión", "lat": 14.9235, "lng": -91.54157, "population": 1170}, {"name": "San Rafael La Independencia", "lat": 15.7015, "lng": -91.53553, "population": 1059}, {"name": "San Pédro Jocopilas", "lat": 15.09525, "lng": -91.15135, "population": 1040}, {"name": "Tamahú", "lat": 15.3089, "lng": -90.23599, "population": 1012}, {"name": "Patzité", "lat": 14.96426, "lng": -91.20788, "population": 1003}, {"name": "San Lorenzo", "lat": 15.03087, "lng": -91.73534, "population": 945}, {"name": "Granados", "lat": 14.91649, "lng": -90.52292, "population": 937}, {"name": "Santa Bárbara", "lat": 15.31617, "lng": -91.63279, "population": 888}, {"name": "San José Chacayá", "lat": 14.77096, "lng": -91.21564, "population": 839}, {"name": "Río Blanco", "lat": 15.0382, "lng": -91.68463, "population": 829}, {"name": "San Sebastián Coatán", "lat": 15.73584, "lng": -91.56285, "population": 801}, {"name": "Tectitán", "lat": 15.3063, "lng": -92.06051, "population": 743}, {"name": "Sipacapa", "lat": 15.21246, "lng": -91.63416, "population": 661}, {"name": "San Diego", "lat": 14.78979, "lng": -89.77639, "population": 557}, {"name": "San Gaspar Ixchil", "lat": 15.38796, "lng": -91.72564, "population": 551}, {"name": "Unión", "lat": 15.92176, "lng": -91.77647, "population": 0}, {"name": "Siquinalá", "lat": 14.30679, "lng": -90.96709, "population": 0}, {"name": "San José Ojetenam", "lat": 15.23443, "lng": -91.97317, "population": 0}, {"name": "San Jorge", "lat": 14.92588, "lng": -89.58875, "population": 0}, {"name": "San Carlos Alzatate", "lat": 14.49778, "lng": -90.06028, "population": 0}, {"name": "Raxruhá", "lat": 15.86587, "lng": -90.04061, "population": 0}, {"name": "Playa Grande", "lat": 15.9855, "lng": -90.77292, "population": 0}, {"name": "Olintepeque", "lat": 14.88605, "lng": -91.51472, "population": 0}, {"name": "La Tinta", "lat": 15.31667, "lng": -89.88333, "population": 0}, {"name": "La Democracia", "lat": 15.62544, "lng": -91.8867, "population": 0}, {"name": "La Blanca", "lat": 14.57889, "lng": -92.14137, "population": 0}, {"name": "El Chal", "lat": 16.64255, "lng": -89.65291, "population": 0}, {"name": "San Juan Ostuncalco", "lat": 14.87328, "lng": -91.6897, "population": 0}, {"name": "La Máquina", "lat": 14.30189, "lng": -91.56703, "population": 0}, {"name": "Fray Bartolomé de Las Casas", "lat": 15.8051, "lng": -89.8605, "population": 0}]