[{"name": "Hong Kong", "lat": 22.27832, "lng": 114.17469, "population": 7396076}, {"name": "New Territories", "lat": 22.42441, "lng": 114.11095, "population": 3984077}, {"name": "Kowloon", "lat": 22.31667, "lng": 114.18333, "population": 2232339}, {"name": "Hong Kong Island", "lat": 22.26302, "lng": 114.18419, "population": 1195529}, {"name": "Victoria", "lat": 22.2875, "lng": 114.14417, "population": 956800}, {"name": "Tuen Mun", "lat": 22.39175, "lng": 113.97157, "population": 507900}, {"name": "Sha Tin", "lat": 22.38333, "lng": 114.18333, "population": 495200}, {"name": "Sham Shui Po", "lat": 22.33023, "lng": 114.15945, "population": 431090}, {"name": "Wong Tai Sin", "lat": 22.35, "lng": 114.18333, "population": 425235}, {"name": "Kowloon City", "lat": 22.33047, "lng": 114.19222, "population": 418732}, {"name": "Tseung Kwan O", "lat": 22.32789, "lng": 114.24992, "population": 412900}, {"name": "Kwai Chung", "lat": 22.36828, "lng": 114.13877, "population": 331600}, {"name": "Tsuen Wan", "lat": 22.37137, "lng": 114.11329, "population": 318916}, {"name": "Tin Shui Wai", "lat": 22.45679, "lng": 114.00234, "population": 282400}, {"name": "Tai Po", "lat": 22.45007, "lng": 114.16877, "population": 274100}, {"name": "Fanling", "lat": 22.49487, "lng": 114.13949, "population": 263200}, {"name": "Ma On Shan", "lat": 22.40613, "lng": 114.24079, "population": 215200}, {"name": "Yuen Long San Hui", "lat": 22.43333, "lng": 114.03333, "population": 200000}, {"name": "Yuen Long", "lat": 22.44518, "lng": 114.02621, "population": 200000}, {"name": "Kowloon City Centre", "lat": 22.32979, "lng": 114.18889, "population": 194290}, {"name": "Tsing Yi Town", "lat": 22.35, "lng": 114.1, "population": 182100}, {"name": "Yuen Long Kau Hui", "lat": 22.44831, "lng": 114.03199, "population": 169600}, {"name": "Wan Chai", "lat": 22.28142, "lng": 114.17258, "population": 166695}, {"name": "Aberdeen", "lat": 22.24802, "lng": 114.15289, "population": 157400}, {"name": "San Tung Chung Hang", "lat": 22.27875, "lng": 113.94307, "population": 116000}, {"name": "Tung Chung", "lat": 22.28783, "lng": 113.94243, "population": 114100}, {"name": "Sha Tin Wai", "lat": 22.37756, "lng": 114.19753, "population": 80000}, {"name": "Shap Pat Heung", "lat": 22.4248, "lng": 114.03581, "population": 77775}, {"name": "Pok Fu Lam", "lat": 22.26861, "lng": 114.12924, "population": 77100}, {"name": "Nam Cheong", "lat": 22.32799, "lng": 114.15389, "population": 74780}, {"name": "Kowloon West End", "lat": 22.32848, "lng": 114.18514, "population": 74710}, {"name": "Mong Kok", "lat": 22.31935, "lng": 114.17136, "population": 62967}, {"name": "Siu Lek Yuen", "lat": 22.38174, "lng": 114.21256, "population": 57349}, {"name": "Sau Mau Ping", "lat": 22.3202, "lng": 114.23497, "population": 54218}, {"name": "Tiu Keng Leng", "lat": 22.29853, "lng": 114.25115, "population": 51751}, {"name": "LOHAS Park", "lat": 22.29315, "lng": 114.27245, "population": 50000}, {"name": "Mei Foo", "lat": 22.33719, "lng": 114.13856, "population": 45990}, {"name": "Ping Shan", "lat": 22.44111, "lng": 114.00608, "population": 45400}, {"name": "Kai Tak", "lat": 22.32425, "lng": 114.19741, "population": 42552}, {"name": "Jordan", "lat": 22.30539, "lng": 114.17001, "population": 41537}, {"name": "Pat Heung", "lat": 22.4461, "lng": 114.09226, "population": 40357}, {"name": "Whampoa", "lat": 22.30504, "lng": 114.19021, "population": 39134}, {"name": "Choi Wan", "lat": 22.33385, "lng": 114.21368, "population": 38405}, {"name": "Mei Foo Sun Chuen", "lat": 22.33636, "lng": 114.14018, "population": 37299}, {"name": "Tsz Wan Shan", "lat": 22.35247, "lng": 114.20016, "population": 37242}, {"name": "Hang Hau", "lat": 22.31811, "lng": 114.26994, "population": 36529}, {"name": "Sai Kung", "lat": 22.38333, "lng": 114.26667, "population": 35800}, {"name": "Tai Koo", "lat": 22.2841, "lng": 114.21631, "population": 35373}, {"name": "Taikoo Shing", "lat": 22.28613, "lng": 114.2187, "population": 34799}, {"name": "Yau Tong", "lat": 22.29569, "lng": 114.23599, "population": 34755}, {"name": "Tai Kok Tsui", "lat": 22.32146, "lng": 114.163, "population": 33801}, {"name": "Shek Lei", "lat": 22.36613, "lng": 114.13982, "population": 31788}, {"name": "Whampoa Garden", "lat": 22.30534, "lng": 114.18936, "population": 30038}, {"name": "Yau Ma Tei", "lat": 22.3138, "lng": 114.16857, "population": 29644}, {"name": "Lower Wong Tai Sin Estate (I & II)", "lat": 22.33923, "lng": 114.19441, "population": 29542}, {"name": "South Horizons", "lat": 22.24383, "lng": 114.14828, "population": 29391}, {"name": "South Horizons (Estate)", "lat": 22.24411, "lng": 114.14616, "population": 29180}, {"name": "Leighton Hill", "lat": 22.2761, "lng": 114.18398, "population": 29160}, {"name": "Chuk Yuen", "lat": 22.34544, "lng": 114.19327, "population": 28645}, {"name": "Lei Tung", "lat": 22.24052, "lng": 114.15757, "population": 26350}, {"name": "Wah Fu", "lat": 22.25474, "lng": 114.13622, "population": 26275}, {"name": "Sham Tseng", "lat": 22.36667, "lng": 114.05, "population": 25893}, {"name": "Shek Kip Mei Estate", "lat": 22.33412, "lng": 114.16531, "population": 25561}, {"name": "Choi Wan Estate (I & II)", "lat": 22.33337, "lng": 114.21331, "population": 25241}, {"name": "Tsim Sha Tsui", "lat": 22.3, "lng": 114.16667, "population": 24557}, {"name": "Wu Kai Sha", "lat": 22.43016, "lng": 114.24212, "population": 23511}, {"name": "Laguna City", "lat": 22.30554, "lng": 114.22861, "population": 22718}, {"name": "Shuen Wan", "lat": 22.46767, "lng": 114.20812, "population": 22465}, {"name": "Fo Tan", "lat": 22.39846, "lng": 114.19293, "population": 22127}, {"name": "Kam Tin", "lat": 22.44123, "lng": 114.06019, "population": 21876}, {"name": "Tsz Ching Estate", "lat": 22.35099, "lng": 114.20056, "population": 21845}, {"name": "Ha Tsuen", "lat": 22.44724, "lng": 113.9916, "population": 21060}, {"name": "Tai Wo Hau", "lat": 22.36718, "lng": 114.12347, "population": 20848}, {"name": "Shek O", "lat": 22.23344, "lng": 114.25121, "population": 20683}, {"name": "Chek Chue", "lat": 22.21849, "lng": 114.21241, "population": 20683}, {"name": "Sheung Shui", "lat": 22.51667, "lng": 114.11667, "population": 20514}, {"name": "Hong Lok Yuen", "lat": 22.46315, "lng": 114.1552, "population": 20389}, {"name": "Fairview Park", "lat": 22.46738, "lng": 114.04766, "population": 20268}, {"name": "Ma Tau Wai", "lat": 22.32074, "lng": 114.18743, "population": 20185}, {"name": "Tai Wai", "lat": 22.37286, "lng": 114.17897, "population": 19924}, {"name": "Ho Man Tin", "lat": 22.31584, "lng": 114.18181, "population": 19830}, {"name": "Cheung Chau", "lat": 22.21085, "lng": 114.02787, "population": 19769}, {"name": "Shui Chuen O", "lat": 22.37161, "lng": 114.19778, "population": 19719}, {"name": "San Tin", "lat": 22.50166, "lng": 114.06932, "population": 19617}, {"name": "Tuen Mun San Hui", "lat": 22.39877, "lng": 113.97596, "population": 19398}, {"name": "Olympic", "lat": 22.31939, "lng": 114.15736, "population": 19373}, {"name": "Discovery Bay", "lat": 22.3, "lng": 114.01667, "population": 19336}, {"name": "The Peak", "lat": 22.26202, "lng": 114.15649, "population": 19202}, {"name": "Sung Wong Toi", "lat": 22.32466, "lng": 114.19149, "population": 19078}, {"name": "So Uk", "lat": 22.34131, "lng": 114.15679, "population": 18956}, {"name": "Kowloon Tong", "lat": 22.33312, "lng": 114.17969, "population": 18849}, {"name": "Siu Sai Wan Estate", "lat": 22.26155, "lng": 114.24881, "population": 18803}, {"name": "Sai Wan Ho", "lat": 22.28449, "lng": 114.2232, "population": 18771}, {"name": "So Uk Estate", "lat": 22.34153, "lng": 114.15653, "population": 18748}, {"name": "Tak Long Estate", "lat": 22.3302, "lng": 114.20338, "population": 18720}, {"name": "Keng Hau", "lat": 22.36507, "lng": 114.17472, "population": 18707}, {"name": "Un Chau Estate", "lat": 22.33633, "lng": 114.15616, "population": 18670}, {"name": "Lam Tin", "lat": 22.30933, "lng": 114.23634, "population": 18666}, {"name": "Lei Tung Estate", "lat": 22.24115, "lng": 114.15523, "population": 18575}, {"name": "San Po Kong", "lat": 22.33546, "lng": 114.19669, "population": 18199}, {"name": "Hok Yuen", "lat": 22.31027, "lng": 114.18816, "population": 18091}, {"name": "Laguna Verde", "lat": 22.30719, "lng": 114.19071, "population": 18091}, {"name": "Shek Kip Mei", "lat": 22.33146, "lng": 114.16799, "population": 18078}, {"name": "Heng Fa Chuen", "lat": 22.27668, "lng": 114.24077, "population": 17963}, {"name": "Aldrich Bay", "lat": 22.28203, "lng": 114.22474, "population": 17925}, {"name": "Choi Hung Estate", "lat": 22.33636, "lng": 114.20581, "population": 17817}, {"name": "Tai Shui Hang", "lat": 22.40631, "lng": 114.22385, "population": 17647}, {"name": "Wo Che", "lat": 22.39016, "lng": 114.19217, "population": 17572}, {"name": "Tai Mei Tuk", "lat": 22.47447, "lng": 114.23458, "population": 17544}, {"name": "Kadoorie", "lat": 22.32247, "lng": 114.17556, "population": 17422}, {"name": "Oi Man Estate", "lat": 22.31197, "lng": 114.17853, "population": 17407}, {"name": "Discovery Park", "lat": 22.37621, "lng": 114.11141, "population": 17325}, {"name": "Ting Kau", "lat": 22.36956, "lng": 114.07907, "population": 17009}, {"name": "Chuk Yuen North Estate", "lat": 22.34592, "lng": 114.19197, "population": 16989}, {"name": "Wang Tau Hom", "lat": 22.3401, "lng": 114.18732, "population": 16936}, {"name": "Pak Tin Estate", "lat": 22.33713, "lng": 114.16673, "population": 16843}, {"name": "Tin Wan", "lat": 22.25113, "lng": 114.14726, "population": 16811}, {"name": "Wang Tau Hom Estate", "lat": 22.34009, "lng": 114.18673, "population": 16794}, {"name": "Kwun Tong", "lat": 22.31184, "lng": 114.22176, "population": 16766}, {"name": "Kam Ying", "lat": 22.42285, "lng": 114.23664, "population": 16691}, {"name": "San Tin", "lat": 22.37193, "lng": 114.18385, "population": 16628}, {"name": "Sun Tin Wai", "lat": 22.37058, "lng": 114.18696, "population": 16628}, {"name": "Sam Shing", "lat": 22.38128, "lng": 113.97872, "population": 16423}, {"name": "Wong Chuk Hang", "lat": 22.23981, "lng": 114.17001, "population": 16316}, {"name": "Yeung Uk Tsuen", "lat": 22.45, "lng": 114.01667, "population": 16236}, {"name": "Braemar Hill", "lat": 22.28282, "lng": 114.20034, "population": 16171}, {"name": "Hoi Lai Estate", "lat": 22.33182, "lng": 114.14667, "population": 16071}, {"name": "Mount Davis", "lat": 22.27862, "lng": 114.11777, "population": 16030}, {"name": "Pok Hong", "lat": 22.37558, "lng": 114.19584, "population": 15817}, {"name": "Fu Cheong Estate", "lat": 22.32891, "lng": 114.15399, "population": 15655}, {"name": "To Kwa Wan", "lat": 22.31693, "lng": 114.19052, "population": 15646}, {"name": "Lee On", "lat": 22.42635, "lng": 114.24133, "population": 15621}, {"name": "Butterfly", "lat": 22.37591, "lng": 113.96251, "population": 15488}, {"name": "Prince Edward", "lat": 22.3236, "lng": 114.17938, "population": 15481}, {"name": "Mid Levels", "lat": 22.28399, "lng": 114.14958, "population": 15464}, {"name": "Fortress Hill", "lat": 22.28858, "lng": 114.19417, "population": 15464}, {"name": "Tung Tau Estate", "lat": 22.33212, "lng": 114.19277, "population": 15440}, {"name": "City One", "lat": 22.38679, "lng": 114.20275, "population": 15407}, {"name": "City Garden", "lat": 22.28997, "lng": 114.19259, "population": 15212}, {"name": "Yiu Tung Estate", "lat": 22.27849, "lng": 114.22299, "population": 15061}, {"name": "Cheung Sha Wan", "lat": 22.33447, "lng": 114.1558, "population": 14966}, {"name": "Yu Chui", "lat": 22.38059, "lng": 114.2053, "population": 14944}, {"name": "Shek Pai Wan Estate", "lat": 22.2493, "lng": 114.15812, "population": 14927}, {"name": "Choi Hung", "lat": 22.33548, "lng": 114.20638, "population": 14773}, {"name": "Che Ha", "lat": 22.43021, "lng": 114.26264, "population": 14753}, {"name": "Sai Wan", "lat": 22.28124, "lng": 114.12554, "population": 14650}, {"name": "So Kwun Wat", "lat": 22.37594, "lng": 114.00682, "population": 14475}, {"name": "Jardine's Lookout", "lat": 22.26857, "lng": 114.19252, "population": 14459}, {"name": "Ma Wan", "lat": 22.3523, "lng": 114.06002, "population": 14409}, {"name": "Ma Tau Kok", "lat": 22.3215, "lng": 114.1905, "population": 14397}, {"name": "Hing Wah Estate (I & II)", "lat": 22.26309, "lng": 114.23506, "population": 14339}, {"name": "Kau Wa Keng", "lat": 22.3459, "lng": 114.13684, "population": 14283}, {"name": "Lok Fu", "lat": 22.33727, "lng": 114.18725, "population": 14170}, {"name": "Luk Yeung", "lat": 22.37371, "lng": 114.11917, "population": 14154}, {"name": "Chuk Yuen South Estate", "lat": 22.34457, "lng": 114.19282, "population": 14147}, {"name": "Yau Yat Chuen", "lat": 22.33101, "lng": 114.17413, "population": 14059}, {"name": "Tung Tau Tsuen", "lat": 22.45291, "lng": 114.02873, "population": 13928}, {"name": "Hung Hom", "lat": 22.30715, "lng": 114.18532, "population": 13762}, {"name": "Tai Yuen Estate", "lat": 22.45574, "lng": 114.16971, "population": 13614}, {"name": "Sai Ying Pun", "lat": 22.28998, "lng": 114.14223, "population": 13600}, {"name": "Victoria Park", "lat": 22.28464, "lng": 114.19051, "population": 13521}, {"name": "Tin Hau", "lat": 22.28093, "lng": 114.1924, "population": 13521}, {"name": "Fuk Loi", "lat": 22.37405, "lng": 114.11352, "population": 13490}, {"name": "Shau Kei Wan", "lat": 22.27771, "lng": 114.22864, "population": 13442}, {"name": "Wah Kwai", "lat": 22.25097, "lng": 114.14005, "population": 13309}, {"name": "Happy Valley", "lat": 22.26912, "lng": 114.18619, "population": 13248}, {"name": "Kowloon Bay", "lat": 22.32662, "lng": 114.20777, "population": 13200}, {"name": "Kornhill", "lat": 22.28213, "lng": 114.21566, "population": 13083}, {"name": "Wu King", "lat": 22.37607, "lng": 113.96537, "population": 13070}, {"name": "Causeway Bay", "lat": 22.28189, "lng": 114.18515, "population": 12777}, {"name": "Tai Wo", "lat": 22.45151, "lng": 114.16115, "population": 12752}, {"name": "Laguna Verde (Estate)", "lat": 22.30767, "lng": 114.19288, "population": 12664}, {"name": "Yuet Wu", "lat": 22.37529, "lng": 113.96814, "population": 12513}, {"name": "Mount Parker", "lat": 22.26638, "lng": 114.21833, "population": 12348}, {"name": "Ho Man Tin Estate", "lat": 22.3149, "lng": 114.18252, "population": 12329}, {"name": "Siu Hei", "lat": 22.37359, "lng": 113.9671, "population": 12206}, {"name": "Shek Wai Kok", "lat": 22.37546, "lng": 114.12411, "population": 12198}, {"name": "Upper Wong Tai Sin Estate", "lat": 22.3433, "lng": 114.19193, "population": 12176}, {"name": "Fung Tak Estate", "lat": 22.34432, "lng": 114.20087, "population": 12066}, {"name": "Pak Shek Kok", "lat": 22.42734, "lng": 114.20366, "population": 12000}, {"name": "Ap Lei Chau Estate", "lat": 22.24473, "lng": 114.15052, "population": 11960}, {"name": "Kai Ching Estate", "lat": 22.33289, "lng": 114.20304, "population": 11876}, {"name": "Hung Shui Kiu", "lat": 22.43163, "lng": 113.98815, "population": 11851}, {"name": "Kwong Yuen", "lat": 22.38005, "lng": 114.21361, "population": 11716}, {"name": "Tai Mong Tsai", "lat": 22.40034, "lng": 114.30249, "population": 11526}, {"name": "Tai Hang", "lat": 22.27851, "lng": 114.1922, "population": 11425}, {"name": "Charming Garden", "lat": 22.31382, "lng": 114.1647, "population": 11335}, {"name": "Lei Cheng Uk Estate", "lat": 22.33937, "lng": 114.15921, "population": 11259}, {"name": "Quarry Bay", "lat": 22.28768, "lng": 114.2135, "population": 11198}, {"name": "Central", "lat": 22.28299, "lng": 114.15846, "population": 11077}, {"name": "Lai Tsui Court", "lat": 22.33376, "lng": 114.15506, "population": 10438}, {"name": "Tsui Chuk Garden", "lat": 22.34639, "lng": 114.18766, "population": 10071}, {"name": "Lok Fu Estate", "lat": 22.33719, "lng": 114.18672, "population": 9944}, {"name": "Chi Fu Fa Yuen", "lat": 22.25582, "lng": 114.13928, "population": 9813}, {"name": "Hoi Fu Court", "lat": 22.31631, "lng": 114.16466, "population": 9540}, {"name": "Wan Tsui Estate", "lat": 22.26123, "lng": 114.2374, "population": 9532}, {"name": "Jat Min Chuen", "lat": 22.37609, "lng": 114.1914, "population": 9424}, {"name": "Wah Kwai Estate", "lat": 22.25044, "lng": 114.13964, "population": 9321}, {"name": "Fullview Garden", "lat": 22.26251, "lng": 114.25191, "population": 9175}, {"name": "Oi Tung Estate", "lat": 22.28173, "lng": 114.22786, "population": 9128}, {"name": "Island Resort", "lat": 22.26665, "lng": 114.2508, "population": 9025}, {"name": "Rhythm Garden", "lat": 22.33617, "lng": 114.20272, "population": 8980}, {"name": "Residence Bel-air", "lat": 22.25466, "lng": 114.13289, "population": 8795}, {"name": "Lok Man Sun Chuen", "lat": 22.3163, "lng": 114.18616, "population": 8696}, {"name": "Aldrich Garden", "lat": 22.28082, "lng": 114.22857, "population": 8644}, {"name": "Tin Wan Estate", "lat": 22.25073, "lng": 114.1487, "population": 8491}, {"name": "Aberdeen Centre", "lat": 22.24842, "lng": 114.15406, "population": 8353}, {"name": "Yue Wan Estate", "lat": 22.26592, "lng": 114.24129, "population": 7998}, {"name": "Metro Harbour", "lat": 22.32447, "lng": 114.16028, "population": 7887}, {"name": "Peng Chau", "lat": 22.28333, "lng": 114.03333, "population": 7821}, {"name": "The Belcher's", "lat": 22.28481, "lng": 114.13329, "population": 7265}, {"name": "Tai Hang Estate (East & West)", "lat": 22.33209, "lng": 114.17068, "population": 7263}, {"name": "Hoi Lok Court", "lat": 22.32781, "lng": 114.14913, "population": 7247}, {"name": "Tsz Hong Estate", "lat": 22.34747, "lng": 114.20274, "population": 7079}, {"name": "Nam Fung Sun Chuen", "lat": 22.28247, "lng": 114.21475, "population": 6877}, {"name": "Chong Chien Court - Wyler Gardens", "lat": 22.31811, "lng": 114.19205, "population": 6746}, {"name": "Hung Hom Estate", "lat": 22.308, "lng": 114.18929, "population": 6744}, {"name": "Harbour Place", "lat": 22.30323, "lng": 114.18619, "population": 6704}, {"name": "Harmony Garden", "lat": 22.26573, "lng": 114.2487, "population": 6697}, {"name": "Whampoa Estate", "lat": 22.30624, "lng": 114.18819, "population": 6647}, {"name": "Ka Wai Chuen", "lat": 22.30791, "lng": 114.18648, "population": 6634}, {"name": "Grand View Garden", "lat": 22.34132, "lng": 114.20779, "population": 6615}, {"name": "Lung Poon Court", "lat": 22.34239, "lng": 114.19987, "population": 6550}, {"name": "Banyan Garden", "lat": 22.3346, "lng": 114.14797, "population": 6515}, {"name": "Lei King Wan", "lat": 22.28389, "lng": 114.22328, "population": 6389}, {"name": "Tsui Wan Estate", "lat": 22.2682, "lng": 114.24028, "population": 6288}, {"name": "Tung Hei Court", "lat": 22.28031, "lng": 114.21886, "population": 6262}, {"name": "Island Harbourview", "lat": 22.31842, "lng": 114.15745, "population": 6236}, {"name": "Lai Tak Tsuen", "lat": 22.27789, "lng": 114.1947, "population": 6211}, {"name": "Nam Shan Estate", "lat": 22.33477, "lng": 114.17182, "population": 6208}, {"name": "Lai Kok Estate", "lat": 22.33227, "lng": 114.15691, "population": 6200}, {"name": "Kwun Lung Lau", "lat": 22.28044, "lng": 114.12758, "population": 6156}, {"name": "Hing Tung Estate", "lat": 22.28151, "lng": 114.21943, "population": 6076}, {"name": "Greenwood Terrace", "lat": 22.26718, "lng": 114.23492, "population": 6061}, {"name": "Tin Ma Court", "lat": 22.34321, "lng": 114.18691, "population": 6034}, {"name": "Liberte", "lat": 22.33465, "lng": 114.14886, "population": 6009}, {"name": "Siu Chik Sha", "lat": 22.30086, "lng": 114.27471, "population": 6005}, {"name": "Yung Shue Wan", "lat": 22.22623, "lng": 114.11241, "population": 6000}, {"name": "Hing Man Estate", "lat": 22.26682, "lng": 114.2327, "population": 5990}, {"name": "Galaxia", "lat": 22.34121, "lng": 114.20218, "population": 5964}, {"name": "Tsz Man Estate", "lat": 22.34816, "lng": 114.20287, "population": 5936}, {"name": "Sorrento", "lat": 22.30641, "lng": 114.16226, "population": 5802}, {"name": "Kingsford Terrace", "lat": 22.34031, "lng": 114.21125, "population": 5698}, {"name": "Sky Tower", "lat": 22.3235, "lng": 114.18982, "population": 5678}, {"name": "Kornhill Garden", "lat": 22.2853, "lng": 114.21601, "population": 5619}, {"name": "The Pacifica", "lat": 22.33448, "lng": 114.14988, "population": 5604}, {"name": "Fu Shan Estate", "lat": 22.34278, "lng": 114.20865, "population": 5572}, {"name": "Mui Wo Kau Tsuen", "lat": 22.26886, "lng": 113.98609, "population": 5485}, {"name": "Cheerful Garden", "lat": 22.263, "lng": 114.25063, "population": 5367}, {"name": "Baguio Villa", "lat": 22.26234, "lng": 114.13364, "population": 5339}, {"name": "Ming Wah Dai Ha", "lat": 22.27778, "lng": 114.23108, "population": 5299}, {"name": "Tung Wui Estate", "lat": 22.33228, "lng": 114.19393, "population": 5280}, {"name": "Healthy Village", "lat": 22.29117, "lng": 114.20624, "population": 5278}, {"name": "Cullinan West", "lat": 22.32702, "lng": 114.15409, "population": 5276}, {"name": "Yue On Court", "lat": 22.24304, "lng": 114.15746, "population": 5175}, {"name": "So Kwun Wat Tsuen", "lat": 22.3849, "lng": 114.00448, "population": 5172}, {"name": "Sok Kwu Wan", "lat": 22.20453, "lng": 114.13159, "population": 5100}, {"name": "Tung Yuk Court", "lat": 22.2824, "lng": 114.22681, "population": 5052}, {"name": "Cosmopolitan Estate", "lat": 22.32161, "lng": 114.16162, "population": 5035}, {"name": "Admiralty", "lat": 22.28025, "lng": 114.16337, "population": 5031}, {"name": "Parc Oasis", "lat": 22.33332, "lng": 114.17488, "population": 5005}, {"name": "Sha Tau Kok", "lat": 22.54569, "lng": 114.22379, "population": 5001}, {"name": "Pui O", "lat": 22.24597, "lng": 113.97817, "population": 5001}, {"name": "Ngong Ping", "lat": 22.25556, "lng": 113.90391, "population": 5001}, {"name": "Nai Chung", "lat": 22.43116, "lng": 114.25753, "population": 5001}, {"name": "Ma Tau Wai Estate", "lat": 22.32376, "lng": 114.18678, "population": 4942}, {"name": "Chun Man Court", "lat": 22.31543, "lng": 114.17927, "population": 4929}, {"name": "Provident Centre", "lat": 22.29214, "lng": 114.19566, "population": 4873}, {"name": "Grand Promenade", "lat": 22.28499, "lng": 114.225, "population": 4801}, {"name": "Nam Cheong Estate", "lat": 22.32593, "lng": 114.15744, "population": 4684}, {"name": "Park Avenue", "lat": 22.3163, "lng": 114.16295, "population": 4651}, {"name": "Fortune Estate", "lat": 22.33556, "lng": 114.15373, "population": 4587}, {"name": "Tai On Lau", "lat": 22.28274, "lng": 114.2221, "population": 4561}, {"name": "The Long Beach", "lat": 22.31925, "lng": 114.15582, "population": 4472}, {"name": "New Jade Garden", "lat": 22.26376, "lng": 114.23685, "population": 4440}, {"name": "Lok Hin Terrace", "lat": 22.26424, "lng": 114.2412, "population": 4425}, {"name": "Mei Tung Estate", "lat": 22.33314, "lng": 114.18986, "population": 4411}, {"name": "Grand Waterfront", "lat": 22.31921, "lng": 114.19375, "population": 4400}, {"name": "Royal Peninsula", "lat": 22.30469, "lng": 114.18452, "population": 4396}, {"name": "Aqua Marine", "lat": 22.33258, "lng": 114.14867, "population": 4367}, {"name": "Prosperous Garden", "lat": 22.31009, "lng": 114.16829, "population": 4090}, {"name": "Broadview Court", "lat": 22.24269, "lng": 114.16566, "population": 4087}, {"name": "The Waterfront", "lat": 22.30463, "lng": 114.16303, "population": 4002}, {"name": "King Shan Court", "lat": 22.34195, "lng": 114.21019, "population": 3999}, {"name": "Bedford Garden", "lat": 22.28962, "lng": 114.20454, "population": 3950}, {"name": "Kai Tak Garden", "lat": 22.3378, "lng": 114.19461, "population": 3928}, {"name": "Choi Fai Estate", "lat": 22.33539, "lng": 114.21811, "population": 3923}, {"name": "Chak On Estate", "lat": 22.34029, "lng": 114.16454, "population": 3913}, {"name": "Ka Lung Court", "lat": 22.24948, "lng": 114.13869, "population": 3906}, {"name": "The Central Park", "lat": 22.31715, "lng": 114.16182, "population": 3873}, {"name": "Fortress Garden", "lat": 22.28744, "lng": 114.19411, "population": 3860}, {"name": "Wing Cheong Estate", "lat": 22.32928, "lng": 114.15548, "population": 3620}, {"name": "Chai Wan Estate", "lat": 22.26428, "lng": 114.2423, "population": 3578}, {"name": "Fu Keung Court", "lat": 22.34034, "lng": 114.18453, "population": 3557}, {"name": "Lai On Estate", "lat": 22.33135, "lng": 114.15857, "population": 3534}, {"name": "Tung Tao Court", "lat": 22.28181, "lng": 114.22549, "population": 3506}, {"name": "Hoi Ying Estate", "lat": 22.32853, "lng": 114.14825, "population": 3444}, {"name": "Mei King Mansion", "lat": 22.31606, "lng": 114.19047, "population": 3421}, {"name": "Hoi Tat Estate", "lat": 22.33017, "lng": 114.14946, "population": 3415}, {"name": "Kai Tsui Court", "lat": 22.26158, "lng": 114.25105, "population": 3379}, {"name": "Harbour Green", "lat": 22.32127, "lng": 114.15931, "population": 3329}, {"name": "Fung Wah Estate", "lat": 22.26079, "lng": 114.23137, "population": 3303}, {"name": "Tai O", "lat": 22.25515, "lng": 113.86309, "population": 3300}, {"name": "Celestial Heights", "lat": 22.31922, "lng": 114.18556, "population": 3265}, {"name": "The Latitude", "lat": 22.33339, "lng": 114.19664, "population": 3264}, {"name": "Tung Chun Court", "lat": 22.27772, "lng": 114.22206, "population": 3242}, {"name": "Cheung Sha Wan Estate", "lat": 22.33453, "lng": 114.15623, "population": 3209}, {"name": "Mantin Heights", "lat": 22.31926, "lng": 114.18187, "population": 3189}, {"name": "Manhattan Hill", "lat": 22.33458, "lng": 114.14231, "population": 3140}, {"name": "Sha Tin Pass Estate", "lat": 22.34981, "lng": 114.19515, "population": 3063}, {"name": "Braemar Hill Mansions", "lat": 22.28543, "lng": 114.20114, "population": 3045}, {"name": "Yue Fai Court", "lat": 22.2498, "lng": 114.15678, "population": 3025}, {"name": "Pokfulam Gardens", "lat": 22.25776, "lng": 114.13751, "population": 3005}, {"name": "Metropole Building", "lat": 22.29056, "lng": 114.19942, "population": 2980}, {"name": "South Wave Court", "lat": 22.24463, "lng": 114.16623, "population": 2939}, {"name": "On Wo Yuen", "lat": 22.31653, "lng": 114.19132, "population": 2781}, {"name": "One Kai Tak", "lat": 22.32971, "lng": 114.20049, "population": 2777}, {"name": "Yue Kwong Chuen", "lat": 22.25158, "lng": 114.15764, "population": 2679}, {"name": "Queen's Terrace", "lat": 22.28702, "lng": 114.14723, "population": 2573}, {"name": "Healthy Gardens", "lat": 22.29153, "lng": 114.20387, "population": 2532}, {"name": "The Merton", "lat": 22.28333, "lng": 114.12633, "population": 2474}, {"name": "Lau Fau Shan", "lat": 22.28328, "lng": 113.93416, "population": 2230}, {"name": "Ting Kok", "lat": 22.47285, "lng": 114.21995, "population": 2000}, {"name": "Shouson Hill", "lat": 22.24843, "lng": 114.17993, "population": 1737}]