[{"name": "Jerusalem", "lat": 31.76904, "lng": 35.21633, "population": 971800}, {"name": "Tel Aviv", "lat": 32.08088, "lng": 34.78057, "population": 432892}, {"name": "West Jerusalem", "lat": 31.78199, "lng": 35.21961, "population": 400000}, {"name": "Haifa", "lat": 32.81303, "lng": 34.99928, "population": 285316}, {"name": "Rishon LeTsiyyon", "lat": 31.97102, "lng": 34.78939, "population": 258535}, {"name": "Petaẖ Tiqva", "lat": 32.08707, "lng": 34.88747, "population": 253529}, {"name": "Netanya", "lat": 32.33291, "lng": 34.85992, "population": 228204}, {"name": "Ashdod", "lat": 31.79213, "lng": 34.64966, "population": 226838}, {"name": "Bnei Brak", "lat": 32.08074, "lng": 34.8338, "population": 214444}, {"name": "H̱olon", "lat": 32.01034, "lng": 34.77918, "population": 196282}, {"name": "Beersheba", "lat": 31.25181, "lng": 34.7913, "population": 186600}, {"name": "Ramat Gan", "lat": 32.08227, "lng": 34.81065, "population": 170822}, {"name": "Reẖovot", "lat": 31.89421, "lng": 34.81199, "population": 149392}, {"name": "Ashkelon", "lat": 31.66926, "lng": 34.57149, "population": 144073}, {"name": "Bat Yam", "lat": 32.02379, "lng": 34.75185, "population": 129012}, {"name": "Bet Shemesh", "lat": 31.73072, "lng": 34.99293, "population": 124957}, {"name": "Kfar Saba", "lat": 32.175, "lng": 34.90694, "population": 110456}, {"name": "Jaffa", "lat": 32.05043, "lng": 34.75224, "population": 100000}, {"name": "Herzliya", "lat": 32.16627, "lng": 34.82536, "population": 97470}, {"name": "Hadera", "lat": 32.44192, "lng": 34.9039, "population": 97335}, {"name": "Modi‘in Makkabbim Re‘ut", "lat": 31.89385, "lng": 35.01504, "population": 93277}, {"name": "Nazareth", "lat": 32.70087, "lng": 35.29719, "population": 77445}, {"name": "Lod", "lat": 31.9467, "lng": 34.8903, "population": 77223}, {"name": "Modiin Ilit", "lat": 31.93221, "lng": 35.04416, "population": 76374}, {"name": "Ramla", "lat": 31.92624, "lng": 34.8635, "population": 76246}, {"name": "Ra'anana", "lat": 32.1836, "lng": 34.87386, "population": 75421}, {"name": "Rosh Ha‘Ayin", "lat": 32.09556, "lng": 34.95664, "population": 72881}, {"name": "Hod HaSharon", "lat": 32.15934, "lng": 34.8932, "population": 63175}, {"name": "Kiryat Gat", "lat": 31.60998, "lng": 34.76422, "population": 61817}, {"name": "Givatayim", "lat": 32.07225, "lng": 34.81253, "population": 60644}, {"name": "Qiryat Ata", "lat": 32.81149, "lng": 35.11323, "population": 59030}, {"name": "Nahariyya", "lat": 33.00892, "lng": 35.09814, "population": 58096}, {"name": "Umm el Faḥm", "lat": 32.51725, "lng": 35.15349, "population": 56109}, {"name": "Eilat", "lat": 29.55805, "lng": 34.94821, "population": 52299}, {"name": "Acre", "lat": 32.92814, "lng": 35.07647, "population": 51420}, {"name": "Ness Ziona", "lat": 31.92933, "lng": 34.79868, "population": 50351}, {"name": "El‘ad", "lat": 32.04984, "lng": 34.95382, "population": 48763}, {"name": "Yavné", "lat": 31.87808, "lng": 34.73983, "population": 47585}, {"name": "Ramat HaSharon", "lat": 32.14613, "lng": 34.8394, "population": 47245}, {"name": "Karmi’el", "lat": 32.91708, "lng": 35.30501, "population": 46252}, {"name": "Afula", "lat": 32.60907, "lng": 35.2892, "population": 44930}, {"name": "Pardés H̱anna Karkur", "lat": 32.47408, "lng": 34.97781, "population": 44840}, {"name": "Tiberias", "lat": 32.79221, "lng": 35.53124, "population": 44779}, {"name": "Eṭ Ṭaiyiba", "lat": 32.26616, "lng": 35.00893, "population": 43957}, {"name": "Qiryat Bialik", "lat": 32.8275, "lng": 35.08583, "population": 43955}, {"name": "Netivot", "lat": 31.42305, "lng": 34.58911, "population": 43732}, {"name": "Naẕerat ‘Illit", "lat": 32.70816, "lng": 35.32469, "population": 43556}, {"name": "Qiryat Motsqin", "lat": 32.83706, "lng": 35.0776, "population": 43303}, {"name": "Shefar‘am", "lat": 32.80583, "lng": 35.16895, "population": 42137}, {"name": "Kiryat Ono", "lat": 32.06124, "lng": 34.85618, "population": 39986}, {"name": "Qiryat Yam", "lat": 32.84966, "lng": 35.06973, "population": 39897}, {"name": "Or Yehuda", "lat": 32.02923, "lng": 34.85788, "population": 36813}, {"name": "Dimona", "lat": 31.07079, "lng": 35.03269, "population": 36192}, {"name": "Safed", "lat": 32.96465, "lng": 35.496, "population": 36094}, {"name": "Ofaqim", "lat": 31.3141, "lng": 34.62025, "population": 34666}, {"name": "Sakhnīn", "lat": 32.86422, "lng": 35.29707, "population": 31702}, {"name": "Gedera", "lat": 31.81456, "lng": 34.77998, "population": 30798}, {"name": "Bāqa el Gharbīya", "lat": 32.41806, "lng": 35.04312, "population": 29950}, {"name": "Yehud-Monosson", "lat": 32.0284, "lng": 34.8796, "population": 29312}, {"name": "Giv'at Shmuel", "lat": 32.07817, "lng": 34.84858, "population": 28628}, {"name": "Arad", "lat": 31.25882, "lng": 35.21282, "population": 27967}, {"name": "Tirat Karmel", "lat": 32.76021, "lng": 34.97183, "population": 27822}, {"name": "Be’er Ya‘aqov", "lat": 31.93864, "lng": 34.83749, "population": 27768}, {"name": "Sderot", "lat": 31.525, "lng": 34.59693, "population": 27635}, {"name": "Eṭ Ṭīra", "lat": 32.2341, "lng": 34.95023, "population": 26552}, {"name": "Tamra", "lat": 32.85301, "lng": 35.1987, "population": 25917}, {"name": "Migdal Ha‘Emeq", "lat": 32.67597, "lng": 35.23986, "population": 25675}, {"name": "Yehud", "lat": 32.03317, "lng": 34.89091, "population": 25600}, {"name": "Qiryat Mal’akhi", "lat": 31.72888, "lng": 34.74632, "population": 25362}, {"name": "Ganei Tikva", "lat": 32.05971, "lng": 34.8732, "population": 25093}, {"name": "Qiryat HaYovel", "lat": 31.76667, "lng": 35.16667, "population": 25000}, {"name": "Daliyat al Karmel", "lat": 32.69383, "lng": 35.04686, "population": 25000}, {"name": "‘Ar‘ara", "lat": 32.49553, "lng": 35.09411, "population": 24904}, {"name": "Kfar Yona", "lat": 32.31669, "lng": 34.93507, "population": 24778}, {"name": "Nesher", "lat": 32.76622, "lng": 35.04425, "population": 24148}, {"name": "Mevasseret Tsiyyon", "lat": 31.80186, "lng": 35.15072, "population": 24052}, {"name": "Gan Yavne", "lat": 31.78737, "lng": 34.70659, "population": 23869}, {"name": "Kafr Qāsim", "lat": 32.11406, "lng": 34.97624, "population": 23823}, {"name": "Yoqne‘am ‘Illit", "lat": 32.65385, "lng": 35.10382, "population": 23796}, {"name": "Zikhron Ya‘aqov", "lat": 32.56645, "lng": 34.95628, "population": 23206}, {"name": "Maghār", "lat": 32.88984, "lng": 35.40703, "population": 22957}, {"name": "Kafr Kannā", "lat": 32.7466, "lng": 35.34242, "population": 22751}, {"name": "Qiryat Shmona", "lat": 33.20733, "lng": 35.57212, "population": 22512}, {"name": "Kadima Zoran", "lat": 32.27782, "lng": 34.9194, "population": 22490}, {"name": "maalot Tarshīhā", "lat": 33.01667, "lng": 35.26667, "population": 21836}, {"name": "H̱ura", "lat": 31.30084, "lng": 34.93606, "population": 21558}, {"name": "Judeida Makr", "lat": 32.9282, "lng": 35.15705, "population": 21163}, {"name": "Kuseifa", "lat": 31.24535, "lng": 35.0931, "population": 21079}, {"name": "Shoham", "lat": 31.99866, "lng": 34.94559, "population": 20740}, {"name": "Ariel", "lat": 32.1065, "lng": 35.18449, "population": 20540}, {"name": "Tel Sheva‘", "lat": 31.24864, "lng": 34.86007, "population": 20204}, {"name": "Kafr Mandā", "lat": 32.81034, "lng": 35.26009, "population": 20188}, {"name": "Rahat", "lat": 31.39547, "lng": 34.75699, "population": 19586}, {"name": "Kafr Qari‘", "lat": 32.50666, "lng": 35.05392, "population": 19018}, {"name": "Or Akiva", "lat": 32.5064, "lng": 34.92087, "population": 18972}, {"name": "Yāfā", "lat": 32.68923, "lng": 35.27832, "population": 18905}, {"name": "Qiryat Tiv‘on", "lat": 32.71618, "lng": 35.12494, "population": 18130}, {"name": "‘Ar‘ara BaNegev", "lat": 31.16046, "lng": 35.02274, "population": 17640}, {"name": "Yirkā", "lat": 32.95435, "lng": 35.21197, "population": 17171}, {"name": "Qalansuwa", "lat": 32.28493, "lng": 34.98106, "population": 16898}, {"name": "Bet She’an", "lat": 32.49728, "lng": 35.49632, "population": 16800}, {"name": "Binyamina", "lat": 32.5232, "lng": 34.94499, "population": 15847}, {"name": "Binyamina-Giv'at Ada", "lat": 32.51824, "lng": 34.95398, "population": 15847}, {"name": "Er Reina", "lat": 32.72339, "lng": 35.31622, "population": 15621}, {"name": "Giv`at H̱ananya", "lat": 31.76667, "lng": 35.23333, "population": 15500}, {"name": "Majd el Kurūm", "lat": 32.92186, "lng": 35.25568, "population": 15455}, {"name": "Jisr ez Zarqā", "lat": 32.53684, "lng": 34.9127, "population": 14930}, {"name": "Mazkeret Batya", "lat": 31.85357, "lng": 34.84646, "population": 14837}, {"name": "Maale Iron", "lat": 32.55382, "lng": 35.18412, "population": 14833}, {"name": "Iksāl", "lat": 32.68164, "lng": 35.32365, "population": 14784}, {"name": "Abū Sinān", "lat": 32.95891, "lng": 35.17152, "population": 14099}, {"name": "Kābūl", "lat": 32.86856, "lng": 35.21171, "population": 14095}, {"name": "Laqiyya", "lat": 31.3185, "lng": 34.8589, "population": 14075}, {"name": "Even Yehuda", "lat": 32.26959, "lng": 34.88759, "population": 13826}, {"name": "‘Ein Māhil", "lat": 32.72304, "lng": 35.35303, "population": 13335}, {"name": "I‘billīn", "lat": 32.82233, "lng": 35.19271, "population": 13305}, {"name": "El Fureidīs", "lat": 32.59812, "lng": 34.95153, "population": 13247}, {"name": "Tel Mond", "lat": 32.24995, "lng": 34.91737, "population": 13144}, {"name": "Naḥf", "lat": 32.93444, "lng": 35.31679, "population": 13113}, {"name": "Azor", "lat": 32.0243, "lng": 34.80632, "population": 12957}, {"name": "Rekhasim", "lat": 32.74907, "lng": 35.09901, "population": 12668}, {"name": "Deir el Asad", "lat": 32.93598, "lng": 35.26998, "population": 12514}, {"name": "‘Isfiyā", "lat": 32.71836, "lng": 35.06509, "population": 12503}, {"name": "Jatt", "lat": 32.39843, "lng": 35.03933, "population": 12100}, {"name": "Beit Jann", "lat": 32.96464, "lng": 35.38152, "population": 12001}, {"name": "Majdal Shams", "lat": 33.27029, "lng": 35.7716, "population": 11180}, {"name": "Qiryat ‘Eqron", "lat": 31.86119, "lng": 34.82275, "population": 11001}, {"name": "Segev Shalom", "lat": 31.19918, "lng": 34.83956, "population": 10362}, {"name": "Deir Ḥannā", "lat": 32.86196, "lng": 35.36365, "population": 10339}, {"name": "Yeroẖam", "lat": 30.98822, "lng": 34.93176, "population": 10294}, {"name": "Jaljūlya", "lat": 32.1547, "lng": 34.95372, "population": 10148}, {"name": "Kfar Yasif", "lat": 32.95451, "lng": 35.1623, "population": 10133}, {"name": "Herzliya Pituah", "lat": 32.17409, "lng": 34.8028, "population": 10000}, {"name": "Basma", "lat": 32.52904, "lng": 35.10059, "population": 9779}, {"name": "Bu'ayna-Nujaydat", "lat": 32.80966, "lng": 35.36987, "population": 9645}, {"name": "H̱atsor HaGelilit", "lat": 32.98049, "lng": 35.54243, "population": 9272}, {"name": "Atlit", "lat": 32.68889, "lng": 34.94236, "population": 8875}, {"name": "Kisra - Sume'a", "lat": 32.97262, "lng": 35.29877, "population": 8818}, {"name": "Kokhav Ya’ir", "lat": 32.22623, "lng": 35.00222, "population": 8702}, {"name": "Meitar", "lat": 31.32726, "lng": 34.93855, "population": 8438}, {"name": "Bi’na", "lat": 32.93066, "lng": 35.27157, "population": 8381}, {"name": "‘Ilūṭ", "lat": 32.71639, "lng": 35.25944, "population": 8356}, {"name": "Dabbūrīya", "lat": 32.69256, "lng": 35.37123, "population": 8305}, {"name": "Zarzir", "lat": 32.72754, "lng": 35.21381, "population": 7942}, {"name": "Basmat Ṭab‘ūn", "lat": 32.73898, "lng": 35.15716, "population": 7916}, {"name": "Bu‘eina", "lat": 32.80636, "lng": 35.36486, "population": 7900}, {"name": "Ramat Yishay", "lat": 32.70444, "lng": 35.1707, "population": 7785}, {"name": "Rama", "lat": 32.93844, "lng": 35.3675, "population": 7728}, {"name": "Abū Ghaush", "lat": 31.80592, "lng": 35.1093, "population": 7698}, {"name": "H̱arish", "lat": 32.46096, "lng": 35.0435, "population": 7569}, {"name": "‘Omer", "lat": 31.26489, "lng": 34.84766, "population": 7530}, {"name": "Katzrin", "lat": 32.99194, "lng": 35.69139, "population": 7132}, {"name": "Bīr el Maksūr", "lat": 32.77732, "lng": 35.22069, "population": 7106}, {"name": "Bet Dagan", "lat": 32.00191, "lng": 34.82977, "population": 7099}, {"name": "Zemer", "lat": 32.36658, "lng": 35.03312, "population": 7094}, {"name": "Bnei Ayish", "lat": 31.79, "lng": 34.759, "population": 6978}, {"name": "Sha‘av", "lat": 32.88943, "lng": 35.24093, "population": 6941}, {"name": "Tūbā Zangarīya", "lat": 32.96606, "lng": 35.59304, "population": 6776}, {"name": "Yanuah Jat", "lat": 32.9798, "lng": 35.23806, "population": 6679}, {"name": "Yanuh-Jat", "lat": 32.98515, "lng": 35.2491, "population": 6614}, {"name": "Kfar H̱abad", "lat": 31.98793, "lng": 34.8516, "population": 6598}, {"name": "Shlomi", "lat": 33.07186, "lng": 35.14527, "population": 6511}, {"name": "Jūlis", "lat": 32.94267, "lng": 35.18278, "population": 6465}, {"name": "Lehavim", "lat": 31.37284, "lng": 34.81619, "population": 6415}, {"name": "Ḥurfeish", "lat": 33.01711, "lng": 35.34835, "population": 6410}, {"name": "Qiryat Ye‘arim", "lat": 31.803, "lng": 35.102, "population": 6128}, {"name": "Tsur Itshak", "lat": 32.24047, "lng": 34.99788, "population": 6044}, {"name": "Bet El‘azari", "lat": 31.84429, "lng": 34.80368, "population": 6042}, {"name": "Shibli–Umm al-Ghanam", "lat": 32.68395, "lng": 35.39621, "population": 5995}, {"name": "Pardesiyya", "lat": 32.30577, "lng": 34.90911, "population": 5930}, {"name": "Buqei‘a", "lat": 32.97747, "lng": 35.33345, "population": 5893}, {"name": "‘Eilabun", "lat": 32.83693, "lng": 35.40029, "population": 5752}, {"name": "Bir Hadaj", "lat": 31.02416, "lng": 34.70857, "population": 5735}, {"name": "AlSayid Tribe", "lat": 31.28252, "lng": 34.91505, "population": 5663}, {"name": "Ka‘abiyya", "lat": 32.74985, "lng": 35.18361, "population": 5504}, {"name": "Kfar Veradim", "lat": 32.99385, "lng": 35.27793, "population": 5486}, {"name": "Caesarea", "lat": 32.51888, "lng": 34.90459, "population": 5343}, {"name": "Bat H̱efer", "lat": 32.33307, "lng": 35.01272, "population": 5301}, {"name": "Mitzpe Ramon", "lat": 30.60944, "lng": 34.80111, "population": 5211}, {"name": "Shibli", "lat": 32.69464, "lng": 35.39252, "population": 4800}, {"name": "Tsur Hadassa", "lat": 31.71912, "lng": 35.09708, "population": 4700}, {"name": "Zalafa", "lat": 32.54805, "lng": 35.1852, "population": 4639}, {"name": "Talmon", "lat": 31.93927, "lng": 35.13539, "population": 4575}, {"name": "Yavne’el", "lat": 32.70619, "lng": 35.50435, "population": 4460}, {"name": "Kfar Tavor", "lat": 32.68655, "lng": 35.42118, "population": 4311}, {"name": "Sājūr", "lat": 32.94266, "lng": 35.34136, "population": 4270}, {"name": "Yad Binyamin", "lat": 31.7974, "lng": 34.82083, "population": 4268}, {"name": "Muṣmuṣ", "lat": 32.54358, "lng": 35.15619, "population": 4215}, {"name": "Umm Batin", "lat": 31.27735, "lng": 34.88246, "population": 4093}, {"name": "Muqeibila", "lat": 32.51424, "lng": 35.29617, "population": 4081}, {"name": "Savyon", "lat": 32.04966, "lng": 34.8777, "population": 4036}, {"name": "El Mazra‘a", "lat": 32.98338, "lng": 35.09837, "population": 3900}, {"name": "Naẖal Teqoa‘", "lat": 31.65406, "lng": 35.22822, "population": 3882}, {"name": "Kafr Barā", "lat": 32.13136, "lng": 34.97079, "population": 3678}, {"name": "Matan", "lat": 32.15856, "lng": 34.97413, "population": 3600}, {"name": "Kaukab Abū el Hījā", "lat": 32.83155, "lng": 35.24848, "population": 3589}, {"name": "‘Ein Naqūbā", "lat": 31.79366, "lng": 35.12064, "population": 3505}, {"name": "Elyakhin", "lat": 32.40793, "lng": 34.92433, "population": 3415}, {"name": "Kafr Kammā", "lat": 32.72129, "lng": 35.44122, "population": 3373}, {"name": "Sallama", "lat": 32.89443, "lng": 35.36931, "population": 3340}, {"name": "Har Adar", "lat": 31.82754, "lng": 35.13093, "population": 3300}, {"name": "Tsur Moshe", "lat": 32.29819, "lng": 34.91313, "population": 3291}, {"name": "‘Uzeir", "lat": 32.79212, "lng": 35.32984, "population": 3276}, {"name": "Fassūta", "lat": 33.04895, "lng": 35.30893, "population": 3172}, {"name": "Rosh Pinna", "lat": 32.96894, "lng": 35.54258, "population": 3148}, {"name": "Jīsh", "lat": 33.02216, "lng": 35.44694, "population": 3105}, {"name": "Esh Sheikh Dannūn", "lat": 32.9941, "lng": 35.14805, "population": 2887}, {"name": "Tel Qatsir", "lat": 32.70545, "lng": 35.61761, "population": 2878}, {"name": "Ibṭīn", "lat": 32.7615, "lng": 35.11402, "population": 2835}, {"name": "Hashmonaim", "lat": 31.92973, "lng": 35.0215, "population": 2771}, {"name": "Kafr Miṣr", "lat": 32.64521, "lng": 35.42147, "population": 2750}, {"name": "Mi‘ilyā", "lat": 33.02781, "lng": 35.25658, "population": 2700}, {"name": "Nofit", "lat": 32.76226, "lng": 35.1477, "population": 2689}, {"name": "Giv‘at Brenner", "lat": 31.86684, "lng": 34.80097, "population": 2678}, {"name": "Gan Ner", "lat": 32.53106, "lng": 35.3377, "population": 2670}, {"name": "Kfar NaOranim", "lat": 31.91982, "lng": 35.03669, "population": 2657}, {"name": "Revava", "lat": 32.11926, "lng": 35.12896, "population": 2632}, {"name": "Sūlam", "lat": 32.60606, "lng": 35.33408, "population": 2609}, {"name": "Ghajar", "lat": 33.27115, "lng": 35.62288, "population": 2607}, {"name": "Shimshit", "lat": 32.73137, "lng": 35.24409, "population": 2514}, {"name": "El‘azar", "lat": 31.65977, "lng": 35.14316, "population": 2510}, {"name": "Lapid", "lat": 31.91764, "lng": 35.03222, "population": 2497}, {"name": "Niẕẕan", "lat": 31.73854, "lng": 34.62985, "population": 2461}, {"name": "Miẕpé Yeriẖo", "lat": 31.81672, "lng": 35.39405, "population": 2453}, {"name": "Nā‘ūra", "lat": 32.61403, "lng": 35.39168, "population": 2324}, {"name": "Aẖuzzat Baraq", "lat": 32.64187, "lng": 35.33834, "population": 2279}, {"name": "Merkaz Shapira", "lat": 31.69874, "lng": 34.70895, "population": 2210}, {"name": "Bet H̱ashmonay", "lat": 31.88969, "lng": 34.91673, "population": 2197}, {"name": "Tifraẖ", "lat": 31.32657, "lng": 34.67689, "population": 2178}, {"name": "Na'ale", "lat": 31.96236, "lng": 35.06553, "population": 2148}, {"name": "Nof Ayalon", "lat": 31.87111, "lng": 34.99081, "population": 2128}, {"name": "Kokhav HaShaẖar", "lat": 31.96028, "lng": 35.34923, "population": 2122}, {"name": "Shtulim", "lat": 31.77354, "lng": 34.68388, "population": 2116}, {"name": "‘Ein Qunīya", "lat": 33.23752, "lng": 35.73131, "population": 2098}, {"name": "Bareqet", "lat": 32.01839, "lng": 34.94416, "population": 2082}, {"name": "Bet Yitsẖaq Sha’ar H̱efer", "lat": 32.33462, "lng": 34.89052, "population": 2079}, {"name": "Ma‘galim", "lat": 31.39688, "lng": 34.5995, "population": 2061}, {"name": "H̱aspin", "lat": 32.84571, "lng": 35.79295, "population": 2055}, {"name": "Hosha‘ya", "lat": 32.75809, "lng": 35.2948, "population": 2051}, {"name": "Giv‘at Avni", "lat": 32.77682, "lng": 35.43747, "population": 2049}, {"name": "Rumat Heib", "lat": 32.77802, "lng": 35.30571, "population": 2047}, {"name": "Ma‘agan Mikha’el", "lat": 32.55549, "lng": 34.91638, "population": 2039}, {"name": "Khirbat Abu Tulūl", "lat": 31.14229, "lng": 34.91424, "population": 2023}, {"name": "Meisir", "lat": 32.44445, "lng": 35.04134, "population": 2017}, {"name": "Kefar Vitqin", "lat": 32.38036, "lng": 34.87537, "population": 1973}, {"name": "Midreshet Ben-Gurion", "lat": 30.85154, "lng": 34.7834, "population": 1972}, {"name": "Giv‘at Ela", "lat": 32.72377, "lng": 35.24469, "population": 1964}, {"name": "Migdal", "lat": 32.8392, "lng": 35.50145, "population": 1952}, {"name": "Nordiyya", "lat": 32.3147, "lng": 34.89617, "population": 1950}, {"name": "Kfar Shmaryahu", "lat": 32.18529, "lng": 34.82082, "population": 1938}, {"name": "Sha‘alvim", "lat": 31.86996, "lng": 34.98722, "population": 1928}, {"name": "‘Adi", "lat": 32.78486, "lng": 35.17282, "population": 1910}, {"name": "Sha‘ar Efrayim", "lat": 32.29067, "lng": 34.9984, "population": 1907}, {"name": "Aẖi‘ezer", "lat": 31.98133, "lng": 34.87213, "population": 1906}, {"name": "Nein", "lat": 32.63063, "lng": 35.34885, "population": 1876}, {"name": "Taiyiba", "lat": 32.60415, "lng": 35.44483, "population": 1843}, {"name": "Even Shemu’el", "lat": 31.57641, "lng": 34.76342, "population": 1807}, {"name": "Neẖalim", "lat": 32.06012, "lng": 34.91069, "population": 1788}, {"name": "Nili", "lat": 31.96396, "lng": 35.04853, "population": 1786}, {"name": "Yesud HaMa‘ala", "lat": 33.0592, "lng": 35.61033, "population": 1730}, {"name": "Karmé Yosef", "lat": 31.84833, "lng": 34.92024, "population": 1730}, {"name": "Na‘an", "lat": 31.88282, "lng": 34.85832, "population": 1717}, {"name": "Bet Zayit", "lat": 31.78233, "lng": 35.16161, "population": 1708}, {"name": "‘Aramsha", "lat": 33.08781, "lng": 35.22836, "population": 1682}, {"name": "Bet Yitsẖaq", "lat": 32.32751, "lng": 34.88878, "population": 1674}, {"name": "Ṣandala", "lat": 32.52234, "lng": 35.32325, "population": 1644}, {"name": "Yagur", "lat": 32.7421, "lng": 35.0774, "population": 1617}, {"name": "Metulla", "lat": 33.27918, "lng": 35.5795, "population": 1615}, {"name": "Gesher HaZiv", "lat": 33.03995, "lng": 35.11189, "population": 1614}, {"name": "Qidron", "lat": 31.81405, "lng": 34.79714, "population": 1607}, {"name": "Ein Sarid", "lat": 32.27413, "lng": 34.93408, "population": 1603}, {"name": "Kfar Hess", "lat": 32.24714, "lng": 34.93562, "population": 1593}, {"name": "Sde ‘Uziyyahu", "lat": 31.75, "lng": 34.68333, "population": 1571}, {"name": "Ein Vered", "lat": 32.26667, "lng": 34.93333, "population": 1512}, {"name": "Afiqim", "lat": 32.68046, "lng": 35.57776, "population": 1511}, {"name": "Tel ‘Adashim", "lat": 32.65627, "lng": 35.30216, "population": 1504}, {"name": "Kfar Syrkin", "lat": 32.07804, "lng": 34.92261, "population": 1502}, {"name": "‘Azriqam", "lat": 31.7507, "lng": 34.69933, "population": 1495}, {"name": "Kammana", "lat": 32.91366, "lng": 35.35991, "population": 1495}, {"name": "Moreshet", "lat": 32.82859, "lng": 35.23466, "population": 1489}, {"name": "Neẖusha", "lat": 31.63064, "lng": 34.9531, "population": 1484}, {"name": "Sde Warburg", "lat": 32.20361, "lng": 34.90722, "population": 1478}, {"name": "H̱amam", "lat": 32.82955, "lng": 35.49195, "population": 1473}, {"name": "Kfar HaRo’e", "lat": 32.39245, "lng": 34.91163, "population": 1460}, {"name": "Rishpon", "lat": 32.20254, "lng": 34.82322, "population": 1458}, {"name": "Giv‘at Ye‘arim", "lat": 31.78653, "lng": 35.09182, "population": 1455}, {"name": "Gilat", "lat": 31.3276, "lng": 34.65202, "population": 1451}, {"name": "Dolev", "lat": 31.92609, "lng": 35.13393, "population": 1448}, {"name": "Bne Re’em", "lat": 31.77029, "lng": 34.79105, "population": 1417}, {"name": "Nes Harim", "lat": 31.74547, "lng": 35.0574, "population": 1414}, {"name": "Bet Qama", "lat": 31.44749, "lng": 34.76235, "population": 1405}, {"name": "Mikhmoret", "lat": 32.40535, "lng": 34.87091, "population": 1403}, {"name": "Kammon", "lat": 32.90891, "lng": 35.36075, "population": 1402}, {"name": "‘En Boqeq", "lat": 31.19941, "lng": 35.36253, "population": 1400}, {"name": "Ma’or", "lat": 32.42306, "lng": 35.00513, "population": 1398}, {"name": "Yoqneam", "lat": 32.65497, "lng": 35.11381, "population": 1398}, {"name": "Nir Gallim", "lat": 31.82542, "lng": 34.68282, "population": 1396}, {"name": "Manshīyet Zabda", "lat": 32.70638, "lng": 35.19354, "population": 1389}, {"name": "Udim", "lat": 32.26496, "lng": 34.84549, "population": 1379}, {"name": "Aẖisamakh", "lat": 31.93503, "lng": 34.90739, "population": 1377}, {"name": "Tal Shaẖar", "lat": 31.80466, "lng": 34.90271, "population": 1369}, {"name": "Kfar Menaẖem", "lat": 31.73139, "lng": 34.83547, "population": 1366}, {"name": "Matsliaẖ", "lat": 31.90669, "lng": 34.87134, "population": 1363}, {"name": "Kfar Rosh HaNiqra", "lat": 33.08571, "lng": 35.11588, "population": 1363}, {"name": "Nevve Yaraq", "lat": 32.13247, "lng": 34.92447, "population": 1348}, {"name": "Mazor", "lat": 32.05115, "lng": 34.92291, "population": 1331}, {"name": "Megadim", "lat": 32.72815, "lng": 34.95631, "population": 1329}, {"name": "H̱emed", "lat": 32.0159, "lng": 34.84284, "population": 1316}, {"name": "Ora", "lat": 31.75519, "lng": 35.15613, "population": 1314}, {"name": "Bustan HaGalil", "lat": 32.95119, "lng": 35.08298, "population": 1305}, {"name": "Shefayim", "lat": 32.21743, "lng": 34.82454, "population": 1302}, {"name": "H̱erut", "lat": 32.24018, "lng": 34.91583, "population": 1298}, {"name": "Be'er Ganim", "lat": 31.69973, "lng": 34.60978, "population": 1295}, {"name": "Timrat", "lat": 32.70302, "lng": 35.22359, "population": 1292}, {"name": "Be’er Toviyya", "lat": 31.73501, "lng": 34.72389, "population": 1289}, {"name": "Tsofit", "lat": 32.19423, "lng": 34.91957, "population": 1287}, {"name": "Nir Tsevi", "lat": 31.95291, "lng": 34.86408, "population": 1286}, {"name": "Berekhya", "lat": 31.66895, "lng": 34.6258, "population": 1274}, {"name": "Mishmar Ha‘Emeq", "lat": 32.61045, "lng": 35.14227, "population": 1271}, {"name": "Bet HaShitta", "lat": 32.55131, "lng": 35.43874, "population": 1263}, {"name": "Kfar Bilu", "lat": 31.87702, "lng": 34.82108, "population": 1258}, {"name": "Biẕẕaron", "lat": 31.79446, "lng": 34.72806, "population": 1258}, {"name": "‘Ein Rāfa", "lat": 31.7902, "lng": 35.11528, "population": 1250}, {"name": "‘En HaMifrats", "lat": 32.90308, "lng": 35.09619, "population": 1249}, {"name": "Bet H̱ilqiyya", "lat": 31.79281, "lng": 34.81048, "population": 1248}, {"name": "Shoresh", "lat": 31.79711, "lng": 35.06525, "population": 1247}, {"name": "Eshta’ol", "lat": 31.78072, "lng": 35.00994, "population": 1238}, {"name": "Sde Neẖemya", "lat": 33.18756, "lng": 35.62235, "population": 1235}, {"name": "Mabbu‘im", "lat": 31.44965, "lng": 34.65477, "population": 1235}, {"name": "Poriyya", "lat": 32.74311, "lng": 35.53816, "population": 1234}, {"name": "Giv'ot Bar", "lat": 31.3565, "lng": 34.75525, "population": 1230}, {"name": "Mesillat Tsiyyon", "lat": 31.802, "lng": 35.01095, "population": 1215}, {"name": "Batsra", "lat": 32.21412, "lng": 34.87676, "population": 1213}, {"name": "Rummāna", "lat": 32.78783, "lng": 35.31091, "population": 1212}, {"name": "Motsa ‘Illit", "lat": 31.79357, "lng": 35.15776, "population": 1212}, {"name": "Yif‘at", "lat": 32.6775, "lng": 35.22333, "population": 1208}, {"name": "Gimzo", "lat": 31.92846, "lng": 34.94154, "population": 1206}, {"name": "Shave Tsiyyon", "lat": 32.98098, "lng": 35.08331, "population": 1205}, {"name": "Tirat Yehuda", "lat": 32.01392, "lng": 34.9342, "population": 1201}, {"name": "Geva‘ Karmel", "lat": 32.66002, "lng": 34.94874, "population": 1200}, {"name": "Elishama‘", "lat": 32.15208, "lng": 34.92827, "population": 1199}, {"name": "Drijat", "lat": 31.30069, "lng": 35.07632, "population": 1199}, {"name": "Yinnon", "lat": 31.74199, "lng": 34.78229, "population": 1197}, {"name": "Rinnatya", "lat": 32.04428, "lng": 34.9276, "population": 1195}, {"name": "Riẖaniya", "lat": 33.04904, "lng": 35.48815, "population": 1195}, {"name": "Kfar Netter", "lat": 32.273, "lng": 34.87349, "population": 1193}, {"name": "Kfar H̱ittim", "lat": 32.79961, "lng": 35.50276, "population": 1190}, {"name": "Tal El", "lat": 32.92825, "lng": 35.18128, "population": 1186}, {"name": "Nehora", "lat": 31.62276, "lng": 34.70424, "population": 1181}, {"name": "Giv‘at H̱ayyim Iẖud", "lat": 32.39775, "lng": 34.93213, "population": 1176}, {"name": "Bet ‘Arif", "lat": 31.99622, "lng": 34.93459, "population": 1174}, {"name": "Bne Dror", "lat": 32.2615, "lng": 34.90196, "population": 1171}, {"name": "Matsuva", "lat": 33.06351, "lng": 35.15758, "population": 1165}, {"name": "H̱ulda", "lat": 31.83176, "lng": 34.88231, "population": 1163}, {"name": "Poria Illit", "lat": 32.7319, "lng": 35.54635, "population": 1162}, {"name": "H̱agor", "lat": 32.13932, "lng": 34.94695, "population": 1162}, {"name": "Ramot Menashe", "lat": 32.59784, "lng": 35.05656, "population": 1159}, {"name": "Nevve Yamin", "lat": 32.17217, "lng": 34.9393, "population": 1155}, {"name": "‘En Ayyala", "lat": 32.62899, "lng": 34.94483, "population": 1150}, {"name": "‘Arugot", "lat": 31.73503, "lng": 34.77016, "population": 1147}, {"name": "Kfar Warburg", "lat": 31.71945, "lng": 34.72405, "population": 1143}, {"name": "Be’erotayim", "lat": 32.32111, "lng": 34.98324, "population": 1143}, {"name": "Maggal", "lat": 32.38506, "lng": 35.0368, "population": 1139}, {"name": "Tirabin al-Sana", "lat": 31.34479, "lng": 34.73867, "population": 1139}, {"name": "‘En Ya‘aqov", "lat": 33.00977, "lng": 35.22982, "population": 1137}, {"name": "Burgata", "lat": 32.32635, "lng": 34.96236, "population": 1136}, {"name": "H̱osen", "lat": 32.99824, "lng": 35.29807, "population": 1135}, {"name": "Ayyelet HaShaẖar", "lat": 33.02224, "lng": 35.57716, "population": 1134}, {"name": "Ben Zakkay", "lat": 31.85612, "lng": 34.72747, "population": 1132}, {"name": "‘Olesh", "lat": 32.33199, "lng": 34.98558, "population": 1131}, {"name": "Ramat HaKovésh", "lat": 32.21768, "lng": 34.93815, "population": 1130}, {"name": "Zekharya", "lat": 31.70927, "lng": 34.94488, "population": 1124}, {"name": "Yad Rambam", "lat": 31.89997, "lng": 34.90027, "population": 1124}, {"name": "Segev", "lat": 32.86602, "lng": 35.25189, "population": 1121}, {"name": "Allon HaGalil", "lat": 32.75742, "lng": 35.22089, "population": 1118}, {"name": "Umm el Quṭūf", "lat": 32.46718, "lng": 35.05811, "population": 1117}, {"name": "Bet ‘Ezra", "lat": 31.73606, "lng": 34.65594, "population": 1116}, {"name": "Niẕẕané ‘Oz", "lat": 32.306, "lng": 35.00374, "population": 1115}, {"name": "Beit Horon", "lat": 31.87581, "lng": 35.12999, "population": 1115}, {"name": "Sde Ya‘aqov", "lat": 32.69, "lng": 35.13861, "population": 1103}, {"name": "Sitriyya", "lat": 31.89238, "lng": 34.8438, "population": 1102}, {"name": "Ramat HaShofet", "lat": 32.61102, "lng": 35.09472, "population": 1101}, {"name": "Tsrufa", "lat": 32.64824, "lng": 34.94991, "population": 1097}, {"name": "Sdot Yam", "lat": 32.49213, "lng": 34.89224, "population": 1096}, {"name": "Regba", "lat": 32.97721, "lng": 35.09864, "population": 1096}, {"name": "Harduf", "lat": 32.76342, "lng": 35.17469, "population": 1095}, {"name": "Aẖituv", "lat": 32.38873, "lng": 34.99072, "population": 1093}, {"name": "Yuvallim", "lat": 32.87756, "lng": 35.27031, "population": 1093}, {"name": "Gilon", "lat": 32.90261, "lng": 35.23452, "population": 1092}, {"name": "Reshafim", "lat": 32.48126, "lng": 35.4762, "population": 1089}, {"name": "‘Amminadav", "lat": 31.75212, "lng": 35.14733, "population": 1086}, {"name": "Baẖan", "lat": 32.35082, "lng": 35.01862, "population": 1084}, {"name": "Yarẖiv", "lat": 32.15239, "lng": 34.9679, "population": 1082}, {"name": "Li On", "lat": 31.67744, "lng": 34.93464, "population": 1082}, {"name": "Revivim", "lat": 31.04395, "lng": 34.72183, "population": 1075}, {"name": "Bet Alfa", "lat": 32.51609, "lng": 35.43068, "population": 1075}, {"name": "Bar Yuẖay", "lat": 32.99848, "lng": 35.44419, "population": 1072}, {"name": "Mitspe Aviv", "lat": 32.83907, "lng": 35.19921, "population": 1070}, {"name": "Moledet", "lat": 32.58613, "lng": 35.44201, "population": 1068}, {"name": "Giv'on HaHadasha", "lat": 31.84927, "lng": 35.16106, "population": 1067}, {"name": "Zetan", "lat": 31.97534, "lng": 34.88928, "population": 1064}, {"name": "Mash‘én", "lat": 31.65791, "lng": 34.62309, "population": 1064}, {"name": "HaZore‘im", "lat": 32.74707, "lng": 35.50274, "population": 1060}, {"name": "Mishmeret", "lat": 32.22818, "lng": 34.91835, "population": 1059}, {"name": "Raqqefet", "lat": 32.85744, "lng": 35.26142, "population": 1057}, {"name": "Kabri", "lat": 33.02122, "lng": 35.14968, "population": 1054}, {"name": "Kokhav Michael Sobell", "lat": 31.62804, "lng": 34.66904, "population": 1053}, {"name": "Be’eri", "lat": 31.42426, "lng": 34.49163, "population": 1049}, {"name": "Giv‘ati", "lat": 31.733, "lng": 34.67995, "population": 1047}, {"name": "Bet Yehoshua‘", "lat": 32.25942, "lng": 34.86414, "population": 1046}, {"name": "Tselafon", "lat": 31.80462, "lng": 34.9321, "population": 1044}, {"name": "Kfar Pines", "lat": 32.48372, "lng": 35.00294, "population": 1034}, {"name": "Menaẖemya", "lat": 32.66662, "lng": 35.555, "population": 1033}, {"name": "Be’er Ora", "lat": 29.71, "lng": 34.987, "population": 1033}, {"name": "Elon", "lat": 33.06365, "lng": 35.22009, "population": 1031}, {"name": "Mitspe Netofa", "lat": 32.80287, "lng": 35.38291, "population": 1029}, {"name": "‘En Dor", "lat": 32.65614, "lng": 35.41703, "population": 1026}, {"name": "Mishmarot", "lat": 32.48718, "lng": 34.98324, "population": 1024}, {"name": "Mefallesim", "lat": 31.50125, "lng": 34.5637, "population": 1024}, {"name": "Tel Yitsẖaq", "lat": 32.25327, "lng": 34.87034, "population": 1021}, {"name": "Lahavot H̱aviva", "lat": 32.39517, "lng": 35.00977, "population": 1021}, {"name": "Sde H̱emed", "lat": 32.16043, "lng": 34.94347, "population": 1019}, {"name": "Bet Gamli’él", "lat": 31.85555, "lng": 34.76249, "population": 1019}, {"name": "Bet Rabban", "lat": 31.81677, "lng": 34.72937, "population": 1018}, {"name": "Bet Guvrin", "lat": 31.61294, "lng": 34.89571, "population": 1016}, {"name": "Ramat Yoẖanan", "lat": 32.79308, "lng": 35.12226, "population": 1012}, {"name": "Dvira", "lat": 31.41222, "lng": 34.8254, "population": 1007}, {"name": "Giv‘at H̱ayyim Me’uẖad", "lat": 32.39171, "lng": 34.93115, "population": 1006}, {"name": "Mishmar HaNegev", "lat": 31.36416, "lng": 34.7187, "population": 1005}, {"name": "Ashdot Ya‘aqov Iẖud", "lat": 32.65843, "lng": 35.58117, "population": 1003}, {"name": "Yashresh", "lat": 31.91481, "lng": 34.84911, "population": 1001}, {"name": "Fīq", "lat": 32.77935, "lng": 35.70032, "population": 0}, {"name": "Al Buţayḩah", "lat": 32.90871, "lng": 35.63199, "population": 0}, {"name": "Al Khushnīyah", "lat": 32.99941, "lng": 35.81084, "population": 0}]