[{"name": "Mumbai", "lat": 19.07283, "lng": 72.88261, "population": 12691836}, {"name": "Delhi", "lat": 28.65195, "lng": 77.23149, "population": 11034555}, {"name": "Bengaluru", "lat": 12.97194, "lng": 77.59369, "population": 8495492}, {"name": "Hyderabad", "lat": 17.38405, "lng": 78.45636, "population": 6993262}, {"name": "Ahmedabad", "lat": 23.02579, "lng": 72.58727, "population": 6357693}, {"name": "Chennai", "lat": 13.08784, "lng": 80.27847, "population": 4681087}, {"name": "Kolkata", "lat": 22.56263, "lng": 88.36304, "population": 4631392}, {"name": "Surat", "lat": 21.19594, "lng": 72.83023, "population": 4591246}, {"name": "Pune", "lat": 18.51957, "lng": 73.85535, "population": 3124458}, {"name": "Jaipur", "lat": 26.91962, "lng": 75.78781, "population": 3046163}, {"name": "Kanpur", "lat": 26.46523, "lng": 80.34975, "population": 2823249}, {"name": "Navi Mumbai", "lat": 19.03681, "lng": 73.01582, "population": 2600000}, {"name": "Lucknow", "lat": 26.83928, "lng": 80.92313, "population": 2472011}, {"name": "Nagpur", "lat": 21.14631, "lng": 79.08491, "population": 2405665}, {"name": "Coimbatore", "lat": 11.00555, "lng": 76.96612, "population": 2136916}, {"name": "Indore", "lat": 22.71792, "lng": 75.8333, "population": 1994397}, {"name": "Thāne", "lat": 19.19704, "lng": 72.96355, "population": 1841488}, {"name": "Vadodara", "lat": 22.29941, "lng": 73.20812, "population": 1822221}, {"name": "Bhopal", "lat": 23.25469, "lng": 77.40289, "population": 1798218}, {"name": "Rasapūdipalem", "lat": 17.73308, "lng": 83.31622, "population": 1728128}, {"name": "Pimpri-Chinchwad", "lat": 18.61867, "lng": 73.80375, "population": 1727692}, {"name": "Patna", "lat": 25.59408, "lng": 85.13563, "population": 1684297}, {"name": "Kallakurichi", "lat": 11.73379, "lng": 78.95925, "population": 1682687}, {"name": "Ludhiana", "lat": 30.91204, "lng": 75.85379, "population": 1618879}, {"name": "Nashik", "lat": 19.99727, "lng": 73.79096, "population": 1486053}, {"name": "Madurai", "lat": 9.919, "lng": 78.11953, "population": 1465625}, {"name": "Tirunelveli", "lat": 8.72742, "lng": 77.6838, "population": 1435844}, {"name": "Agra", "lat": 27.18333, "lng": 78.01667, "population": 1430055}, {"name": "Faridabad", "lat": 28.41124, "lng": 77.31316, "population": 1414050}, {"name": "Rājkot", "lat": 22.29161, "lng": 70.79322, "population": 1390640}, {"name": "Najafgarh", "lat": 28.60922, "lng": 76.97982, "population": 1365000}, {"name": "Jamshedpur", "lat": 22.80278, "lng": 86.18545, "population": 1339438}, {"name": "Gorakhpur", "lat": 29.44768, "lng": 75.67206, "population": 1324570}, {"name": "Pimpri", "lat": 18.62292, "lng": 73.80696, "population": 1284606}, {"name": "Kalyān", "lat": 19.2437, "lng": 73.13554, "population": 1262255}, {"name": "Dombivali", "lat": 19.21667, "lng": 73.08333, "population": 1247327}, {"name": "Meerut", "lat": 28.98002, "lng": 77.70636, "population": 1223184}, {"name": "Virār", "lat": 19.45591, "lng": 72.81136, "population": 1222390}, {"name": "Nowrangapur", "lat": 19.23114, "lng": 82.54826, "population": 1220946}, {"name": "Srinagar", "lat": 34.08565, "lng": 74.80555, "population": 1206419}, {"name": "Ghāziābād", "lat": 28.66535, "lng": 77.43915, "population": 1199191}, {"name": "Dhanbad", "lat": 23.79759, "lng": 86.42992, "population": 1196214}, {"name": "Aurangabad", "lat": 19.87757, "lng": 75.34226, "population": 1175116}, {"name": "Varanasi", "lat": 25.31668, "lng": 83.01041, "population": 1164404}, {"name": "Amritsar", "lat": 31.62234, "lng": 74.87534, "population": 1159227}, {"name": "Vijayawada", "lat": 16.50745, "lng": 80.6466, "population": 1143232}, {"name": "Ranchi", "lat": 23.34316, "lng": 85.3094, "population": 1120374}, {"name": "Jabalpur", "lat": 23.16697, "lng": 79.95006, "population": 1081677}, {"name": "Prayagraj", "lat": 25.44478, "lng": 81.84322, "population": 1073438}, {"name": "Visakhapatnam", "lat": 17.68009, "lng": 83.20161, "population": 1063178}, {"name": "Jodhpur", "lat": 26.26841, "lng": 73.00594, "population": 1056191}, {"name": "Gwalior", "lat": 26.22983, "lng": 78.17337, "population": 1054420}, {"name": "Teni", "lat": 10.01115, "lng": 77.47772, "population": 1034724}, {"name": "Howrah", "lat": 22.57688, "lng": 88.31857, "population": 1027672}, {"name": "Raipur", "lat": 21.23333, "lng": 81.63333, "population": 1027264}, {"name": "Tiruchirappalli", "lat": 10.8155, "lng": 78.69651, "population": 1022518}, {"name": "Kota", "lat": 25.18254, "lng": 75.83907, "population": 1001694}, {"name": "Shivaji Nagar", "lat": 18.53017, "lng": 73.85263, "population": 1000000}, {"name": "Sholapur", "lat": 17.67152, "lng": 75.91044, "population": 997281}, {"name": "Chandigarh", "lat": 30.73629, "lng": 76.7884, "population": 970602}, {"name": "Tiruppur", "lat": 11.11541, "lng": 77.35456, "population": 963173}, {"name": "Guwahati", "lat": 26.1844, "lng": 91.7458, "population": 962334}, {"name": "Hubballi", "lat": 15.34776, "lng": 75.13378, "population": 943788}, {"name": "Mysuru", "lat": 12.29791, "lng": 76.63925, "population": 920550}, {"name": "Salem", "lat": 11.65376, "lng": 78.15538, "population": 917414}, {"name": "Gurugram", "lat": 28.4601, "lng": 77.02635, "population": 886519}, {"name": "Bhubaneswar", "lat": 20.27241, "lng": 85.83385, "population": 885363}, {"name": "Bhiwandi", "lat": 19.30023, "lng": 73.05881, "population": 874032}, {"name": "Jalandhar", "lat": 31.32556, "lng": 75.57917, "population": 868929}, {"name": "Rohini", "lat": 28.74322, "lng": 77.06778, "population": 860000}, {"name": "Kanayannur", "lat": 9.96667, "lng": 76.26667, "population": 851406}, {"name": "Bhayandar", "lat": 19.30157, "lng": 72.85107, "population": 809378}, {"name": "Narela", "lat": 28.85267, "lng": 77.09288, "population": 800000}, {"name": "Thiruvananthapuram", "lat": 8.4855, "lng": 76.94924, "population": 788271}, {"name": "Alīgarh", "lat": 27.88145, "lng": 78.07464, "population": 753207}, {"name": "Bareilly", "lat": 28.36678, "lng": 79.43167, "population": 745435}, {"name": "Morādābād", "lat": 28.83893, "lng": 78.77684, "population": 721139}, {"name": "Warangal", "lat": 18.0, "lng": 79.58333, "population": 704570}, {"name": "Dhārāvi", "lat": 19.05, "lng": 72.86667, "population": 700000}, {"name": "Gorakhpur", "lat": 26.76628, "lng": 83.36889, "population": 674246}, {"name": "Guntur", "lat": 16.29974, "lng": 80.45729, "population": 670073}, {"name": "Puducherry", "lat": 11.93381, "lng": 79.82979, "population": 657209}, {"name": "Amravati", "lat": 20.93333, "lng": 77.75, "population": 647057}, {"name": "Bikaner", "lat": 28.01762, "lng": 73.31495, "population": 644406}, {"name": "Kochi", "lat": 9.93988, "lng": 76.26022, "population": 633553}, {"name": "Bhilai", "lat": 21.20919, "lng": 81.4285, "population": 627734}, {"name": "Cuttack", "lat": 20.46497, "lng": 85.87927, "population": 610189}, {"name": "Borivli", "lat": 19.23496, "lng": 72.85976, "population": 609617}, {"name": "Bhavnagar", "lat": 21.76287, "lng": 72.15331, "population": 605882}, {"name": "Sāngli", "lat": 16.85438, "lng": 74.56417, "population": 601214}, {"name": "Jamnagar", "lat": 22.47292, "lng": 70.06673, "population": 600943}, {"name": "Jammu", "lat": 32.73528, "lng": 74.86167, "population": 576198}, {"name": "Bokāro", "lat": 23.66934, "lng": 86.15161, "population": 564319}, {"name": "Nanded", "lat": 19.16023, "lng": 77.31497, "population": 550564}, {"name": "Kozhikode", "lat": 11.24802, "lng": 75.7804, "population": 550440}, {"name": "Kolhāpur", "lat": 16.69563, "lng": 74.23167, "population": 549236}, {"name": "Nellore", "lat": 14.44992, "lng": 79.98697, "population": 547621}, {"name": "Kalaburagi", "lat": 17.33583, "lng": 76.83757, "population": 543147}, {"name": "Ajmer", "lat": 26.4521, "lng": 74.63867, "population": 542321}, {"name": "Dehradun", "lat": 30.32443, "lng": 78.03392, "population": 522081}, {"name": "Erode", "lat": 11.3428, "lng": 77.72741, "population": 521891}, {"name": "Durgapur", "lat": 23.51583, "lng": 87.30801, "population": 518872}, {"name": "Ulhasnagar", "lat": 19.21667, "lng": 73.15, "population": 516584}, {"name": "Loni", "lat": 28.75143, "lng": 77.29023, "population": 516082}, {"name": "Siliguri", "lat": 26.71004, "lng": 88.42851, "population": 515574}, {"name": "Ujjain", "lat": 23.18239, "lng": 75.77643, "population": 515215}, {"name": "Bilimora", "lat": 20.76957, "lng": 72.96134, "population": 510879}, {"name": "Karol Bāgh", "lat": 28.65136, "lng": 77.19072, "population": 505241}, {"name": "Āsansol", "lat": 23.68333, "lng": 86.98333, "population": 504271}, {"name": "Mangaluru", "lat": 12.91723, "lng": 74.85603, "population": 499487}, {"name": "Belagavi", "lat": 15.85212, "lng": 74.50447, "population": 490045}, {"name": "Sahāranpur", "lat": 29.9679, "lng": 77.54522, "population": 484873}, {"name": "Vellore", "lat": 12.9184, "lng": 79.13255, "population": 484690}, {"name": "Bhātpāra", "lat": 22.86643, "lng": 88.40113, "population": 483129}, {"name": "Malegaon", "lat": 20.54966, "lng": 74.53462, "population": 481228}, {"name": "Gaya", "lat": 24.79686, "lng": 85.00385, "population": 474093}, {"name": "Ambattur", "lat": 13.09818, "lng": 80.16152, "population": 466205}, {"name": "Jalgaon", "lat": 21.00292, "lng": 75.56602, "population": 460228}, {"name": "Kurnool", "lat": 15.82887, "lng": 78.03602, "population": 460184}, {"name": "Rāmgundam", "lat": 18.80084, "lng": 79.45206, "population": 452261}, {"name": "Udaipur", "lat": 24.58584, "lng": 73.71346, "population": 451100}, {"name": "Maheshtala", "lat": 22.50862, "lng": 88.25322, "population": 448317}, {"name": "Patiāla", "lat": 30.33625, "lng": 76.3922, "population": 446246}, {"name": "Shyamnagar", "lat": 22.83333, "lng": 88.36667, "population": 441956}, {"name": "Davangere", "lat": 14.46693, "lng": 75.92694, "population": 435128}, {"name": "Akola", "lat": 20.70957, "lng": 76.9981, "population": 428857}, {"name": "Rajpur Sonarpur", "lat": 22.4382, "lng": 88.43205, "population": 424368}, {"name": "Korba", "lat": 22.3458, "lng": 82.69633, "population": 419146}, {"name": "Jhānsi", "lat": 25.45887, "lng": 78.57994, "population": 412927}, {"name": "Thoothukudi", "lat": 8.76735, "lng": 78.13425, "population": 410760}, {"name": "Ballari", "lat": 15.14205, "lng": 76.92398, "population": 410445}, {"name": "Bhāgalpur", "lat": 25.24446, "lng": 86.97183, "population": 400146}, {"name": "Agartala", "lat": 23.83605, "lng": 91.27939, "population": 400004}, {"name": "Kākināda", "lat": 16.96036, "lng": 82.23809, "population": 384182}, {"name": "Latur", "lat": 18.39721, "lng": 76.56784, "population": 382940}, {"name": "Pānihāti", "lat": 22.69089, "lng": 88.37404, "population": 378705}, {"name": "Rajamahendravaram", "lat": 17.00517, "lng": 81.77784, "population": 376333}, {"name": "Dhule", "lat": 20.9013, "lng": 74.77737, "population": 375559}, {"name": "Rohtak", "lat": 28.89447, "lng": 76.58917, "population": 374292}, {"name": "Ahilyanagar", "lat": 19.09457, "lng": 74.73843, "population": 367140}, {"name": "Kollam", "lat": 8.88113, "lng": 76.58469, "population": 367107}, {"name": "Bilāspur", "lat": 22.08005, "lng": 82.15543, "population": 365579}, {"name": "Bhilwara", "lat": 25.34707, "lng": 74.64081, "population": 359483}, {"name": "Brahmapur", "lat": 19.31151, "lng": 84.7929, "population": 356598}, {"name": "Muzaffarpur", "lat": 26.12259, "lng": 85.39055, "population": 354462}, {"name": "Punāsa", "lat": 22.23507, "lng": 76.39335, "population": 350000}, {"name": "Muzaffarnagar", "lat": 29.47091, "lng": 77.70332, "population": 349706}, {"name": "Avadi", "lat": 13.1147, "lng": 80.10981, "population": 345996}, {"name": "Kadapa", "lat": 14.47995, "lng": 78.82346, "population": 344893}, {"name": "Kukatpally", "lat": 17.48486, "lng": 78.41376, "population": 341709}, {"name": "Kāmārhāti", "lat": 22.67111, "lng": 88.37472, "population": 332965}, {"name": "Mathura", "lat": 27.5035, "lng": 77.67215, "population": 330511}, {"name": "Chānda", "lat": 19.95076, "lng": 79.29523, "population": 328351}, {"name": "Vijayapura", "lat": 16.82442, "lng": 75.71537, "population": 327427}, {"name": "Shivamogga", "lat": 13.93157, "lng": 75.56791, "population": 322650}, {"name": "Alwar", "lat": 27.56246, "lng": 76.625, "population": 322568}, {"name": "Shāhjānpur", "lat": 27.88165, "lng": 79.90918, "population": 320434}, {"name": "Jūnāgadh", "lat": 21.51966, "lng": 70.45981, "population": 319462}, {"name": "New Delhi", "lat": 28.62137, "lng": 77.2148, "population": 317797}, {"name": "Thrissur", "lat": 10.51667, "lng": 76.21667, "population": 315957}, {"name": "Nizāmābād", "lat": 18.67154, "lng": 78.0988, "population": 311152}, {"name": "Tumkūr", "lat": 13.34136, "lng": 77.1022, "population": 307359}, {"name": "Parbhani", "lat": 19.26855, "lng": 76.77081, "population": 307170}, {"name": "Hisar", "lat": 29.15394, "lng": 75.72294, "population": 307024}, {"name": "Fīrozābād", "lat": 27.15092, "lng": 78.39781, "population": 306409}, {"name": "Kulti", "lat": 23.73166, "lng": 86.84372, "population": 305405}, {"name": "Karnāl", "lat": 29.69197, "lng": 76.98448, "population": 302140}, {"name": "Barddhamān", "lat": 23.25572, "lng": 87.85691, "population": 301725}, {"name": "Gundupālaiyam", "lat": 11.94096, "lng": 79.80294, "population": 300104}, {"name": "Bārāsat", "lat": 22.72154, "lng": 88.48198, "population": 298127}, {"name": "Mulugu", "lat": 18.191, "lng": 79.943, "population": 297671}, {"name": "Bihār Sharīf", "lat": 25.20084, "lng": 85.52389, "population": 297268}, {"name": "Bāli", "lat": 22.64859, "lng": 88.34115, "population": 296973}, {"name": "Rāmpur", "lat": 28.81014, "lng": 79.02699, "population": 296418}, {"name": "Darbhanga", "lat": 26.15216, "lng": 85.89707, "population": 296039}, {"name": "Panipat", "lat": 29.38747, "lng": 76.96825, "population": 295970}, {"name": "Tirupati", "lat": 13.63551, "lng": 79.41989, "population": 295323}, {"name": "Greater Noida", "lat": 28.49615, "lng": 77.53601, "population": 293908}, {"name": "Noida", "lat": 28.58, "lng": 77.33, "population": 293908}, {"name": "Aizawl", "lat": 23.72894, "lng": 92.71791, "population": 293416}, {"name": "Gandhinagar", "lat": 23.21667, "lng": 72.68333, "population": 292797}, {"name": "Dindigul", "lat": 10.36896, "lng": 77.98036, "population": 292512}, {"name": "Thanjavur", "lat": 10.78523, "lng": 79.13909, "population": 291067}, {"name": "Karīmnagar", "lat": 18.43915, "lng": 79.12856, "population": 289821}, {"name": "Dewas", "lat": 22.96585, "lng": 76.05526, "population": 289550}, {"name": "Sonīpat", "lat": 28.99478, "lng": 77.01937, "population": 289333}, {"name": "Ichalkaranji", "lat": 16.69117, "lng": 74.46054, "population": 287353}, {"name": "Bathinda", "lat": 30.20747, "lng": 74.93893, "population": 285788}, {"name": "Jālna", "lat": 19.84102, "lng": 75.88636, "population": 285577}, {"name": "Kirāri Sulemānnagar", "lat": 28.69736, "lng": 77.0648, "population": 283211}, {"name": "Satna", "lat": 24.57726, "lng": 80.82719, "population": 282977}, {"name": "Purnia", "lat": 25.77895, "lng": 87.47422, "population": 282248}, {"name": "Imphal", "lat": 24.80805, "lng": 93.9442, "population": 277196}, {"name": "Saugor", "lat": 23.83877, "lng": 78.73874, "population": 274556}, {"name": "Kushinagar", "lat": 26.74134, "lng": 83.88689, "population": 274403}, {"name": "Rourkela", "lat": 22.22496, "lng": 84.86414, "population": 273317}, {"name": "Durg", "lat": 21.19147, "lng": 81.27619, "population": 268806}, {"name": "Anantapur", "lat": 14.67784, "lng": 77.60813, "population": 267161}, {"name": "Ratlām", "lat": 23.33033, "lng": 75.04032, "population": 264914}, {"name": "Rānipet", "lat": 12.92471, "lng": 79.33331, "population": 264330}, {"name": "Lal Bahadur Nagar", "lat": 17.34769, "lng": 78.55757, "population": 261987}, {"name": "Arrah", "lat": 25.55629, "lng": 84.66335, "population": 261430}, {"name": "Baranagar", "lat": 22.64132, "lng": 88.37727, "population": 260072}, {"name": "Gajuwaka", "lat": 17.7, "lng": 83.21667, "population": 258944}, {"name": "Etāwah", "lat": 26.77615, "lng": 79.02133, "population": 257448}, {"name": "Ambarnath", "lat": 19.2, "lng": 73.16667, "population": 253475}, {"name": "Naihāti", "lat": 22.89396, "lng": 88.41521, "population": 253221}, {"name": "Bharatpur", "lat": 27.21731, "lng": 77.49009, "population": 252838}, {"name": "Begusarai", "lat": 25.41853, "lng": 86.13389, "population": 252008}, {"name": "Tiruvottiyūr", "lat": 13.15823, "lng": 80.30181, "population": 249446}, {"name": "Gāndhīdhām", "lat": 23.08333, "lng": 70.13333, "population": 247992}, {"name": "Mau", "lat": 25.94167, "lng": 83.56111, "population": 246050}, {"name": "Sīkar", "lat": 27.61206, "lng": 75.13996, "population": 244497}, {"name": "Ramagundam", "lat": 18.755, "lng": 79.474, "population": 242979}, {"name": "Hāpur", "lat": 28.72985, "lng": 77.78068, "population": 242920}, {"name": "Farrukhābād", "lat": 27.39134, "lng": 79.5793, "population": 241152}, {"name": "Alappuzha", "lat": 9.49004, "lng": 76.3264, "population": 240991}, {"name": "Katihar", "lat": 25.53852, "lng": 87.57044, "population": 240838}, {"name": "Sri Ganganagar", "lat": 29.92009, "lng": 73.87496, "population": 237780}, {"name": "Rewa", "lat": 24.53256, "lng": 81.29234, "population": 235654}, {"name": "Uluberiya", "lat": 22.4756, "lng": 88.09898, "population": 235345}, {"name": "Sivakasi", "lat": 9.44999, "lng": 77.79797, "population": 234704}, {"name": "Karur", "lat": 10.95771, "lng": 78.08095, "population": 234191}, {"name": "Rāichūr", "lat": 16.20546, "lng": 77.35567, "population": 234073}, {"name": "Pallāvaram", "lat": 12.96796, "lng": 80.15025, "population": 233984}, {"name": "Ooty", "lat": 11.4134, "lng": 76.69521, "population": 233426}, {"name": "Pāli", "lat": 25.77276, "lng": 73.32335, "population": 230075}, {"name": "Hosūr", "lat": 12.73647, "lng": 77.83264, "population": 229528}, {"name": "Vizianagaram", "lat": 18.11692, "lng": 83.41148, "population": 228720}, {"name": "Shrīrāmpur", "lat": 22.75278, "lng": 88.34222, "population": 226317}, {"name": "Quthbullapur", "lat": 17.50107, "lng": 78.45818, "population": 225816}, {"name": "Nadiād", "lat": 22.69385, "lng": 72.86157, "population": 225071}, {"name": "Nāgercoil", "lat": 8.17899, "lng": 77.43227, "population": 224849}, {"name": "Karāwalnagar", "lat": 28.72712, "lng": 77.27047, "population": 224281}, {"name": "Mango", "lat": 22.8275, "lng": 86.21639, "population": 223805}, {"name": "Gosāba", "lat": 22.16547, "lng": 88.8007, "population": 222764}, {"name": "Murwāra", "lat": 23.83776, "lng": 80.39405, "population": 221883}, {"name": "Kanchipuram", "lat": 12.83515, "lng": 79.70006, "population": 221715}, {"name": "Singrauli", "lat": 24.19973, "lng": 82.67535, "population": 220257}, {"name": "Mirzāpur", "lat": 25.1449, "lng": 82.56534, "population": 220029}, {"name": "Kharagpur", "lat": 22.33971, "lng": 87.32501, "population": 219665}, {"name": "Eluru", "lat": 16.71311, "lng": 81.10437, "population": 218020}, {"name": "Rāniganj", "lat": 17.42841, "lng": 78.49361, "population": 217910}, {"name": "Yamuna Nagar", "lat": 30.12796, "lng": 77.28371, "population": 217071}, {"name": "Raurkela Industrial Township", "lat": 22.19994, "lng": 84.86176, "population": 216410}, {"name": "Bidar", "lat": 17.90802, "lng": 77.51524, "population": 216020}, {"name": "Munger", "lat": 25.37459, "lng": 86.47455, "population": 213303}, {"name": "Nandyāl", "lat": 15.47799, "lng": 78.4836, "population": 211424}, {"name": "Panchkula", "lat": 30.69461, "lng": 76.8504, "population": 211355}, {"name": "Burhānpur", "lat": 21.30868, "lng": 76.23026, "population": 210886}, {"name": "Morvi", "lat": 22.81731, "lng": 70.8377, "population": 210451}, {"name": "Anand", "lat": 22.55251, "lng": 72.9552, "population": 209410}, {"name": "Ongole", "lat": 15.50357, "lng": 80.04454, "population": 208344}, {"name": "Hosapete", "lat": 15.26954, "lng": 76.3871, "population": 206167}, {"name": "Nāngloi Jāt", "lat": 28.67957, "lng": 77.06799, "population": 205596}, {"name": "Secunderabad", "lat": 17.50427, "lng": 78.54263, "population": 204182}, {"name": "Deoghar", "lat": 24.48983, "lng": 86.69902, "population": 203123}, {"name": "Chāpra", "lat": 25.78031, "lng": 84.74709, "population": 202352}, {"name": "Khandwa", "lat": 21.82427, "lng": 76.35086, "population": 200738}, {"name": "Puri", "lat": 19.79825, "lng": 85.82494, "population": 200564}, {"name": "Morena", "lat": 26.49892, "lng": 77.99534, "population": 200482}, {"name": "Gyānpur", "lat": 25.33268, "lng": 82.46637, "population": 200000}, {"name": "Bulandshahr", "lat": 28.40392, "lng": 77.85773, "population": 198612}, {"name": "Bhind", "lat": 26.56671, "lng": 78.78728, "population": 197585}, {"name": "Bhālswa Jahangirpur", "lat": 28.73558, "lng": 77.16682, "population": 197148}, {"name": "Khammam", "lat": 17.24767, "lng": 80.14368, "population": 196283}, {"name": "Sambhal", "lat": 28.58498, "lng": 78.56959, "population": 196109}, {"name": "Bhiwāni", "lat": 28.79304, "lng": 76.13968, "population": 196057}, {"name": "Panvel", "lat": 18.98878, "lng": 73.11013, "population": 195373}, {"name": "Ambāla", "lat": 30.36099, "lng": 76.79782, "population": 195153}, {"name": "Kumarapalayam", "lat": 11.44495, "lng": 77.71102, "population": 195071}, {"name": "Machilīpatnam", "lat": 16.18747, "lng": 81.13888, "population": 192827}, {"name": "Mahesāna", "lat": 23.59864, "lng": 72.38472, "population": 190753}, {"name": "Mahbūbnagar", "lat": 16.74385, "lng": 77.98597, "population": 190400}, {"name": "Sambalpur", "lat": 21.46527, "lng": 83.97573, "population": 189366}, {"name": "Bhusawal", "lat": 21.04365, "lng": 75.78506, "population": 187421}, {"name": "Raebareli", "lat": 26.2309, "lng": 81.23315, "population": 186433}, {"name": "Haridwar", "lat": 29.94791, "lng": 78.16025, "population": 186079}, {"name": "Phusro", "lat": 23.75644, "lng": 86.0051, "population": 185555}, {"name": "Adoni", "lat": 15.62788, "lng": 77.27495, "population": 184625}, {"name": "Sūjāngarh", "lat": 27.7, "lng": 74.46667, "population": 183808}, {"name": "Sirsa", "lat": 29.53489, "lng": 75.02898, "population": 182534}, {"name": "Dinapur Nizamat", "lat": 25.63847, "lng": 85.05118, "population": 182429}, {"name": "Bahraigh", "lat": 27.57429, "lng": 81.59474, "population": 182218}, {"name": "Kāraikkudi", "lat": 10.06615, "lng": 78.76784, "population": 181851}, {"name": "Sultan Pur Majra", "lat": 28.68966, "lng": 77.07648, "population": 181554}, {"name": "Guna", "lat": 24.64691, "lng": 77.3113, "population": 180935}, {"name": "Chandannagar", "lat": 22.86225, "lng": 88.36796, "population": 180623}, {"name": "Baharampur", "lat": 24.10473, "lng": 88.25155, "population": 180547}, {"name": "Shahuwadi", "lat": 16.90993, "lng": 73.94654, "population": 180322}, {"name": "Madanapalle", "lat": 13.5503, "lng": 78.50288, "population": 180180}, {"name": "Shivpuri", "lat": 25.42378, "lng": 77.66223, "population": 179977}, {"name": "Surendranagar", "lat": 22.72706, "lng": 71.64856, "population": 179628}, {"name": "Neyveli", "lat": 11.60877, "lng": 79.4994, "population": 179150}, {"name": "Silchar", "lat": 24.82733, "lng": 92.79787, "population": 178865}, {"name": "Proddatūr", "lat": 14.7502, "lng": 78.54813, "population": 177797}, {"name": "Hugli", "lat": 22.90877, "lng": 88.39674, "population": 177005}, {"name": "Hashtsāl", "lat": 28.63406, "lng": 77.05771, "population": 176877}, {"name": "Amroha", "lat": 28.90314, "lng": 78.46984, "population": 176253}, {"name": "Chhindwāra", "lat": 22.05697, "lng": 78.93958, "population": 175052}, {"name": "Tambaram", "lat": 12.9246, "lng": 80.12707, "population": 174787}, {"name": "Bhetia", "lat": 22.79321, "lng": 86.14098, "population": 174355}, {"name": "Pathānkot", "lat": 32.27484, "lng": 75.65287, "population": 174306}, {"name": "Badlapur", "lat": 19.15516, "lng": 73.26553, "population": 174226}, {"name": "Cuddalore", "lat": 11.75617, "lng": 79.76693, "population": 173636}, {"name": "Shimla", "lat": 31.10442, "lng": 77.16662, "population": 173503}, {"name": "Gadag-Betageri", "lat": 15.4167, "lng": 75.6167, "population": 172813}, {"name": "Gadag", "lat": 15.42977, "lng": 75.62971, "population": 172612}, {"name": "Verāval", "lat": 20.9077, "lng": 70.36786, "population": 171121}, {"name": "Navsari", "lat": 20.94237, "lng": 72.92467, "population": 171109}, {"name": "Bahadurgarh", "lat": 28.69287, "lng": 76.93555, "population": 170767}, {"name": "Haldia", "lat": 22.06046, "lng": 88.10975, "population": 170695}, {"name": "Rāiganj", "lat": 25.61281, "lng": 88.12449, "population": 170252}, {"name": "Malda", "lat": 25.00447, "lng": 88.14573, "population": 170039}, {"name": "Jaunpur", "lat": 25.75356, "lng": 82.68689, "population": 169572}, {"name": "Deoli", "lat": 28.50254, "lng": 77.23117, "population": 169122}, {"name": "Bharūch", "lat": 21.69482, "lng": 72.9805, "population": 169007}, {"name": "Hoshiārpur", "lat": 31.53723, "lng": 75.91269, "population": 168653}, {"name": "Jīnd", "lat": 29.31577, "lng": 76.31502, "population": 167592}, {"name": "Kumbakonam", "lat": 10.96209, "lng": 79.39124, "population": 167155}, {"name": "Mohali", "lat": 30.67995, "lng": 76.72211, "population": 166864}, {"name": "Fatehpur", "lat": 25.92774, "lng": 80.81266, "population": 166480}, {"name": "Tonk", "lat": 26.16638, "lng": 75.78824, "population": 165294}, {"name": "Udupi", "lat": 13.33467, "lng": 74.74617, "population": 165000}, {"name": "Thenali", "lat": 16.24253, "lng": 80.63982, "population": 164937}, {"name": "Sītāpur", "lat": 27.56192, "lng": 80.68265, "population": 164435}, {"name": "Alandur", "lat": 13.0025, "lng": 80.20611, "population": 164430}, {"name": "Bhadrāvati", "lat": 13.84846, "lng": 75.70502, "population": 163903}, {"name": "Vapi", "lat": 20.37175, "lng": 72.90493, "population": 163630}, {"name": "Moga", "lat": 30.81383, "lng": 75.16878, "population": 163397}, {"name": "Rāj-Nāndgaon", "lat": 21.09687, "lng": 81.0289, "population": 163114}, {"name": "Robertsonpet", "lat": 12.95629, "lng": 78.27539, "population": 162230}, {"name": "Unnāo", "lat": 26.54706, "lng": 80.48781, "population": 161671}, {"name": "Budaun", "lat": 28.03811, "lng": 79.12668, "population": 161555}, {"name": "Madhyamgram", "lat": 22.68944, "lng": 88.44594, "population": 161126}, {"name": "Chittoor", "lat": 13.21055, "lng": 79.0956, "population": 160722}, {"name": "Jāmuria", "lat": 23.70468, "lng": 87.07872, "population": 160242}, {"name": "Jaigaon", "lat": 26.84766, "lng": 89.37558, "population": 158664}, {"name": "Batāla", "lat": 31.80921, "lng": 75.20294, "population": 158621}, {"name": "Orai", "lat": 25.99023, "lng": 79.45334, "population": 158265}, {"name": "Saharsa", "lat": 25.87498, "lng": 86.59611, "population": 156540}, {"name": "Vidisha", "lat": 23.52604, "lng": 77.81092, "population": 155951}, {"name": "Hanumāngarh", "lat": 29.58182, "lng": 74.32938, "population": 155687}, {"name": "Thānesar", "lat": 29.97323, "lng": 76.83214, "population": 155152}, {"name": "Hassan", "lat": 13.00715, "lng": 76.0962, "population": 155006}, {"name": "Kishangarh", "lat": 26.59006, "lng": 74.85397, "population": 154886}, {"name": "Dalūpura", "lat": 28.6057, "lng": 77.31901, "population": 154791}, {"name": "Rudrapur", "lat": 28.98, "lng": 79.4, "population": 154554}, {"name": "Nalgonda", "lat": 17.05439, "lng": 79.26707, "population": 154326}, {"name": "Hazāribāgh", "lat": 23.99241, "lng": 85.36162, "population": 153595}, {"name": "Medinīpur", "lat": 22.42114, "lng": 87.32257, "population": 153349}, {"name": "Bālurghāt", "lat": 25.22099, "lng": 88.77732, "population": 153279}, {"name": "Fyzābād", "lat": 26.77549, "lng": 82.15018, "population": 153047}, {"name": "Dinapore", "lat": 25.63705, "lng": 85.04794, "population": 152940}, {"name": "Porbandar", "lat": 21.64219, "lng": 69.60929, "population": 152760}, {"name": "Bānda", "lat": 25.47758, "lng": 80.33491, "population": 152218}, {"name": "Hindupur", "lat": 13.82807, "lng": 77.49143, "population": 151677}, {"name": "Beāwar", "lat": 26.10119, "lng": 74.32028, "population": 151152}, {"name": "Anantnag", "lat": 33.73068, "lng": 75.15418, "population": 150592}, {"name": "Serilingampalle", "lat": 17.49313, "lng": 78.30196, "population": 150525}, {"name": "Raigarh", "lat": 21.89764, "lng": 83.3966, "population": 150019}, {"name": "Malkajgiri", "lat": 17.44781, "lng": 78.52633, "population": 150000}, {"name": "Shāntipur", "lat": 23.24723, "lng": 88.43302, "population": 149983}, {"name": "Bhuj", "lat": 23.25397, "lng": 69.66928, "population": 148834}, {"name": "Bārākpur", "lat": 22.76602, "lng": 88.36336, "population": 148174}, {"name": "Hājīpur", "lat": 25.68544, "lng": 85.20981, "population": 147688}, {"name": "Sasarām", "lat": 24.94942, "lng": 84.01645, "population": 147408}, {"name": "Bhimavaram", "lat": 16.54078, "lng": 81.52322, "population": 146961}, {"name": "Beed", "lat": 18.98921, "lng": 75.75634, "population": 146709}, {"name": "Burāri", "lat": 28.7557, "lng": 77.19941, "population": 146190}, {"name": "Krishnanagar", "lat": 23.40576, "lng": 88.49073, "population": 145926}, {"name": "Chitradurga", "lat": 14.22262, "lng": 76.40038, "population": 145853}, {"name": "Dibrugarh", "lat": 27.47989, "lng": 94.90837, "population": 145488}, {"name": "Abohar", "lat": 30.14453, "lng": 74.19552, "population": 145302}, {"name": "Tiruvannamalai", "lat": 12.22662, "lng": 79.07461, "population": 145278}, {"name": "Kaithal", "lat": 29.80153, "lng": 76.39959, "population": 144915}, {"name": "Balasore", "lat": 21.49266, "lng": 86.93348, "population": 144373}, {"name": "Godhra", "lat": 22.77547, "lng": 73.61488, "population": 143644}, {"name": "Shillong", "lat": 25.56892, "lng": 91.88313, "population": 143229}, {"name": "Rewāri", "lat": 28.199, "lng": 76.6183, "population": 143021}, {"name": "Chhatarpur", "lat": 24.9177, "lng": 79.58871, "population": 142128}, {"name": "Mandsaur", "lat": 24.07184, "lng": 75.06986, "population": 141667}, {"name": "Chas", "lat": 23.63556, "lng": 86.16712, "population": 141640}, {"name": "Pālanpur", "lat": 24.17128, "lng": 72.43827, "population": 141592}, {"name": "Lakhīmpur", "lat": 27.94822, "lng": 80.77935, "population": 140223}, {"name": "Valsād", "lat": 20.61013, "lng": 72.93428, "population": 139764}, {"name": "Damoh", "lat": 23.83312, "lng": 79.4419, "population": 139561}, {"name": "Haldwani", "lat": 29.22254, "lng": 79.5286, "population": 139497}, {"name": "Hābra", "lat": 22.84202, "lng": 88.65606, "population": 139297}, {"name": "Kolār", "lat": 13.13768, "lng": 78.12999, "population": 138462}, {"name": "Srikakulam", "lat": 18.2989, "lng": 83.89751, "population": 137944}, {"name": "Mandya", "lat": 12.5223, "lng": 76.89746, "population": 137358}, {"name": "Madhurampur Dehri", "lat": 24.96899, "lng": 84.1964, "population": 137231}, {"name": "Kānchrāpāra", "lat": 22.95998, "lng": 88.42849, "population": 136954}, {"name": "Dimāpur", "lat": 25.91174, "lng": 93.7217, "population": 135860}, {"name": "Māler Kotla", "lat": 30.5309, "lng": 75.87949, "population": 135424}, {"name": "Siwān", "lat": 26.22096, "lng": 84.35609, "population": 135066}, {"name": "Kalol", "lat": 23.24656, "lng": 72.49508, "population": 134426}, {"name": "Bānkura", "lat": 23.23241, "lng": 87.0716, "population": 133966}, {"name": "Pātan", "lat": 23.8507, "lng": 72.12963, "population": 133737}, {"name": "Gondā City", "lat": 27.13181, "lng": 81.95332, "population": 133583}, {"name": "Dhaulpur", "lat": 26.69286, "lng": 77.87968, "population": 133075}, {"name": "Gondiā", "lat": 21.46026, "lng": 80.19205, "population": 132813}, {"name": "Palakkad", "lat": 10.77319, "lng": 76.65366, "population": 132728}, {"name": "Bettiah", "lat": 26.80229, "lng": 84.50311, "population": 132209}, {"name": "Palwal", "lat": 28.14469, "lng": 77.32546, "population": 131926}, {"name": "Rānīganj", "lat": 23.6164, "lng": 87.13061, "population": 131261}, {"name": "Pīlibhīt", "lat": 28.63124, "lng": 79.80436, "population": 131008}, {"name": "Rajapalayam", "lat": 9.45296, "lng": 77.55335, "population": 130442}, {"name": "Botad", "lat": 22.16917, "lng": 71.66671, "population": 130327}, {"name": "Deoria", "lat": 26.50167, "lng": 83.77936, "population": 129570}, {"name": "Nimach", "lat": 24.45949, "lng": 74.86625, "population": 128561}, {"name": "Khardah", "lat": 22.71861, "lng": 88.37806, "population": 128346}, {"name": "Yavatmāl", "lat": 20.39324, "lng": 78.13201, "population": 128175}, {"name": "Hālīsahar", "lat": 22.93218, "lng": 88.41859, "population": 128172}, {"name": "Khanna", "lat": 30.70547, "lng": 76.22196, "population": 128137}, {"name": "Titāgarh", "lat": 22.74252, "lng": 88.37326, "population": 127751}, {"name": "Mustafābād", "lat": 28.71974, "lng": 77.26781, "population": 127167}, {"name": "Hāthras", "lat": 27.59551, "lng": 78.05201, "population": 126882}, {"name": "Jorhat", "lat": 26.75751, "lng": 94.20306, "population": 126736}, {"name": "Lalitpur", "lat": 24.69007, "lng": 78.41915, "population": 126475}, {"name": "Guntakal", "lat": 15.17112, "lng": 77.36244, "population": 126270}, {"name": "Pithampur", "lat": 22.60197, "lng": 75.69649, "population": 126200}, {"name": "Mothīhāri", "lat": 26.64862, "lng": 84.91656, "population": 126158}, {"name": "Kanhangad", "lat": 12.30814, "lng": 75.10632, "population": 125564}, {"name": "Jagdalpur", "lat": 19.08136, "lng": 82.02131, "population": 125463}, {"name": "Jagādhri", "lat": 30.16719, "lng": 77.30367, "population": 124894}, {"name": "Dārjiling", "lat": 27.03333, "lng": 88.26667, "population": 123797}, {"name": "Kurichchi", "lat": 10.96085, "lng": 76.97379, "population": 123667}, {"name": "Dam Dam", "lat": 22.63341, "lng": 88.42286, "population": 122719}, {"name": "Hardoī", "lat": 27.39491, "lng": 80.13165, "population": 122635}, {"name": "Puruliya", "lat": 23.33062, "lng": 86.36303, "population": 122533}, {"name": "Dharmavaram", "lat": 14.41435, "lng": 77.72035, "population": 121874}, {"name": "Gokalpur", "lat": 28.7029, "lng": 77.28961, "population": 121870}, {"name": "Bhadreswar", "lat": 22.82449, "lng": 88.33841, "population": 121662}, {"name": "Nagaon", "lat": 26.35, "lng": 92.66667, "population": 121628}, {"name": "Vejalpur", "lat": 22.69021, "lng": 73.56299, "population": 121610}, {"name": "Chikmagalūr", "lat": 13.32231, "lng": 75.774, "population": 121484}, {"name": "Bhadrak", "lat": 21.05447, "lng": 86.5156, "population": 121338}, {"name": "Sawai Madhopur", "lat": 26.02301, "lng": 76.34408, "population": 121106}, {"name": "Ambikāpur", "lat": 23.11892, "lng": 83.19537, "population": 121071}, {"name": "Mandoli", "lat": 28.70275, "lng": 77.30995, "population": 120417}, {"name": "Satara", "lat": 17.68589, "lng": 73.99333, "population": 120195}, {"name": "Chūru", "lat": 28.30415, "lng": 74.96718, "population": 120157}, {"name": "Gangāpur", "lat": 26.47249, "lng": 76.71744, "population": 120115}, {"name": "Madhavaram", "lat": 13.14819, "lng": 80.2314, "population": 119105}, {"name": "Dohad", "lat": 22.83283, "lng": 74.25986, "population": 118846}, {"name": "Barshi", "lat": 18.23454, "lng": 75.69275, "population": 118722}, {"name": "Ādilābād", "lat": 19.67203, "lng": 78.5359, "population": 118526}, {"name": "Jhunjhunūn", "lat": 28.12559, "lng": 75.39797, "population": 118473}, {"name": "Jetpur", "lat": 21.75482, "lng": 70.62347, "population": 118302}, {"name": "Uppal Kalan", "lat": 17.40577, "lng": 78.55911, "population": 118259}, {"name": "Gudivāda", "lat": 16.43547, "lng": 80.99555, "population": 118167}, {"name": "Bārān", "lat": 25.1, "lng": 76.51667, "population": 117992}, {"name": "Narmadapuram", "lat": 22.74747, "lng": 77.72736, "population": 117988}, {"name": "Amreli", "lat": 21.59983, "lng": 71.21169, "population": 117967}, {"name": "Pudukkottai", "lat": 10.38128, "lng": 78.82141, "population": 117630}, {"name": "Narasaraopet", "lat": 16.23488, "lng": 80.04927, "population": 117489}, {"name": "Rishra", "lat": 22.72394, "lng": 88.34563, "population": 117014}, {"name": "Baripāda", "lat": 21.93458, "lng": 86.72852, "population": 116849}, {"name": "Muktsar", "lat": 30.47426, "lng": 74.5166, "population": 116747}, {"name": "Azamgarh", "lat": 26.06832, "lng": 83.18358, "population": 116644}, {"name": "Barnāla", "lat": 30.37451, "lng": 75.5487, "population": 116449}, {"name": "Yelahanka", "lat": 13.10073, "lng": 77.59632, "population": 116447}, {"name": "Chittorgarh", "lat": 24.88963, "lng": 74.62403, "population": 116406}, {"name": "Tinsukia", "lat": 27.48905, "lng": 95.35992, "population": 116322}, {"name": "Khargone", "lat": 21.82292, "lng": 75.61394, "population": 116150}, {"name": "Baidyabāti", "lat": 22.78498, "lng": 88.32586, "population": 115504}, {"name": "Bastī", "lat": 26.78817, "lng": 82.71617, "population": 115115}, {"name": "Gangavati", "lat": 15.4313, "lng": 76.52933, "population": 114642}, {"name": "Ambur", "lat": 12.79163, "lng": 78.71644, "population": 114608}, {"name": "Giridih", "lat": 24.18622, "lng": 86.30875, "population": 114533}, {"name": "Wardha", "lat": 20.73933, "lng": 78.59784, "population": 113759}, {"name": "Tadepalligudem", "lat": 16.81467, "lng": 81.52717, "population": 112655}, {"name": "Chanduasi", "lat": 28.45178, "lng": 78.78277, "population": 112635}, {"name": "Bagaha", "lat": 27.09918, "lng": 84.09003, "population": 112634}, {"name": "Achalpur", "lat": 21.25665, "lng": 77.51006, "population": 112311}, {"name": "Gondal", "lat": 21.96074, "lng": 70.80255, "population": 112197}, {"name": "Dharashiv", "lat": 18.18158, "lng": 76.03889, "population": 112085}, {"name": "Port Blair", "lat": 11.66613, "lng": 92.74635, "population": 112050}, {"name": "Bagalkot", "lat": 16.18673, "lng": 75.69614, "population": 111933}, {"name": "Suriāpet", "lat": 17.14054, "lng": 79.62045, "population": 111729}, {"name": "Bangaon", "lat": 23.04553, "lng": 88.83084, "population": 111693}, {"name": "Ashoknagar Kalyangarh", "lat": 22.86416, "lng": 88.63701, "population": 111475}, {"name": "Deesa", "lat": 24.25612, "lng": 72.17928, "population": 111160}, {"name": "Navadwīp", "lat": 23.4067, "lng": 88.36861, "population": 111123}, {"name": "Nandurbar", "lat": 21.36671, "lng": 74.24051, "population": 111037}, {"name": "Sultānpur", "lat": 26.25788, "lng": 82.07269, "population": 110368}, {"name": "Delhi Cantonment", "lat": 28.6, "lng": 77.13333, "population": 110351}, {"name": "Firozpur", "lat": 30.92574, "lng": 74.61311, "population": 110313}, {"name": "Sehore", "lat": 23.2, "lng": 77.08333, "population": 109118}, {"name": "Bānsbāria", "lat": 22.95387, "lng": 88.40098, "population": 108474}, {"name": "Tadpatri", "lat": 14.90832, "lng": 78.01031, "population": 108171}, {"name": "Jalpāiguri", "lat": 26.51667, "lng": 88.73333, "population": 107832}, {"name": "Mangalagiri", "lat": 16.43083, "lng": 80.56815, "population": 107197}, {"name": "Ranebennur", "lat": 14.62239, "lng": 75.62951, "population": 106406}, {"name": "Khurja", "lat": 28.25382, "lng": 77.85535, "population": 105909}, {"name": "Kishanganj", "lat": 26.10224, "lng": 87.95534, "population": 105782}, {"name": "Ponnāni", "lat": 10.76695, "lng": 75.92523, "population": 105512}, {"name": "Hindaun", "lat": 26.73411, "lng": 77.03519, "population": 105452}, {"name": "Jamālpur", "lat": 25.31258, "lng": 86.48888, "population": 105434}, {"name": "Nāgaur", "lat": 27.20201, "lng": 73.73394, "population": 105218}, {"name": "Ambala Sadar", "lat": 30.33544, "lng": 76.86265, "population": 104974}, {"name": "Bhiwadi", "lat": 28.21024, "lng": 76.86056, "population": 104921}, {"name": "Būndi", "lat": 25.43855, "lng": 75.63735, "population": 104919}, {"name": "Miryalaguda", "lat": 16.8722, "lng": 79.56247, "population": 104918}, {"name": "Soyībug", "lat": 34.07677, "lng": 74.7057, "population": 104000}, {"name": "Jagtiāl", "lat": 18.79473, "lng": 78.91661, "population": 103930}, {"name": "Roorkee", "lat": 29.86632, "lng": 77.89118, "population": 103894}, {"name": "Udgīr", "lat": 18.39258, "lng": 77.11756, "population": 103550}, {"name": "Nagda", "lat": 23.45834, "lng": 75.41759, "population": 103501}, {"name": "Betūl", "lat": 21.90056, "lng": 77.90229, "population": 103330}, {"name": "Jahānābād", "lat": 25.21368, "lng": 84.9871, "population": 103202}, {"name": "Kashipur", "lat": 29.21399, "lng": 78.95693, "population": 103138}, {"name": "Ghazīpur", "lat": 25.58333, "lng": 83.58526, "population": 103095}, {"name": "Amaravati", "lat": 16.514, "lng": 80.516, "population": 103000}, {"name": "Nagapattinam", "lat": 10.76377, "lng": 79.84313, "population": 102905}, {"name": "Buxar", "lat": 25.57548, "lng": 83.98043, "population": 102861}, {"name": "Mormugao", "lat": 15.38914, "lng": 73.81491, "population": 102345}, {"name": "Seoni", "lat": 22.08503, "lng": 79.55037, "population": 102343}, {"name": "Aurangābād", "lat": 24.75204, "lng": 84.3742, "population": 102244}, {"name": "Hinganghāt", "lat": 20.54875, "lng": 78.83978, "population": 101805}, {"name": "Dhamtari", "lat": 20.70718, "lng": 81.54874, "population": 101677}, {"name": "Chilakalūrupet", "lat": 16.08987, "lng": 80.16705, "population": 101398}, {"name": "Malappuram", "lat": 11.04199, "lng": 76.08154, "population": 101386}, {"name": "Bānswāra", "lat": 23.54109, "lng": 74.4425, "population": 101017}, {"name": "Chirmiri", "lat": 23.19073, "lng": 82.35314, "population": 100800}, {"name": "Itārsi", "lat": 22.61477, "lng": 77.76222, "population": 100574}, {"name": "Vasco da Gama", "lat": 15.39585, "lng": 73.81568, "population": 100485}, {"name": "Gangtok", "lat": 27.32574, "lng": 88.61216, "population": 100286}, {"name": "Datia", "lat": 25.67312, "lng": 78.45908, "population": 100284}, {"name": "Phagwāra", "lat": 31.22452, "lng": 75.77387, "population": 100146}, {"name": "Etah", "lat": 27.55879, "lng": 78.65692, "population": 100000}, {"name": "Airoli", "lat": 19.15096, "lng": 72.99625, "population": 100000}, {"name": "Luckeesarai", "lat": 25.1765, "lng": 86.0947, "population": 99979}, {"name": "Shikohābād", "lat": 27.108, "lng": 78.58661, "population": 99678}, {"name": "Kāsganj", "lat": 27.80882, "lng": 78.64579, "population": 99462}, {"name": "Khambhāt", "lat": 22.31744, "lng": 72.61916, "population": 99164}, {"name": "Kohima", "lat": 25.67467, "lng": 94.11099, "population": 99039}, {"name": "Pandharpur", "lat": 17.67924, "lng": 75.33098, "population": 98923}, {"name": "Kapurthala Town", "lat": 31.38011, "lng": 75.38105, "population": 98916}, {"name": "Mahuva", "lat": 21.09007, "lng": 71.76904, "population": 98519}, {"name": "Silvassa", "lat": 20.27386, "lng": 72.99673, "population": 98265}, {"name": "Balāngīr", "lat": 20.70419, "lng": 83.49029, "population": 98238}, {"name": "Mughal Sarāi", "lat": 25.28307, "lng": 83.11968, "population": 98043}, {"name": "Nawāda", "lat": 24.8867, "lng": 85.54364, "population": 98029}, {"name": "Bhilai Charoda", "lat": 21.22305, "lng": 81.45609, "population": 98008}, {"name": "Shāmli", "lat": 29.4497, "lng": 77.30959, "population": 97966}, {"name": "Jharsuguda", "lat": 21.85531, "lng": 84.00698, "population": 97730}, {"name": "Sādatpur Gujran", "lat": 28.72834, "lng": 77.24817, "population": 97641}, {"name": "Chalisgaon", "lat": 20.45781, "lng": 75.01596, "population": 97551}, {"name": "Villupuram", "lat": 11.93975, "lng": 79.49244, "population": 97380}, {"name": "Amalner", "lat": 21.03983, "lng": 75.05887, "population": 97369}, {"name": "Tellicherry", "lat": 11.74811, "lng": 75.4929, "population": 97201}, {"name": "Manjeri", "lat": 11.12018, "lng": 76.11996, "population": 97102}, {"name": "Birgaon", "lat": 21.30758, "lng": 81.62793, "population": 96294}, {"name": "Bārmer", "lat": 25.74572, "lng": 71.39211, "population": 96225}, {"name": "Pūth Kalān", "lat": 28.7116, "lng": 77.07887, "population": 96002}, {"name": "Kuniyamuttūr", "lat": 10.96376, "lng": 76.95254, "population": 95924}, {"name": "Sardārshahr", "lat": 28.44062, "lng": 74.491, "population": 95911}, {"name": "Sānand", "lat": 22.99227, "lng": 72.38177, "population": 95890}, {"name": "Sāhibganj", "lat": 25.24425, "lng": 87.63481, "population": 95890}, {"name": "Paramagudi", "lat": 9.54633, "lng": 78.5907, "population": 95579}, {"name": "Zerakpur", "lat": 30.65622, "lng": 76.82093, "population": 95553}, {"name": "Tiruchengode", "lat": 11.38016, "lng": 77.89444, "population": 95335}, {"name": "Closepet", "lat": 12.72181, "lng": 77.28149, "population": 95167}, {"name": "Emmiganūr", "lat": 15.77203, "lng": 77.48345, "population": 95149}, {"name": "Vaniyambadi", "lat": 12.68162, "lng": 78.62014, "population": 95061}, {"name": "Kovilpatti", "lat": 9.17167, "lng": 77.86989, "population": 95057}, {"name": "Parli Vaijnāth", "lat": 18.85057, "lng": 76.53163, "population": 94863}, {"name": "Mainpuri", "lat": 27.22857, "lng": 79.02882, "population": 94619}, {"name": "Khāmgaon", "lat": 20.70738, "lng": 76.56827, "population": 94604}, {"name": "Makrāna", "lat": 27.04361, "lng": 74.72445, "population": 94487}, {"name": "Allinagaram", "lat": 10.02737, "lng": 77.47815, "population": 94453}, {"name": "Gudiyatham", "lat": 12.94601, "lng": 78.87377, "population": 93973}, {"name": "Dhār", "lat": 22.59373, "lng": 75.29774, "population": 93917}, {"name": "Baraut", "lat": 29.10199, "lng": 77.26334, "population": 93544}, {"name": "Kalyani", "lat": 22.9757, "lng": 88.4337, "population": 93184}, {"name": "Doddaballapura", "lat": 13.29452, "lng": 77.53777, "population": 93105}, {"name": "Chīrāla", "lat": 15.82385, "lng": 80.35219, "population": 92942}, {"name": "Akot", "lat": 21.0963, "lng": 77.0588, "population": 92637}, {"name": "Fatehpur", "lat": 27.99486, "lng": 74.95628, "population": 92595}, {"name": "Gharroli", "lat": 28.6167, "lng": 77.33207, "population": 92540}, {"name": "Rajpura", "lat": 30.47856, "lng": 76.59284, "population": 92301}, {"name": "Ballarpur", "lat": 19.84696, "lng": 79.34578, "population": 92146}, {"name": "Kot Kapūra", "lat": 30.58061, "lng": 74.82609, "population": 91979}, {"name": "Bhandāra", "lat": 21.16817, "lng": 79.64885, "population": 91845}, {"name": "Molārband", "lat": 28.50295, "lng": 77.31442, "population": 91402}, {"name": "Bagaha", "lat": 24.52898, "lng": 85.06019, "population": 91383}, {"name": "Rayachoti", "lat": 14.05723, "lng": 78.75056, "population": 91234}, {"name": "Kadayanallur", "lat": 9.07277, "lng": 77.34152, "population": 90364}, {"name": "Valparai", "lat": 10.32691, "lng": 76.95116, "population": 90353}, {"name": "Pollachi", "lat": 10.65825, "lng": 77.0085, "population": 90180}, {"name": "Kāvali", "lat": 14.9163, "lng": 79.99449, "population": 90099}, {"name": "Roha", "lat": 18.43687, "lng": 73.11964, "population": 90000}, {"name": "Mancherial", "lat": 18.87074, "lng": 79.42863, "population": 89935}, {"name": "Avaniyāpuram", "lat": 9.88179, "lng": 78.11255, "population": 89635}, {"name": "Murādnagar", "lat": 28.78069, "lng": 77.49865, "population": 89482}, {"name": "Ankleshwar", "lat": 21.63236, "lng": 72.99001, "population": 89457}, {"name": "Kadiri", "lat": 14.11168, "lng": 78.15982, "population": 89429}, {"name": "Shahdol", "lat": 23.29356, "lng": 81.3619, "population": 89289}, {"name": "Shrirampur", "lat": 19.62201, "lng": 74.65699, "population": 89282}, {"name": "Mahobā", "lat": 25.2905, "lng": 79.87533, "population": 89170}, {"name": "Rāmgarh", "lat": 23.6303, "lng": 85.52156, "population": 88781}, {"name": "Contai", "lat": 21.77985, "lng": 87.74892, "population": 88702}, {"name": "Sangrūr", "lat": 30.24506, "lng": 75.84488, "population": 88615}, {"name": "Nirmal", "lat": 19.09685, "lng": 78.34407, "population": 88433}, {"name": "Deoband", "lat": 29.69505, "lng": 77.67964, "population": 88171}, {"name": "Neyyāttinkara", "lat": 8.39854, "lng": 77.08586, "population": 88104}, {"name": "Tāndā", "lat": 26.54953, "lng": 82.65841, "population": 88073}, {"name": "Kolar", "lat": 23.16478, "lng": 77.41893, "population": 87882}, {"name": "Jhumri Telaiya", "lat": 24.4349, "lng": 85.52951, "population": 87867}, {"name": "Aruppukkottai", "lat": 9.5096, "lng": 78.09588, "population": 87722}, {"name": "Farīdkot", "lat": 30.67399, "lng": 74.75579, "population": 87695}, {"name": "Madgaon", "lat": 15.27501, "lng": 73.95786, "population": 87650}, {"name": "Velampālaiyam", "lat": 11.13764, "lng": 77.31064, "population": 87427}, {"name": "Jamūī", "lat": 24.92606, "lng": 86.22531, "population": 87357}, {"name": "Anjār", "lat": 23.11316, "lng": 70.02671, "population": 87183}, {"name": "Paralakhemundi", "lat": 18.77619, "lng": 84.09504, "population": 87152}, {"name": "Jharia", "lat": 23.74079, "lng": 86.41456, "population": 86938}, {"name": "Kāraikāl", "lat": 10.91667, "lng": 79.83333, "population": 86838}, {"name": "Kāmthi", "lat": 21.21615, "lng": 79.1973, "population": 86793}, {"name": "Hānsi", "lat": 29.10239, "lng": 75.96253, "population": 86770}, {"name": "Mayiladuthurai", "lat": 11.10354, "lng": 79.655, "population": 86660}, {"name": "Anakapalle", "lat": 17.69134, "lng": 83.00395, "population": 86519}, {"name": "Maduravoyal", "lat": 13.0675, "lng": 80.1632, "population": 86195}, {"name": "Sārni", "lat": 22.10317, "lng": 78.17159, "population": 86141}, {"name": "Dausa", "lat": 26.89, "lng": 76.33584, "population": 85960}, {"name": "Parādīp Garh", "lat": 20.31641, "lng": 86.6085, "population": 85868}, {"name": "Hingoli", "lat": 19.71464, "lng": 77.14238, "population": 85103}, {"name": "Bāruni", "lat": 25.47509, "lng": 85.96813, "population": 84888}, {"name": "Jeypore", "lat": 18.8563, "lng": 82.5716, "population": 84830}, {"name": "Bijnor", "lat": 29.373, "lng": 78.13636, "population": 84593}, {"name": "Dhoraji", "lat": 21.73359, "lng": 70.45004, "population": 84545}, {"name": "Vīrappanchathiram", "lat": 11.35314, "lng": 77.71253, "population": 84453}, {"name": "Bālāghāt", "lat": 21.8156, "lng": 80.18845, "population": 84261}, {"name": "Udhampur", "lat": 32.92431, "lng": 75.13573, "population": 84015}, {"name": "Najībābād", "lat": 29.61194, "lng": 78.34274, "population": 84006}, {"name": "Idaiyarpālaiyam", "lat": 11.03937, "lng": 76.92369, "population": 83908}, {"name": "Harihar", "lat": 14.51288, "lng": 75.80716, "population": 83219}, {"name": "Chilla Soroda Bāngar", "lat": 28.59572, "lng": 77.30189, "population": 83217}, {"name": "Sirsilla", "lat": 18.38865, "lng": 78.81048, "population": 83186}, {"name": "Karauli", "lat": 26.49831, "lng": 77.02755, "population": 82960}, {"name": "Mānsa", "lat": 29.98844, "lng": 75.40167, "population": 82956}, {"name": "Jangipur", "lat": 24.47001, "lng": 88.07659, "population": 82548}, {"name": "Gobindgarh", "lat": 30.67089, "lng": 76.30192, "population": 82266}, {"name": "Saunda", "lat": 23.66453, "lng": 85.32694, "population": 81915}, {"name": "Maraimalainagar", "lat": 12.79782, "lng": 80.02502, "population": 81872}, {"name": "Ashoknagar", "lat": 24.57578, "lng": 77.73123, "population": 81828}, {"name": "Phulwari Sharif", "lat": 25.57765, "lng": 85.07246, "population": 81740}, {"name": "Mhow", "lat": 22.5589, "lng": 75.76543, "population": 81702}, {"name": "Malout", "lat": 30.21121, "lng": 74.4818, "population": 81406}, {"name": "Kadi", "lat": 23.29908, "lng": 72.33362, "population": 81404}, {"name": "Vijalpor", "lat": 20.92212, "lng": 72.90945, "population": 81245}, {"name": "Palakollu", "lat": 16.5167, "lng": 81.73, "population": 81199}, {"name": "Himatnagar", "lat": 23.59893, "lng": 72.96602, "population": 81137}, {"name": "Dholka", "lat": 22.72732, "lng": 72.44128, "population": 80945}, {"name": "Kotkapura", "lat": 30.5819, "lng": 74.83298, "population": 80741}, {"name": "Bargarh", "lat": 21.33348, "lng": 83.61905, "population": 80625}, {"name": "Kharghar", "lat": 19.04979, "lng": 73.07024, "population": 80612}, {"name": "Kairāna", "lat": 29.39541, "lng": 77.2054, "population": 80432}, {"name": "Brajarajnagar", "lat": 21.81667, "lng": 83.91667, "population": 80403}, {"name": "Kāmāreddi", "lat": 18.32001, "lng": 78.34177, "population": 80315}, {"name": "Palwancha", "lat": 17.58152, "lng": 80.67651, "population": 80199}, {"name": "Manmād", "lat": 20.25334, "lng": 74.43755, "population": 80058}, {"name": "Srikalahasti", "lat": 13.75514, "lng": 79.70143, "population": 80056}, {"name": "Kottagūdem", "lat": 17.55106, "lng": 80.61779, "population": 79819}, {"name": "Nawābganj", "lat": 26.93129, "lng": 81.19841, "population": 79246}, {"name": "Gokak", "lat": 16.16901, "lng": 74.82393, "population": 79121}, {"name": "Tīkamgarh", "lat": 24.74327, "lng": 78.83061, "population": 79106}, {"name": "Arakkonam", "lat": 13.08449, "lng": 79.67053, "population": 79080}, {"name": "Arāria", "lat": 26.14934, "lng": 87.51323, "population": 79021}, {"name": "Koch Bihār", "lat": 26.32539, "lng": 89.44508, "population": 78737}, {"name": "Kharakvasla", "lat": 18.43997, "lng": 73.77545, "population": 78684}, {"name": "Bhadohi", "lat": 25.39526, "lng": 82.5703, "population": 78568}, {"name": "Kātoya", "lat": 23.64558, "lng": 88.13258, "population": 78408}, {"name": "Medininagar", "lat": 24.03971, "lng": 84.0658, "population": 78396}, {"name": "Wāshīm", "lat": 20.11128, "lng": 77.133, "population": 78387}, {"name": "Bagbera", "lat": 22.75948, "lng": 86.19049, "population": 78356}, {"name": "Savarkundla", "lat": 21.33726, "lng": 71.3035, "population": 78354}, {"name": "Basoda", "lat": 23.85153, "lng": 77.93652, "population": 78289}, {"name": "Tanuku", "lat": 16.75438, "lng": 81.68143, "population": 77962}, {"name": "Gurdaspur", "lat": 32.03933, "lng": 75.40318, "population": 77928}, {"name": "Edattala", "lat": 10.05639, "lng": 76.38451, "population": 77811}, {"name": "Bodhan", "lat": 18.66208, "lng": 77.88581, "population": 77573}, {"name": "Balrāmpur", "lat": 27.42949, "lng": 82.18545, "population": 77396}, {"name": "Bāramūla", "lat": 34.209, "lng": 74.34285, "population": 77276}, {"name": "Karwar", "lat": 14.81361, "lng": 74.12972, "population": 77139}, {"name": "Dhuliān", "lat": 24.68127, "lng": 87.9535, "population": 77070}, {"name": "Rabkavi-Banhatti", "lat": 16.47, "lng": 75.12, "population": 77004}, {"name": "Mawāna", "lat": 29.10288, "lng": 77.92199, "population": 76973}, {"name": "Shirpur", "lat": 21.34821, "lng": 74.88035, "population": 76905}, {"name": "Budge Budge", "lat": 22.48275, "lng": 88.18176, "population": 76837}, {"name": "Kundla", "lat": 21.34222, "lng": 71.30633, "population": 76809}, {"name": "Visnagar", "lat": 23.69855, "lng": 72.5521, "population": 76753}, {"name": "Kannauj", "lat": 27.05524, "lng": 79.9188, "population": 76714}, {"name": "Khajoori Khas", "lat": 28.70958, "lng": 77.2587, "population": 76640}, {"name": "Neelankarai", "lat": 12.9495, "lng": 80.2592, "population": 76600}, {"name": "Nagīna", "lat": 29.44433, "lng": 78.43646, "population": 76593}, {"name": "Badagara", "lat": 11.59776, "lng": 75.58142, "population": 76493}, {"name": "Fazilka", "lat": 30.40207, "lng": 74.02836, "population": 76492}, {"name": "Electronic City Phase I", "lat": 12.85492, "lng": 77.6633, "population": 76348}, {"name": "Ratnagiri", "lat": 16.99154, "lng": 73.31022, "population": 76229}, {"name": "Keshod", "lat": 21.30328, "lng": 70.24861, "population": 76193}, {"name": "Konnagar", "lat": 22.70508, "lng": 88.34446, "population": 76082}, {"name": "Chintamani", "lat": 13.40051, "lng": 78.05172, "population": 76068}, {"name": "Pammal", "lat": 12.975, "lng": 80.13472, "population": 75870}, {"name": "Sindhnūr", "lat": 15.76983, "lng": 76.75581, "population": 75837}, {"name": "Madhubani", "lat": 26.35367, "lng": 86.07169, "population": 75736}, {"name": "Bodināyakkanūr", "lat": 10.01171, "lng": 77.34976, "population": 75680}, {"name": "Khadki", "lat": 18.5635, "lng": 73.85205, "population": 75654}, {"name": "Dhrāngadhra", "lat": 22.99167, "lng": 71.46793, "population": 75578}, {"name": "Tezpur", "lat": 26.63333, "lng": 92.8, "population": 75540}, {"name": "Srivilliputhur", "lat": 9.51272, "lng": 77.63369, "population": 75396}, {"name": "Benipur", "lat": 26.05509, "lng": 86.14557, "population": 75317}, {"name": "Pāloncha", "lat": 17.60184, "lng": 80.70509, "population": 75224}, {"name": "Jaora", "lat": 23.63783, "lng": 75.12711, "population": 74907}, {"name": "Tura", "lat": 25.51421, "lng": 90.20239, "population": 74858}, {"name": "Gūdūr", "lat": 14.15093, "lng": 79.8521, "population": 74851}, {"name": "Narnaul", "lat": 28.04444, "lng": 76.10833, "population": 74581}, {"name": "Balotra", "lat": 25.83242, "lng": 72.24, "population": 74496}, {"name": "Kharar", "lat": 30.74632, "lng": 76.64689, "population": 74460}, {"name": "Yadgir", "lat": 16.77007, "lng": 77.13755, "population": 74294}, {"name": "Harda", "lat": 22.34414, "lng": 77.09536, "population": 74268}, {"name": "Pilkhua", "lat": 28.71271, "lng": 77.656, "population": 74212}, {"name": "Ambājogāi", "lat": 18.73312, "lng": 76.38616, "population": 74114}, {"name": "Kāpas Herd", "lat": 28.52614, "lng": 77.08396, "population": 74073}, {"name": "Bela", "lat": 25.92058, "lng": 81.99629, "population": 73992}, {"name": "Rabkavi", "lat": 16.47567, "lng": 75.1106, "population": 73835}, {"name": "Bawāna", "lat": 28.7982, "lng": 77.03431, "population": 73680}, {"name": "Shāhābād", "lat": 27.6431, "lng": 79.9402, "population": 73606}, {"name": "Virudhachalam", "lat": 11.51497, "lng": 79.32824, "population": 73585}, {"name": "Chāndpur", "lat": 29.13489, "lng": 78.27187, "population": 73555}, {"name": "Kāsipālaiyam", "lat": 11.31984, "lng": 77.70971, "population": 73425}, {"name": "Sikandarābād", "lat": 28.45226, "lng": 77.70004, "population": 73379}, {"name": "Virudunagar", "lat": 9.58509, "lng": 77.95787, "population": 73273}, {"name": "Pattukkottai", "lat": 10.42358, "lng": 79.31949, "population": 73135}, {"name": "Pusad", "lat": 19.91274, "lng": 77.57838, "population": 73046}, {"name": "Tindivanam", "lat": 12.234, "lng": 79.65551, "population": 72796}, {"name": "Chopda", "lat": 21.24578, "lng": 75.29946, "population": 72783}, {"name": "Taliparamba", "lat": 12.04161, "lng": 75.35927, "population": 72465}, {"name": "Sangāreddi", "lat": 17.62477, "lng": 78.08669, "population": 72344}, {"name": "Pālghar", "lat": 19.69693, "lng": 72.76543, "population": 72335}, {"name": "Dharapuram", "lat": 10.73828, "lng": 77.53223, "population": 72291}, {"name": "Payyanur", "lat": 12.0935, "lng": 75.20249, "population": 72111}, {"name": "Sheopur", "lat": 25.66472, "lng": 76.69616, "population": 71951}, {"name": "Channapatna", "lat": 12.65143, "lng": 77.20672, "population": 71942}, {"name": "Koyilandy", "lat": 11.4381, "lng": 75.69306, "population": 71873}, {"name": "Farīdpur", "lat": 28.20997, "lng": 79.54149, "population": 71783}, {"name": "Barauni", "lat": 25.4709, "lng": 85.976, "population": 71660}, {"name": "Krishnagiri", "lat": 12.51921, "lng": 78.21382, "population": 71323}, {"name": "Sopur", "lat": 34.28671, "lng": 74.47228, "population": 71292}, {"name": "Rāyagada", "lat": 19.17132, "lng": 83.41428, "population": 71208}, {"name": "Zahirābād", "lat": 17.68138, "lng": 77.60743, "population": 71166}, {"name": "Khopoli", "lat": 18.78562, "lng": 73.34589, "population": 71141}, {"name": "Ratangarh", "lat": 28.08137, "lng": 74.61854, "population": 71124}, {"name": "Mārkāpur", "lat": 15.73534, "lng": 79.26848, "population": 71092}, {"name": "Kalamassery", "lat": 10.0614, "lng": 76.32631, "population": 71038}, {"name": "Bolpur", "lat": 23.66278, "lng": 87.69695, "population": 70998}, {"name": "Panjim", "lat": 15.49574, "lng": 73.82624, "population": 70991}, {"name": "Rānāghāt", "lat": 23.17623, "lng": 88.56667, "population": 70984}, {"name": "Fatehābād", "lat": 29.51525, "lng": 75.45554, "population": 70777}, {"name": "Bāpatla", "lat": 15.90422, "lng": 80.46743, "population": 70777}, {"name": "Beypore", "lat": 11.17151, "lng": 75.80611, "population": 70751}, {"name": "Koppal", "lat": 15.34522, "lng": 76.15478, "population": 70698}, {"name": "Badvel", "lat": 14.7451, "lng": 79.06288, "population": 70626}, {"name": "Dādri", "lat": 28.55257, "lng": 77.55403, "population": 70609}, {"name": "Thenkasi", "lat": 8.96003, "lng": 77.31525, "population": 70545}, {"name": "Suratgarh", "lat": 29.3215, "lng": 73.89979, "population": 70536}, {"name": "Auraiya", "lat": 26.46517, "lng": 79.50918, "population": 70508}, {"name": "Palani", "lat": 10.45034, "lng": 77.5209, "population": 70467}, {"name": "Nallūr", "lat": 11.1003, "lng": 77.39136, "population": 70115}, {"name": "Chamrajnagar", "lat": 11.92312, "lng": 76.93949, "population": 69875}, {"name": "Mīthepur", "lat": 28.4974, "lng": 77.31856, "population": 69837}, {"name": "Māngrol", "lat": 21.12268, "lng": 70.11484, "population": 69779}, {"name": "Basavakalyan", "lat": 17.87445, "lng": 76.94972, "population": 69717}, {"name": "Pul Pehlad", "lat": 28.49938, "lng": 77.29104, "population": 69657}, {"name": "Chāībāsa", "lat": 22.55038, "lng": 85.80249, "population": 69565}, {"name": "Tripunittura", "lat": 9.94283, "lng": 76.33331, "population": 69390}, {"name": "Shājāpur", "lat": 23.42637, "lng": 76.27775, "population": 69263}, {"name": "Mettupalayam", "lat": 11.29971, "lng": 76.93485, "population": 69213}, {"name": "Sunām", "lat": 30.12883, "lng": 75.79943, "population": 69069}, {"name": "Bhawānipatna", "lat": 19.90717, "lng": 83.16697, "population": 69045}, {"name": "Ziauddin Pur", "lat": 28.70873, "lng": 77.27654, "population": 68993}, {"name": "Jamkhandi", "lat": 16.50461, "lng": 75.29146, "population": 68938}, {"name": "Basmat", "lat": 19.32872, "lng": 77.15746, "population": 68846}, {"name": "Taj Pul", "lat": 28.49482, "lng": 77.30587, "population": 68796}, {"name": "Kayamkulam", "lat": 9.18173, "lng": 76.50093, "population": 68634}, {"name": "Dharmapuri", "lat": 12.1277, "lng": 78.15794, "population": 68619}, {"name": "Bīsalpur", "lat": 28.29253, "lng": 79.80472, "population": 68355}, {"name": "Attili", "lat": 16.7, "lng": 81.6, "population": 68196}, {"name": "Cumbum", "lat": 9.73647, "lng": 77.2847, "population": 68090}, {"name": "Munnar", "lat": 10.08818, "lng": 77.06239, "population": 68000}, {"name": "Panipat Taraf Makhdum Zadgan", "lat": 29.41607, "lng": 76.98831, "population": 67998}, {"name": "Nābha", "lat": 30.37577, "lng": 76.15292, "population": 67972}, {"name": "Bihāt", "lat": 25.42534, "lng": 86.02083, "population": 67952}, {"name": "Samāstipur", "lat": 25.86222, "lng": 85.77953, "population": 67925}, {"name": "Kāranja", "lat": 20.48273, "lng": 77.48857, "population": 67907}, {"name": "Sītāmarhi", "lat": 26.59357, "lng": 85.4906, "population": 67818}, {"name": "Rājsamand", "lat": 25.07145, "lng": 73.8798, "population": 67798}, {"name": "Malkāpur", "lat": 20.88555, "lng": 76.19932, "population": 67740}, {"name": "Modāsa", "lat": 23.46253, "lng": 73.29857, "population": 67648}, {"name": "Jaisalmer", "lat": 26.91763, "lng": 70.90387, "population": 67604}, {"name": "Buldāna", "lat": 20.52933, "lng": 76.18457, "population": 67431}, {"name": "Dhenkānāl", "lat": 20.65744, "lng": 85.59693, "population": 67414}, {"name": "Urun-Islāmpur", "lat": 17.05, "lng": 74.26667, "population": 67391}, {"name": "Gopālganj", "lat": 26.46734, "lng": 84.44041, "population": 67339}, {"name": "Bongaigaon", "lat": 26.47703, "lng": 90.55815, "population": 67322}, {"name": "Sangamner", "lat": 19.56784, "lng": 74.21154, "population": 67309}, {"name": "Hāveri", "lat": 14.79354, "lng": 75.40448, "population": 67102}, {"name": "Mannargudi", "lat": 10.66626, "lng": 79.45064, "population": 66999}, {"name": "Jhālāwār", "lat": 24.59633, "lng": 76.16499, "population": 66919}, {"name": "Tarn Taran", "lat": 31.45191, "lng": 74.92777, "population": 66847}, {"name": "Siddipet", "lat": 18.10483, "lng": 78.84858, "population": 66737}, {"name": "Bellampalli", "lat": 19.05577, "lng": 79.493, "population": 66660}, {"name": "Barbil", "lat": 22.10194, "lng": 85.37752, "population": 66540}, {"name": "Koratla", "lat": 18.82154, "lng": 78.71186, "population": 66504}, {"name": "Rishīkesh", "lat": 30.10778, "lng": 78.29255, "population": 66390}, {"name": "Goyerkāta", "lat": 26.69984, "lng": 89.02565, "population": 66358}, {"name": "Mandamarri", "lat": 18.96506, "lng": 79.47475, "population": 66176}, {"name": "Puliyankudi", "lat": 9.17489, "lng": 77.39799, "population": 66034}, {"name": "Palāsa", "lat": 18.77257, "lng": 84.41012, "population": 65833}, {"name": "Gohāna", "lat": 29.13777, "lng": 76.70247, "population": 65708}, {"name": "Pulivendla", "lat": 14.42139, "lng": 78.22502, "population": 65706}, {"name": "Chengalpattu", "lat": 12.69184, "lng": 79.97661, "population": 65689}, {"name": "Wadgaon Kolhati", "lat": 19.84307, "lng": 75.236, "population": 65620}, {"name": "Lādnūn", "lat": 27.65312, "lng": 74.39993, "population": 65575}, {"name": "Supaul", "lat": 26.11527, "lng": 86.59509, "population": 65437}, {"name": "Gangārāmpur", "lat": 25.40138, "lng": 88.52978, "population": 65316}, {"name": "Ramanathapuram", "lat": 9.37158, "lng": 78.83077, "population": 65314}, {"name": "Jagraon", "lat": 30.78783, "lng": 75.47391, "population": 65305}, {"name": "Sinnar", "lat": 19.84505, "lng": 73.99866, "population": 65299}, {"name": "Kopargaon", "lat": 19.88239, "lng": 74.47605, "population": 65273}, {"name": "Alīpur Duār", "lat": 26.4835, "lng": 89.52286, "population": 65232}, {"name": "Tandur", "lat": 17.24849, "lng": 77.57698, "population": 65115}, {"name": "Khatauli", "lat": 29.27844, "lng": 77.73302, "population": 64731}, {"name": "Vīrarāghavapuram", "lat": 13.07306, "lng": 80.10778, "population": 64698}, {"name": "Siuri", "lat": 23.90806, "lng": 87.52773, "population": 64659}, {"name": "Bīna", "lat": 24.17161, "lng": 78.18755, "population": 64529}, {"name": "Pālitāna", "lat": 21.52519, "lng": 71.82309, "population": 64497}, {"name": "Chaumu", "lat": 27.16955, "lng": 75.72226, "population": 64417}, {"name": "Hālol", "lat": 22.50321, "lng": 73.47242, "population": 64265}, {"name": "Kodār", "lat": 16.9985, "lng": 79.9656, "population": 64234}, {"name": "Bāngarda Chhota", "lat": 22.74354, "lng": 75.81448, "population": 64213}, {"name": "Tādepalle", "lat": 16.48333, "lng": 80.6, "population": 64149}, {"name": "Tirupattur", "lat": 12.49239, "lng": 78.56804, "population": 64125}, {"name": "Chinnachowk", "lat": 14.47516, "lng": 78.8354, "population": 64053}, {"name": "Bishnupur", "lat": 23.0738, "lng": 87.31991, "population": 64041}, {"name": "Āmūr", "lat": 18.79284, "lng": 78.27666, "population": 64023}, {"name": "Baheri", "lat": 28.77416, "lng": 79.4974, "population": 63953}, {"name": "Nawalgarh", "lat": 27.85161, "lng": 75.27384, "population": 63948}, {"name": "Ānaiyūr", "lat": 9.96152, "lng": 78.1118, "population": 63917}, {"name": "Kunnamkulam", "lat": 10.64667, "lng": 76.06695, "population": 63903}, {"name": "Rāghogarh", "lat": 24.44318, "lng": 77.19768, "population": 63873}, {"name": "Tohāna", "lat": 29.71332, "lng": 75.90441, "population": 63871}, {"name": "Jatani", "lat": 20.15975, "lng": 85.70742, "population": 63697}, {"name": "Arni", "lat": 12.66771, "lng": 79.28529, "population": 63671}, {"name": "Chik Ballāpur", "lat": 13.43512, "lng": 77.72787, "population": 63652}, {"name": "Dhubri", "lat": 26.01856, "lng": 89.98564, "population": 63388}, {"name": "Borsad", "lat": 22.40788, "lng": 72.89817, "population": 63377}, {"name": "Gadwāl", "lat": 16.23504, "lng": 77.79556, "population": 63177}, {"name": "Pidugurālla", "lat": 16.47926, "lng": 79.88632, "population": 63103}, {"name": "Sheikhpura", "lat": 25.13994, "lng": 85.84096, "population": 62927}, {"name": "Sirsi", "lat": 14.62072, "lng": 74.83554, "population": 62882}, {"name": "Nipāni", "lat": 16.399, "lng": 74.38285, "population": 62865}, {"name": "Kannur", "lat": 11.86752, "lng": 75.35763, "population": 62836}, {"name": "Bāri", "lat": 26.64661, "lng": 77.61634, "population": 62721}, {"name": "Nokha", "lat": 27.56155, "lng": 73.47141, "population": 62699}, {"name": "Vinukonda", "lat": 16.0531, "lng": 79.73964, "population": 62550}, {"name": "Renukūt", "lat": 24.21641, "lng": 83.0358, "population": 62413}, {"name": "Nagari", "lat": 13.32139, "lng": 79.58557, "population": 62253}, {"name": "Chidambaram", "lat": 11.39933, "lng": 79.69144, "population": 62153}, {"name": "Dabwāli", "lat": 29.94906, "lng": 74.73832, "population": 62113}, {"name": "Sibsāgar", "lat": 26.98427, "lng": 94.63784, "population": 62104}, {"name": "Narwāna", "lat": 29.59903, "lng": 76.11927, "population": 62090}, {"name": "Okha", "lat": 22.46756, "lng": 69.07002, "population": 62052}, {"name": "Kuchāman", "lat": 27.14745, "lng": 74.85655, "population": 61969}, {"name": "Nīmbāhera", "lat": 24.62166, "lng": 74.67999, "population": 61949}, {"name": "Siddhapur", "lat": 23.91783, "lng": 72.37212, "population": 61867}, {"name": "Diphu", "lat": 25.84341, "lng": 93.43116, "population": 61797}, {"name": "Attur", "lat": 11.59414, "lng": 78.60143, "population": 61793}, {"name": "Rāyadrug", "lat": 14.69971, "lng": 76.85241, "population": 61749}, {"name": "Rāth", "lat": 25.59474, "lng": 79.5666, "population": 61728}, {"name": "Cheruvannur", "lat": 11.19033, "lng": 75.82833, "population": 61614}, {"name": "Vriddhāchalam", "lat": 11.5183, "lng": 79.32411, "population": 61498}, {"name": "Bārh", "lat": 25.48339, "lng": 85.70928, "population": 61470}, {"name": "Shāhāda", "lat": 21.54538, "lng": 74.47106, "population": 61376}, {"name": "Dabra", "lat": 25.88572, "lng": 78.33221, "population": 61277}, {"name": "Udumalaippettai", "lat": 10.58806, "lng": 77.24779, "population": 61133}, {"name": "Tiptūr", "lat": 13.2563, "lng": 76.47768, "population": 60957}, {"name": "Sahaswān", "lat": 28.07227, "lng": 78.75082, "population": 60953}, {"name": "Wanparti", "lat": 16.36738, "lng": 78.06889, "population": 60949}, {"name": "Sirhind", "lat": 30.64321, "lng": 76.38421, "population": 60847}, {"name": "Bārdoli", "lat": 21.12297, "lng": 73.11151, "population": 60821}, {"name": "Mokameh", "lat": 25.39662, "lng": 85.9219, "population": 60678}, {"name": "Arāmbāgh", "lat": 22.88333, "lng": 87.78333, "population": 60639}, {"name": "Poonamalle", "lat": 13.04888, "lng": 80.11488, "population": 60607}, {"name": "Keonjhargarh", "lat": 21.6318, "lng": 85.59686, "population": 60590}, {"name": "Bhadravati", "lat": 20.1001, "lng": 79.11442, "population": 60565}, {"name": "Panruti", "lat": 11.77662, "lng": 79.55269, "population": 60323}, {"name": "Ilkal", "lat": 15.95923, "lng": 76.11351, "population": 60242}, {"name": "Kīratpur", "lat": 29.50671, "lng": 78.20613, "population": 60223}, {"name": "Vrindāvan", "lat": 27.58105, "lng": 77.69662, "population": 60195}, {"name": "Kodungallūr", "lat": 10.23263, "lng": 76.19513, "population": 60190}, {"name": "Nedumangād", "lat": 8.60267, "lng": 77.00139, "population": 60161}, {"name": "Bangaon", "lat": 25.86728, "lng": 86.51152, "population": 60000}, {"name": "Narsimhapur", "lat": 22.94936, "lng": 79.18357, "population": 59966}, {"name": "Ponnur", "lat": 16.07114, "lng": 80.54944, "population": 59913}, {"name": "Kathua", "lat": 32.36941, "lng": 75.52539, "population": 59866}, {"name": "North Lakhimpur", "lat": 27.23517, "lng": 94.10357, "population": 59841}, {"name": "Masaurhi Buzurg", "lat": 25.35417, "lng": 85.03195, "population": 59803}, {"name": "Nerkunram", "lat": 13.06194, "lng": 80.20944, "population": 59790}, {"name": "Shegaon", "lat": 20.7932, "lng": 76.69921, "population": 59672}, {"name": "Mandideep", "lat": 23.08166, "lng": 77.53328, "population": 59654}, {"name": "Pāchora", "lat": 20.66727, "lng": 75.35305, "population": 59609}, {"name": "Gobichettipalayam", "lat": 11.45496, "lng": 77.4422, "population": 59523}, {"name": "Gangoh", "lat": 29.78004, "lng": 77.26346, "population": 59519}, {"name": "Itanagar", "lat": 27.08694, "lng": 93.60987, "population": 59490}, {"name": "Jaitpur", "lat": 28.50647, "lng": 77.32976, "population": 59330}, {"name": "Narasapur", "lat": 16.43425, "lng": 81.69845, "population": 59306}, {"name": "Dhone", "lat": 15.3952, "lng": 77.8715, "population": 59272}, {"name": "Rājgarh", "lat": 28.64201, "lng": 75.38612, "population": 59193}, {"name": "Ullal", "lat": 12.80569, "lng": 74.86058, "population": 59116}, {"name": "Panna", "lat": 24.72094, "lng": 80.18772, "population": 59091}, {"name": "Gola Gokarannāth", "lat": 28.07837, "lng": 80.47054, "population": 58986}, {"name": "Gohad", "lat": 26.43278, "lng": 78.44205, "population": 58939}, {"name": "Wani", "lat": 20.05507, "lng": 78.95313, "population": 58840}, {"name": "Thiruvarur", "lat": 10.77269, "lng": 79.6368, "population": 58777}, {"name": "Upleta", "lat": 21.74015, "lng": 70.28256, "population": 58775}, {"name": "Nūzvīd", "lat": 16.78854, "lng": 80.84593, "population": 58590}, {"name": "Lonavla", "lat": 18.75275, "lng": 73.40575, "population": 58562}, {"name": "Una", "lat": 20.82318, "lng": 71.03795, "population": 58528}, {"name": "Sillod", "lat": 20.30303, "lng": 75.65284, "population": 58230}, {"name": "Sīra", "lat": 13.74155, "lng": 76.9043, "population": 57928}, {"name": "Chikhli", "lat": 20.35046, "lng": 76.25774, "population": 57889}, {"name": "Jhārgrām", "lat": 22.45384, "lng": 86.99497, "population": 57796}, {"name": "Kagaznāgār", "lat": 19.33159, "lng": 79.46605, "population": 57583}, {"name": "Bhātāpāra", "lat": 21.735, "lng": 81.94711, "population": 57537}, {"name": "Kāsībugga", "lat": 18.75927, "lng": 84.41613, "population": 57507}, {"name": "Hasanpur", "lat": 28.72249, "lng": 78.28436, "population": 57481}, {"name": "Lohārdagā", "lat": 23.43305, "lng": 84.67992, "population": 57411}, {"name": "Jahāngīrābād", "lat": 28.40549, "lng": 78.10588, "population": 57363}, {"name": "Sherkot", "lat": 29.32704, "lng": 78.57429, "population": 57361}, {"name": "Kātrās", "lat": 23.79752, "lng": 86.29834, "population": 57349}, {"name": "Mācherla", "lat": 16.47635, "lng": 79.43533, "population": 57290}, {"name": "Naksalbāri", "lat": 26.6827, "lng": 88.22001, "population": 57283}, {"name": "Sankarankovil", "lat": 9.17048, "lng": 77.54107, "population": 57277}, {"name": "Mulbāgal", "lat": 13.16352, "lng": 78.39346, "population": 57276}, {"name": "Kandukūr", "lat": 15.21542, "lng": 79.9039, "population": 57246}, {"name": "Tiruvalla", "lat": 9.3816, "lng": 76.57489, "population": 57223}, {"name": "Roshanpura", "lat": 28.60057, "lng": 76.98918, "population": 57217}, {"name": "Ponnūru", "lat": 16.06547, "lng": 80.55203, "population": 57170}, {"name": "Kollegāl", "lat": 12.15449, "lng": 77.11051, "population": 57149}, {"name": "Mukandpur", "lat": 28.73944, "lng": 77.18315, "population": 57135}, {"name": "Unjha", "lat": 23.80366, "lng": 72.39101, "population": 57108}, {"name": "Chhibrāmau", "lat": 27.14872, "lng": 79.50078, "population": 57071}, {"name": "Tilhar", "lat": 27.96282, "lng": 79.73827, "population": 57043}, {"name": "Lunglei", "lat": 22.89247, "lng": 92.74218, "population": 57011}, {"name": "Hoskote", "lat": 13.0707, "lng": 77.79814, "population": 56980}, {"name": "Byasanagar", "lat": 20.95569, "lng": 86.12643, "population": 56946}, {"name": "Bada Barabīl", "lat": 22.11186, "lng": 85.38684, "population": 56870}, {"name": "Sāmalkot", "lat": 17.05675, "lng": 82.17639, "population": 56864}, {"name": "Karīmganj", "lat": 24.86919, "lng": 92.35543, "population": 56854}, {"name": "Bobbili", "lat": 18.57366, "lng": 83.35925, "population": 56819}, {"name": "Mettur", "lat": 11.78796, "lng": 77.8008, "population": 56743}, {"name": "Sattenapalle", "lat": 16.39381, "lng": 80.15221, "population": 56721}, {"name": "Tirūrangādi", "lat": 11.04316, "lng": 75.92337, "population": 56632}, {"name": "Tennala", "lat": 10.99342, "lng": 75.93504, "population": 56546}, {"name": "Chakradharpur", "lat": 22.67611, "lng": 85.62892, "population": 56531}, {"name": "Sendhwa", "lat": 21.68562, "lng": 75.09622, "population": 56485}, {"name": "Talegaon Dābhāde", "lat": 18.73502, "lng": 73.67561, "population": 56435}, {"name": "Hiriyūr", "lat": 13.94455, "lng": 76.61723, "population": 56416}, {"name": "Anjangaon", "lat": 21.16516, "lng": 77.3091, "population": 56380}, {"name": "Charkhi Dādri", "lat": 28.59166, "lng": 76.27161, "population": 56337}, {"name": "Ujhāni", "lat": 28.00311, "lng": 79.00821, "population": 56309}, {"name": "Bankra", "lat": 22.60291, "lng": 88.27751, "population": 56273}, {"name": "Dabhoi", "lat": 22.18333, "lng": 73.43333, "population": 56253}, {"name": "Teghra", "lat": 25.49043, "lng": 85.94001, "population": 56234}, {"name": "Obra", "lat": 24.41863, "lng": 82.98797, "population": 56110}, {"name": "Tiruvallur", "lat": 13.14376, "lng": 79.90889, "population": 56074}, {"name": "Mandapeta", "lat": 16.86254, "lng": 81.92921, "population": 56063}, {"name": "Tirur", "lat": 10.91368, "lng": 75.92118, "population": 56058}, {"name": "Ropar", "lat": 30.96896, "lng": 76.52695, "population": 56038}, {"name": "Nāmakkal", "lat": 11.22126, "lng": 78.16524, "population": 55997}, {"name": "Arcot", "lat": 12.90569, "lng": 79.31897, "population": 55955}, {"name": "Lāharpur", "lat": 27.70827, "lng": 80.90256, "population": 55911}, {"name": "Viramgām", "lat": 23.12564, "lng": 72.05014, "population": 55821}, {"name": "Islāmpur", "lat": 26.26541, "lng": 88.18982, "population": 55691}, {"name": "Karād", "lat": 17.28937, "lng": 74.18183, "population": 55663}, {"name": "Yanam", "lat": 16.73308, "lng": 82.21364, "population": 55626}, {"name": "Ābu Road", "lat": 24.48012, "lng": 72.78186, "population": 55599}, {"name": "Raxaul", "lat": 26.97982, "lng": 84.85065, "population": 55536}, {"name": "Moonniyur", "lat": 11.05972, "lng": 75.90311, "population": 55535}, {"name": "Barwāni", "lat": 22.03232, "lng": 74.89982, "population": 55504}, {"name": "Kottayam", "lat": 9.58692, "lng": 76.52132, "population": 55374}, {"name": "Tiruttangal", "lat": 9.48333, "lng": 77.83333, "population": 55362}, {"name": "Petlād", "lat": 22.47681, "lng": 72.79995, "population": 55330}, {"name": "Jālaun", "lat": 26.1451, "lng": 79.3366, "population": 55299}, {"name": "Periya Semūr", "lat": 11.36088, "lng": 77.68952, "population": 55282}, {"name": "Madhupur", "lat": 24.27419, "lng": 86.63929, "population": 55238}, {"name": "Dhūri", "lat": 30.36846, "lng": 75.86791, "population": 55225}, {"name": "Challakere", "lat": 14.318, "lng": 76.65165, "population": 55194}, {"name": "Etāwa", "lat": 24.18351, "lng": 78.20289, "population": 55185}, {"name": "Chiplūn", "lat": 17.53339, "lng": 73.50935, "population": 55139}, {"name": "Mandlā", "lat": 22.59879, "lng": 80.37115, "population": 55133}, {"name": "Bhīmunipatnam", "lat": 17.89017, "lng": 83.45203, "population": 55082}, {"name": "Mawlai-Mawïong", "lat": 25.62322, "lng": 91.88175, "population": 55012}, {"name": "Kavanur", "lat": 12.99623, "lng": 80.07514, "population": 54986}, {"name": "Pithāpuram", "lat": 17.1168, "lng": 82.25284, "population": 54859}, {"name": "Kāndi", "lat": 23.95946, "lng": 88.04018, "population": 54848}, {"name": "Idappadi", "lat": 11.58624, "lng": 77.83891, "population": 54823}, {"name": "Sāhibābād Daulotpur", "lat": 28.74705, "lng": 77.11465, "population": 54773}, {"name": "Punganūru", "lat": 13.36672, "lng": 78.57186, "population": 54746}, {"name": "Ghātāl", "lat": 22.66244, "lng": 87.73399, "population": 54658}, {"name": "Jāfarābād", "lat": 28.67873, "lng": 77.27116, "population": 54601}, {"name": "Sāgar", "lat": 14.16498, "lng": 75.02901, "population": 54550}, {"name": "Sihor", "lat": 21.71134, "lng": 71.96179, "population": 54547}, {"name": "Mūndka", "lat": 28.68012, "lng": 77.02975, "population": 54541}, {"name": "Deglur", "lat": 18.54829, "lng": 77.57695, "population": 54493}, {"name": "Madhepura", "lat": 25.92127, "lng": 86.79271, "population": 54472}, {"name": "Bārāmati", "lat": 18.15174, "lng": 74.57767, "population": 54415}, {"name": "Mahāsamund", "lat": 21.10743, "lng": 82.0948, "population": 54413}, {"name": "Sidhi", "lat": 24.4038, "lng": 81.87954, "population": 54331}, {"name": "Kāsaragod", "lat": 12.49838, "lng": 74.98959, "population": 54172}, {"name": "Garhchiroli", "lat": 20.18061, "lng": 80.00522, "population": 54152}, {"name": "Puttūr", "lat": 13.44189, "lng": 79.55314, "population": 54092}, {"name": "Jalor", "lat": 25.34558, "lng": 72.61559, "population": 54081}, {"name": "Samāna", "lat": 30.15395, "lng": 76.19851, "population": 54072}, {"name": "Rāzampeta", "lat": 14.19544, "lng": 79.15896, "population": 54050}, {"name": "Wāri", "lat": 21.15313, "lng": 79.0076, "population": 54048}, {"name": "Shella", "lat": 25.17861, "lng": 91.63952, "population": 54039}, {"name": "Palmaner", "lat": 13.2, "lng": 78.74725, "population": 54035}, {"name": "Deolāli", "lat": 19.94404, "lng": 73.83441, "population": 54027}, {"name": "Kanakapura", "lat": 12.54654, "lng": 77.42005, "population": 54014}, {"name": "Wokha", "lat": 26.09717, "lng": 94.25817, "population": 54010}, {"name": "Umred", "lat": 20.85396, "lng": 79.32466, "population": 53971}, {"name": "Kālna", "lat": 23.21944, "lng": 88.36295, "population": 53964}, {"name": "Pallichal", "lat": 8.44976, "lng": 77.02573, "population": 53861}, {"name": "Tāndoni", "lat": 10.92611, "lng": 78.0941, "population": 53854}, {"name": "Pārvatipuram", "lat": 18.78392, "lng": 83.42569, "population": 53844}, {"name": "Kotharia", "lat": 22.23436, "lng": 70.81903, "population": 53794}, {"name": "Ottapalam", "lat": 10.7735, "lng": 76.37758, "population": 53792}, {"name": "Dīdwāna", "lat": 27.40096, "lng": 74.57537, "population": 53749}, {"name": "Begampur", "lat": 28.72655, "lng": 77.06689, "population": 53682}, {"name": "Gaddi Annaram", "lat": 17.36687, "lng": 78.5242, "population": 53622}, {"name": "Dumraon", "lat": 25.55265, "lng": 84.15149, "population": 53618}, {"name": "Nerupperichchal", "lat": 11.16105, "lng": 77.37398, "population": 53579}, {"name": "Jaggaiahpet", "lat": 16.89155, "lng": 80.09551, "population": 53530}, {"name": "Rampur Hat", "lat": 24.17737, "lng": 87.78275, "population": 53468}, {"name": "Khanapuram Haveli", "lat": 17.26239, "lng": 80.16809, "population": 53442}, {"name": "Goālpāra", "lat": 26.17668, "lng": 90.62634, "population": 53430}, {"name": "Tuni", "lat": 17.35905, "lng": 82.54607, "population": 53425}, {"name": "Laxmangarh", "lat": 27.82294, "lng": 75.02754, "population": 53392}, {"name": "Shāhpur", "lat": 16.69605, "lng": 76.8422, "population": 53366}, {"name": "Bhongīr", "lat": 17.51544, "lng": 78.88563, "population": 53339}, {"name": "Puttūr", "lat": 12.75975, "lng": 75.20169, "population": 53331}, {"name": "Ullagaram", "lat": 12.979, "lng": 80.19703, "population": 53322}, {"name": "Sri Dūngargarh", "lat": 28.09617, "lng": 74.00868, "population": 53294}, {"name": "Ayodhya", "lat": 26.79909, "lng": 82.2047, "population": 53293}, {"name": "Mubarakpur", "lat": 26.08866, "lng": 83.29088, "population": 53263}, {"name": "Amalāpuram", "lat": 16.57868, "lng": 82.00609, "population": 53231}, {"name": "Arsikere", "lat": 13.31446, "lng": 76.25704, "population": 53216}, {"name": "Phaltan", "lat": 17.99113, "lng": 74.43177, "population": 53202}, {"name": "Ashta", "lat": 23.01754, "lng": 76.72208, "population": 53184}, {"name": "Sandīla", "lat": 27.06989, "lng": 80.51497, "population": 53182}, {"name": "Vikārābād", "lat": 17.3381, "lng": 77.90441, "population": 53143}, {"name": "Baruipur", "lat": 22.36544, "lng": 88.4325, "population": 53128}, {"name": "Choudwar", "lat": 20.53917, "lng": 85.91512, "population": 52999}, {"name": "Shāhābād", "lat": 17.1307, "lng": 76.94361, "population": 52952}, {"name": "Sultānganj", "lat": 25.23831, "lng": 86.73559, "population": 52892}, {"name": "Mandi Dabwāli", "lat": 29.96633, "lng": 74.70025, "population": 52873}, {"name": "Konch", "lat": 25.99451, "lng": 79.15127, "population": 52773}, {"name": "Bāprola", "lat": 28.64133, "lng": 77.01415, "population": 52744}, {"name": "Venkatagiri", "lat": 13.96005, "lng": 79.58032, "population": 52688}, {"name": "Dabhel", "lat": 20.40953, "lng": 72.88339, "population": 52578}, {"name": "Biswān", "lat": 27.49581, "lng": 80.99618, "population": 52516}, {"name": "Siruguppa", "lat": 15.63, "lng": 76.89217, "population": 52492}, {"name": "Kosi", "lat": 27.79449, "lng": 77.4368, "population": 52492}, {"name": "Sironj", "lat": 24.10313, "lng": 77.69055, "population": 52460}, {"name": "Jangaon", "lat": 17.72602, "lng": 79.15236, "population": 52394}, {"name": "Daudnagar", "lat": 25.03473, "lng": 84.40095, "population": 52364}, {"name": "Dandeli", "lat": 15.26667, "lng": 74.61667, "population": 52295}, {"name": "Ramapuram", "lat": 13.03179, "lng": 80.18243, "population": 52295}, {"name": "Mudhol", "lat": 16.33354, "lng": 75.28305, "population": 52199}, {"name": "Thodupuzha", "lat": 9.89394, "lng": 76.72216, "population": 52045}, {"name": "Devakottai", "lat": 9.94704, "lng": 78.8233, "population": 51865}, {"name": "Arwal", "lat": 25.24281, "lng": 84.66571, "population": 51849}, {"name": "Kāliyāganj", "lat": 25.63442, "lng": 88.32665, "population": 51748}, {"name": "Nasīrābād", "lat": 26.30473, "lng": 74.73364, "population": 51747}, {"name": "Khagaul", "lat": 25.57898, "lng": 85.04564, "population": 51577}, {"name": "Changanācheri", "lat": 9.44203, "lng": 76.53604, "population": 51430}, {"name": "Shorāpur", "lat": 16.521, "lng": 76.75738, "population": 51398}, {"name": "Māndvi", "lat": 22.83282, "lng": 69.35237, "population": 51376}, {"name": "Rajgangpur", "lat": 22.2, "lng": 84.583, "population": 51362}, {"name": "Ozar", "lat": 20.09473, "lng": 73.92816, "population": 51297}, {"name": "Peranāmpattu", "lat": 12.9343, "lng": 78.7189, "population": 51271}, {"name": "Gumlā", "lat": 23.04268, "lng": 84.54429, "population": 51264}, {"name": "Rāmnagar", "lat": 29.3925, "lng": 79.1283, "population": 51244}, {"name": "Vazhakkala", "lat": 10.01239, "lng": 76.32633, "population": 51242}, {"name": "Shujālpur", "lat": 23.40673, "lng": 76.7098, "population": 51225}, {"name": "Tirumangalam", "lat": 9.82307, "lng": 77.98381, "population": 51194}, {"name": "Sidlaghatta", "lat": 13.38896, "lng": 77.86444, "population": 51159}, {"name": "Khurai", "lat": 24.04372, "lng": 78.33014, "population": 51108}, {"name": "Hilsa", "lat": 25.31642, "lng": 85.28234, "population": 51052}, {"name": "Rampura Phul", "lat": 30.27563, "lng": 75.24253, "population": 51023}, {"name": "Fatwa", "lat": 25.50958, "lng": 85.30504, "population": 50961}, {"name": "Tūndla", "lat": 27.2146, "lng": 78.23683, "population": 50939}, {"name": "Mannārakkāt", "lat": 10.99223, "lng": 76.46418, "population": 50921}, {"name": "Metpalle", "lat": 18.84724, "lng": 78.62563, "population": 50902}, {"name": "Naya Gaon", "lat": 30.77515, "lng": 76.79308, "population": 50869}, {"name": "Repalle", "lat": 16.0184, "lng": 80.82958, "population": 50866}, {"name": "Hunsūr", "lat": 12.30359, "lng": 76.29275, "population": 50865}, {"name": "Nanjangūd", "lat": 12.11764, "lng": 76.68397, "population": 50598}, {"name": "Forbesganj", "lat": 26.30253, "lng": 87.26556, "population": 50475}, {"name": "Nithari", "lat": 28.70489, "lng": 77.05285, "population": 50464}, {"name": "Sunabeda", "lat": 18.7284, "lng": 82.82932, "population": 50394}, {"name": "Gajraula", "lat": 28.8457, "lng": 78.2396, "population": 50380}, {"name": "Vīrapāndi", "lat": 11.06247, "lng": 77.35076, "population": 50301}, {"name": "Dāhānu", "lat": 19.96778, "lng": 72.71263, "population": 50287}, {"name": "Rasipuram", "lat": 11.46009, "lng": 78.18635, "population": 50244}, {"name": "Sālūr", "lat": 18.51716, "lng": 83.20548, "population": 50206}, {"name": "Bhabhua", "lat": 25.04049, "lng": 83.60749, "population": 50179}, {"name": "Hodal", "lat": 27.89196, "lng": 77.36744, "population": 50143}, {"name": "Bhadrāchalam", "lat": 17.66846, "lng": 80.88887, "population": 50087}, {"name": "Aonla", "lat": 28.27402, "lng": 79.16521, "population": 50011}, {"name": "Tirupparangunram", "lat": 9.88151, "lng": 78.07306, "population": 50004}, {"name": "Chatrā", "lat": 24.20645, "lng": 84.87085, "population": 49985}, {"name": "Khagaria", "lat": 25.5022, "lng": 86.46708, "population": 49982}, {"name": "Dhāmpur", "lat": 29.30883, "lng": 78.51083, "population": 49973}, {"name": "Nagarukhra City", "lat": 22.93938, "lng": 88.63776, "population": 49922}, {"name": "Phalodi", "lat": 27.13102, "lng": 72.36826, "population": 49914}, {"name": "Gangākher", "lat": 18.96962, "lng": 76.74946, "population": 49891}, {"name": "Sardhana", "lat": 29.14551, "lng": 77.61433, "population": 49857}, {"name": "Nohar", "lat": 29.18292, "lng": 74.77064, "population": 49835}, {"name": "Yeola", "lat": 20.0424, "lng": 74.48944, "population": 49826}, {"name": "Bhaisa", "lat": 19.11285, "lng": 77.96336, "population": 49764}, {"name": "Perintalmanna", "lat": 10.97724, "lng": 76.22541, "population": 49723}, {"name": "Jugsālai", "lat": 22.77668, "lng": 86.18351, "population": 49660}, {"name": "Perambalur", "lat": 11.23333, "lng": 78.88333, "population": 49648}, {"name": "Badūria", "lat": 22.74431, "lng": 88.78655, "population": 49547}, {"name": "Gudalur", "lat": 11.52073, "lng": 76.48141, "population": 49535}, {"name": "Kizhake Chālakudi", "lat": 10.30067, "lng": 76.33763, "population": 49525}, {"name": "Narkatiāganj", "lat": 27.10383, "lng": 84.46185, "population": 49507}, {"name": "Peddāpuram", "lat": 17.07701, "lng": 82.13836, "population": 49477}, {"name": "Majalgaon", "lat": 19.15513, "lng": 76.20992, "population": 49453}, {"name": "Daund", "lat": 18.46515, "lng": 74.58375, "population": 49450}, {"name": "Kapadvanj", "lat": 23.02302, "lng": 73.07113, "population": 49308}, {"name": "Kotputli", "lat": 27.70207, "lng": 76.19911, "population": 49202}, {"name": "Dyāne", "lat": 20.56743, "lng": 74.52845, "population": 49192}, {"name": "Bail-Hongal", "lat": 15.8137, "lng": 74.85895, "population": 49182}, {"name": "Biaora", "lat": 23.9205, "lng": 76.91074, "population": 49093}, {"name": "Naugachhia", "lat": 25.38807, "lng": 87.09906, "population": 49069}, {"name": "Kānūru", "lat": 16.49853, "lng": 80.69141, "population": 49006}, {"name": "Dehu Road", "lat": 18.68211, "lng": 73.73161, "population": 48961}, {"name": "Pipariā", "lat": 22.75703, "lng": 78.35499, "population": 48826}, {"name": "Barpeta", "lat": 26.32293, "lng": 91.00632, "population": 48824}, {"name": "Gooty", "lat": 15.11836, "lng": 77.63776, "population": 48658}, {"name": "Tamlūk", "lat": 22.30083, "lng": 87.92593, "population": 48646}, {"name": "Vengara", "lat": 11.05083, "lng": 75.97806, "population": 48600}, {"name": "Jaisingpur", "lat": 16.77639, "lng": 74.55361, "population": 48510}, {"name": "Nangal", "lat": 31.38966, "lng": 76.37574, "population": 48497}, {"name": "Jasdan", "lat": 22.03709, "lng": 71.20794, "population": 48483}, {"name": "Godda", "lat": 24.827, "lng": 87.2125, "population": 48480}, {"name": "Bikramganj", "lat": 25.21073, "lng": 84.25508, "population": 48465}, {"name": "Morār", "lat": 26.2264, "lng": 78.22482, "population": 48464}, {"name": "Jhajjar", "lat": 28.6063, "lng": 76.6565, "population": 48424}, {"name": "Rāmnagar", "lat": 27.16371, "lng": 84.32342, "population": 48411}, {"name": "Nihtaur", "lat": 29.32416, "lng": 78.38724, "population": 48389}, {"name": "Mahnar Bazar", "lat": 25.60962, "lng": 85.48076, "population": 48293}, {"name": "Vite", "lat": 17.27343, "lng": 74.53792, "population": 48289}, {"name": "Gumia", "lat": 23.7975, "lng": 85.82523, "population": 48141}, {"name": "Anakaputhur", "lat": 12.9828, "lng": 80.1264, "population": 48050}, {"name": "Tānālūr", "lat": 10.95154, "lng": 75.90961, "population": 47976}, {"name": "Bhīnmāl", "lat": 24.99944, "lng": 72.27141, "population": 47932}, {"name": "Sadasivpet", "lat": 17.61925, "lng": 77.95263, "population": 47920}, {"name": "Bakhtiarpur", "lat": 25.45598, "lng": 85.5329, "population": 47897}, {"name": "Jalandhar Cantonment", "lat": 31.29421, "lng": 75.61974, "population": 47845}, {"name": "Athani", "lat": 16.72613, "lng": 75.06421, "population": 47842}, {"name": "Warud", "lat": 21.47101, "lng": 78.26965, "population": 47817}, {"name": "Wānkāner", "lat": 22.61198, "lng": 70.94379, "population": 47814}, {"name": "Churāchāndpur", "lat": 24.33353, "lng": 93.66999, "population": 47774}, {"name": "Dūngarpur", "lat": 23.84306, "lng": 73.71466, "population": 47706}, {"name": "Chhaya", "lat": 21.62878, "lng": 69.63386, "population": 47699}, {"name": "Dumka", "lat": 24.26778, "lng": 87.24855, "population": 47663}, {"name": "Gādarwāra", "lat": 22.9235, "lng": 78.7849, "population": 47604}, {"name": "Pithorāgarh", "lat": 29.58349, "lng": 80.20947, "population": 47571}, {"name": "Ballia", "lat": 25.42139, "lng": 86.31445, "population": 47550}, {"name": "Bihtā", "lat": 25.55885, "lng": 84.87141, "population": 47549}, {"name": "Atraulī", "lat": 28.02964, "lng": 78.28571, "population": 47512}, {"name": "Walajapet", "lat": 12.9251, "lng": 79.36626, "population": 47498}, {"name": "Koraput", "lat": 18.81199, "lng": 82.71048, "population": 47468}, {"name": "Umarkhed", "lat": 19.60144, "lng": 77.68878, "population": 47458}, {"name": "Gudalur", "lat": 9.67826, "lng": 77.24951, "population": 47419}, {"name": "Kunnamangalam", "lat": 11.30459, "lng": 75.87772, "population": 47396}, {"name": "Valasaravakkam", "lat": 13.04394, "lng": 80.17251, "population": 47378}, {"name": "Jodhpur", "lat": 21.90174, "lng": 70.0327, "population": 47329}, {"name": "Alangad", "lat": 10.10192, "lng": 76.29104, "population": 47329}, {"name": "Alengād", "lat": 10.11901, "lng": 76.30226, "population": 47329}, {"name": "Punalūr", "lat": 9.01956, "lng": 76.92261, "population": 47263}, {"name": "Vikramasingapuram", "lat": 8.71477, "lng": 77.39032, "population": 47241}, {"name": "Vattiyūrkāvu", "lat": 8.52469, "lng": 76.98886, "population": 47187}, {"name": "Padrauna", "lat": 26.90403, "lng": 83.98087, "population": 47181}, {"name": "Ambāh", "lat": 26.70423, "lng": 78.22678, "population": 47177}, {"name": "Komalapuram", "lat": 9.54189, "lng": 76.34236, "population": 47126}, {"name": "Mattanur", "lat": 11.93018, "lng": 75.57152, "population": 47078}, {"name": "Harpanahalli", "lat": 14.78766, "lng": 75.98863, "population": 47039}, {"name": "Kendrāparha", "lat": 20.50166, "lng": 86.42227, "population": 47006}, {"name": "Tighri", "lat": 28.51225, "lng": 77.24083, "population": 46974}, {"name": "Pallikal", "lat": 11.13723, "lng": 75.92575, "population": 46962}, {"name": "Selu", "lat": 19.45512, "lng": 76.44073, "population": 46915}, {"name": "Medak", "lat": 18.04531, "lng": 78.26078, "population": 46880}, {"name": "Patancheru", "lat": 17.53334, "lng": 78.2645, "population": 46821}, {"name": "Chhatarpur", "lat": 28.49849, "lng": 77.18254, "population": 46776}, {"name": "Dondaicha", "lat": 21.3236, "lng": 74.56804, "population": 46767}, {"name": "Jāmner", "lat": 20.80949, "lng": 75.77768, "population": 46762}, {"name": "Burla", "lat": 21.50976, "lng": 83.87259, "population": 46698}, {"name": "Porur", "lat": 13.03565, "lng": 80.15821, "population": 46690}, {"name": "Nellikkuppam", "lat": 11.77554, "lng": 79.67016, "population": 46678}, {"name": "Padra", "lat": 22.2398, "lng": 73.08451, "population": 46660}, {"name": "Kawardha", "lat": 22.00853, "lng": 81.23148, "population": 46657}, {"name": "Gulāothi", "lat": 28.58938, "lng": 77.79318, "population": 46647}, {"name": "Joda", "lat": 22.017, "lng": 85.422, "population": 46631}, {"name": "Seohāra", "lat": 29.20904, "lng": 78.58837, "population": 46546}, {"name": "Warora", "lat": 20.22885, "lng": 79.00277, "population": 46532}, {"name": "Mānvi", "lat": 15.99126, "lng": 77.05034, "population": 46465}, {"name": "Kurseong", "lat": 26.88251, "lng": 88.27729, "population": 46427}, {"name": "Manglaur", "lat": 29.79094, "lng": 77.87836, "population": 46395}, {"name": "Nilambūr", "lat": 11.27271, "lng": 76.22571, "population": 46366}, {"name": "Ganj Dundwāra", "lat": 27.73308, "lng": 78.94119, "population": 46314}, {"name": "Nānpāra", "lat": 27.86459, "lng": 81.50036, "population": 46280}, {"name": "Khordha", "lat": 20.18268, "lng": 85.61629, "population": 46205}, {"name": "Atarra", "lat": 25.28618, "lng": 80.57155, "population": 46168}, {"name": "Barbigha", "lat": 25.2167, "lng": 85.7333, "population": 46075}, {"name": "Merta", "lat": 26.64859, "lng": 74.03414, "population": 46070}, {"name": "Jammalamadugu", "lat": 14.84677, "lng": 78.38314, "population": 46069}, {"name": "Garhwa", "lat": 24.16002, "lng": 83.80755, "population": 46059}, {"name": "Nawanshahr", "lat": 31.1245, "lng": 76.11613, "population": 46024}, {"name": "Rānāvāv", "lat": 21.68734, "lng": 69.74485, "population": 46018}, {"name": "Bānka", "lat": 24.88091, "lng": 86.92257, "population": 45977}, {"name": "Thoubāl", "lat": 24.63881, "lng": 93.99639, "population": 45947}, {"name": "Mahmudābād", "lat": 27.29191, "lng": 81.11775, "population": 45921}, {"name": "Milavittan", "lat": 8.81928, "lng": 78.09087, "population": 45863}, {"name": "Pakur", "lat": 24.63925, "lng": 87.84239, "population": 45840}, {"name": "Cherthala", "lat": 9.68444, "lng": 76.33558, "population": 45827}, {"name": "Nāyudupet", "lat": 13.90742, "lng": 79.89465, "population": 45769}, {"name": "Farrukhnagar", "lat": 17.07787, "lng": 78.20339, "population": 45675}, {"name": "Rāmpura", "lat": 30.256, "lng": 75.24116, "population": 45639}, {"name": "Chirakkal", "lat": 11.91257, "lng": 75.36102, "population": 45601}, {"name": "Chirkunda", "lat": 23.74771, "lng": 86.78804, "population": 45508}, {"name": "Coonoor", "lat": 11.34979, "lng": 76.79375, "population": 45494}, {"name": "Pāndhurnā", "lat": 21.59556, "lng": 78.52628, "population": 45479}, {"name": "Shertallai", "lat": 9.68581, "lng": 76.33996, "population": 45474}, {"name": "Kodur", "lat": 11.01528, "lng": 76.07009, "population": 45459}, {"name": "Giddarbāha", "lat": 30.19953, "lng": 74.66627, "population": 45370}, {"name": "Meddappakkam", "lat": 12.91661, "lng": 80.19385, "population": 45356}, {"name": "Nandikotkūr", "lat": 15.85668, "lng": 78.26569, "population": 45343}, {"name": "Khalīlābād", "lat": 26.77268, "lng": 83.07179, "population": 45321}, {"name": "Chittaranjan", "lat": 23.85681, "lng": 86.90324, "population": 45305}, {"name": "Pāthardih", "lat": 23.6658, "lng": 86.43166, "population": 45276}, {"name": "Chāmpa", "lat": 22.03532, "lng": 82.64234, "population": 45256}, {"name": "Mehkar", "lat": 20.1505, "lng": 76.56841, "population": 45248}, {"name": "Dhanpuri", "lat": 23.18542, "lng": 81.55513, "population": 45156}, {"name": "Sundergarh", "lat": 22.11667, "lng": 84.03333, "population": 45036}, {"name": "Dīg", "lat": 27.47188, "lng": 77.32564, "population": 44999}, {"name": "Tumsar", "lat": 21.38333, "lng": 79.73333, "population": 44869}, {"name": "Rameswaram", "lat": 9.2885, "lng": 79.31271, "population": 44856}, {"name": "Bangarapet", "lat": 12.99116, "lng": 78.17804, "population": 44849}, {"name": "Tānda", "lat": 28.97621, "lng": 78.94187, "population": 44822}, {"name": "Vishāram", "lat": 12.91808, "lng": 79.27756, "population": 44786}, {"name": "Thiruthani", "lat": 13.17594, "lng": 79.61637, "population": 44781}, {"name": "Digras", "lat": 20.1035, "lng": 77.71846, "population": 44767}, {"name": "Maradu", "lat": 9.93653, "lng": 76.32382, "population": 44704}, {"name": "Bāndīkūi", "lat": 27.05087, "lng": 76.57325, "population": 44664}, {"name": "Dowleswaram", "lat": 16.94761, "lng": 81.77987, "population": 44637}, {"name": "Bālāpur", "lat": 20.66612, "lng": 76.77386, "population": 44594}, {"name": "Tondalam", "lat": 11.50137, "lng": 76.34983, "population": 44590}, {"name": "Jawaharnagar", "lat": 17.51001, "lng": 78.56562, "population": 44562}, {"name": "Homnābād", "lat": 17.77074, "lng": 77.12519, "population": 44483}, {"name": "Memāri", "lat": 23.17647, "lng": 88.09749, "population": 44448}, {"name": "Nāndūra", "lat": 20.83417, "lng": 76.45924, "population": 44419}, {"name": "Kottangara", "lat": 8.92412, "lng": 76.64673, "population": 44402}, {"name": "Angul", "lat": 20.84089, "lng": 85.10192, "population": 44386}, {"name": "Kōttakkal", "lat": 11.00089, "lng": 76.00618, "population": 44382}, {"name": "Libāspur", "lat": 28.75089, "lng": 77.14647, "population": 44375}, {"name": "Dalli Rājhara", "lat": 20.58573, "lng": 81.07501, "population": 44363}, {"name": "Kālpi", "lat": 26.11667, "lng": 79.73333, "population": 44339}, {"name": "Jintūr", "lat": 19.61186, "lng": 76.6874, "population": 44291}, {"name": "Daman", "lat": 20.41431, "lng": 72.83236, "population": 44282}, {"name": "Rāmnagar", "lat": 25.26907, "lng": 83.02971, "population": 44277}, {"name": "Anekal", "lat": 12.7111, "lng": 77.69557, "population": 44260}, {"name": "Akkarampalle", "lat": 13.65, "lng": 79.42, "population": 44219}, {"name": "Nidadavole", "lat": 16.90572, "lng": 81.67222, "population": 44173}, {"name": "Raisen", "lat": 23.33033, "lng": 77.7811, "population": 44162},