[{"name": "Amman", "lat": 31.95522, "lng": 35.94503, "population": 1275857}, {"name": "Zarqa", "lat": 32.07275, "lng": 36.08796, "population": 792665}, {"name": "Irbid", "lat": 32.55556, "lng": 35.85, "population": 569068}, {"name": "Russeifa", "lat": 32.01778, "lng": 36.04639, "population": 268237}, {"name": "Ḩayy Khildā", "lat": 31.99202, "lng": 35.84002, "population": 251000}, {"name": "Khuraybat as Sūq", "lat": 31.87913, "lng": 35.92098, "population": 186158}, {"name": "Wādī as Sīr", "lat": 31.9545, "lng": 35.81831, "population": 181212}, {"name": "Ar Ramthā", "lat": 32.55873, "lng": 36.00816, "population": 155693}, {"name": "Ṣuwayliḥ", "lat": 32.0221, "lng": 35.84394, "population": 151016}, {"name": "‘Ajlūn", "lat": 32.33326, "lng": 35.75279, "population": 125557}, {"name": "As Salţ", "lat": 32.03917, "lng": 35.72722, "population": 107874}, {"name": "Aqaba", "lat": 29.52667, "lng": 35.00778, "population": 95048}, {"name": "Rukban", "lat": 33.31405, "lng": 38.70342, "population": 85000}, {"name": "Marj Al Hamam", "lat": 31.90274, "lng": 35.84645, "population": 82788}, {"name": "Mādabā", "lat": 31.71599, "lng": 35.79392, "population": 82335}, {"name": "Mafraq", "lat": 32.34289, "lng": 36.20804, "population": 57118}, {"name": "Az̧ Z̧ulayl", "lat": 32.1208, "lng": 36.28008, "population": 50931}, {"name": "Ma'an", "lat": 30.19624, "lng": 35.73405, "population": 50350}, {"name": "Al Jubayhah", "lat": 32.01071, "lng": 35.89802, "population": 46834}, {"name": "Saḩāb", "lat": 31.87032, "lng": 36.00479, "population": 40241}, {"name": "Ḩayy al Quwaysimah", "lat": 31.91037, "lng": 35.94975, "population": 32396}, {"name": "Jarash", "lat": 32.28082, "lng": 35.89929, "population": 27046}, {"name": "Aţ Ţafīlah", "lat": 30.83752, "lng": 35.60442, "population": 25429}, {"name": "‘Izrā", "lat": 31.15889, "lng": 35.69278, "population": 22756}, {"name": "Qīr Moāv", "lat": 31.18248, "lng": 35.69999, "population": 22581}, {"name": "Karak City", "lat": 31.16368, "lng": 35.76204, "population": 21678}, {"name": "Judita", "lat": 32.40792, "lng": 35.70802, "population": 20000}, {"name": "Al Fuḩayş", "lat": 32.00468, "lng": 35.78088, "population": 18916}, {"name": "Aydūn", "lat": 32.50528, "lng": 35.85809, "population": 18376}, {"name": "Umm as Summāq", "lat": 31.88542, "lng": 35.8543, "population": 18274}, {"name": "Kurayyimah", "lat": 32.27639, "lng": 35.59938, "population": 17837}, {"name": "Māḩiş", "lat": 31.98646, "lng": 35.76987, "population": 17754}, {"name": "‘Anjarah", "lat": 32.30667, "lng": 35.75443, "population": 17634}, {"name": "Safi", "lat": 31.03608, "lng": 35.46544, "population": 15200}, {"name": "Al Azraq ash Shamālī", "lat": 31.88209, "lng": 36.83017, "population": 14800}, {"name": "Aţ Ţurrah", "lat": 32.63979, "lng": 35.98943, "population": 14619}, {"name": "Wādī Mūsá", "lat": 30.32096, "lng": 35.47895, "population": 14000}, {"name": "Sūf", "lat": 32.31372, "lng": 35.83713, "population": 12942}, {"name": "Aţ Ţayyibah", "lat": 32.54304, "lng": 35.71756, "population": 12615}, {"name": "Sakib", "lat": 32.28431, "lng": 35.80909, "population": 11586}, {"name": "Ash Shajarah", "lat": 32.64391, "lng": 35.94175, "population": 11243}, {"name": "Jāwā", "lat": 31.85247, "lng": 35.93928, "population": 10628}, {"name": "Şakhrah", "lat": 32.37087, "lng": 35.84267, "population": 10616}, {"name": "Rehab", "lat": 32.32341, "lng": 36.09087, "population": 10000}, {"name": "Ruwaished", "lat": 32.5041, "lng": 38.2011, "population": 9805}, {"name": "‘Ayn Jannā", "lat": 32.33466, "lng": 35.7637, "population": 9586}, {"name": "Al Karāmah", "lat": 31.95439, "lng": 35.58033, "population": 9384}, {"name": "Al Mazār al Janūbī", "lat": 31.06722, "lng": 35.69486, "population": 9383}, {"name": "Şammā", "lat": 32.57102, "lng": 35.68984, "population": 8926}, {"name": "Kafr Asad", "lat": 32.598, "lng": 35.71266, "population": 8203}, {"name": "Bayt Yāfā", "lat": 32.52253, "lng": 35.78618, "population": 7788}, {"name": "Al Quwayrah", "lat": 29.80045, "lng": 35.3116, "population": 7372}, {"name": "‘Ayy", "lat": 31.13371, "lng": 35.64375, "population": 7340}, {"name": "Buşayrā", "lat": 30.73256, "lng": 35.60943, "population": 7154}, {"name": "Kafr Sawm", "lat": 32.68527, "lng": 35.80102, "population": 7152}, {"name": "Ḩakamā", "lat": 32.59354, "lng": 35.8832, "population": 7075}, {"name": "Sāl", "lat": 32.56897, "lng": 35.91185, "population": 6896}, {"name": "Malkā", "lat": 32.67645, "lng": 35.74851, "population": 6856}, {"name": "Kafr Abīl", "lat": 32.41752, "lng": 35.66305, "population": 6333}, {"name": "Dayr Yūsuf", "lat": 32.48701, "lng": 35.79635, "population": 6223}, {"name": "Al Ḩamrā’", "lat": 32.44017, "lng": 36.15265, "population": 6211}, {"name": "Saḩam al Kaffārāt", "lat": 32.69848, "lng": 35.77438, "population": 6203}, {"name": "Raymūn", "lat": 32.28202, "lng": 35.82779, "population": 6082}, {"name": "Waqqāş", "lat": 32.54214, "lng": 35.60508, "population": 5678}, {"name": "Al Kittah", "lat": 32.27685, "lng": 35.84114, "population": 5626}, {"name": "Ḩayy al Bunayyāt", "lat": 31.89603, "lng": 35.88465, "population": 5579}, {"name": "Ḩātim", "lat": 32.64492, "lng": 35.77771, "population": 5542}, {"name": "Kharjā", "lat": 32.65988, "lng": 35.88782, "population": 5498}, {"name": "Ḩalāwah", "lat": 32.38433, "lng": 35.66167, "population": 5376}, {"name": "Şabḩā", "lat": 32.32696, "lng": 36.50159, "population": 5315}, {"name": "Kitim", "lat": 32.43834, "lng": 35.89677, "population": 5292}, {"name": "Al Khinzīrah", "lat": 31.05056, "lng": 35.60606, "population": 5231}, {"name": "Tibnah", "lat": 32.47521, "lng": 35.73056, "population": 5229}, {"name": "Balīlā", "lat": 32.39109, "lng": 35.93832, "population": 5206}, {"name": "Qumaym", "lat": 32.57174, "lng": 35.73452, "population": 5111}, {"name": "Yarqā", "lat": 31.97583, "lng": 35.69638, "population": 4786}, {"name": "Burmā", "lat": 32.2193, "lng": 35.78507, "population": 4735}, {"name": "Bayt Īdis", "lat": 32.43775, "lng": 35.69765, "population": 4723}, {"name": "Adir", "lat": 31.20217, "lng": 35.76155, "population": 4441}, {"name": "Qafqafā", "lat": 32.34851, "lng": 35.93864, "population": 4402}, {"name": "Al Jīzah", "lat": 31.69893, "lng": 35.9553, "population": 4397}, {"name": "Umm Qays", "lat": 32.65348, "lng": 35.68457, "population": 4294}, {"name": "Ash-Shūbak", "lat": 30.51909, "lng": 35.55773, "population": 4275}, {"name": "At-Taybeh", "lat": 30.25125, "lng": 35.4657, "population": 4265}, {"name": "Ar Rabbah", "lat": 31.26923, "lng": 35.73829, "population": 4229}, {"name": "Umm al Qiţţayn", "lat": 32.31449, "lng": 36.62826, "population": 4225}, {"name": "Zaḩar", "lat": 32.5667, "lng": 35.77811, "population": 4150}, {"name": "Al Qaşr", "lat": 31.31407, "lng": 35.74393, "population": 3840}, {"name": "Al Jafr", "lat": 30.3184, "lng": 36.17775, "population": 3557}, {"name": "Rāsūn", "lat": 32.39982, "lng": 35.75971, "population": 2586}, {"name": "Tala Bay", "lat": 29.40842, "lng": 34.97918, "population": 2000}, {"name": "Ash Shawbak", "lat": 30.52134, "lng": 35.57135, "population": 50}, {"name": "Umm ar Raşāş", "lat": 31.51225, "lng": 35.91837, "population": 0}, {"name": "Umm al Jimāl", "lat": 32.32863, "lng": 36.36788, "population": 0}, {"name": "Umm al Basātīn", "lat": 31.82454, "lng": 35.87795, "population": 0}, {"name": "Adhruḩ", "lat": 30.3307, "lng": 35.59659, "population": 0}, {"name": "Ash Shūnah al Janūbīyah", "lat": 31.8915, "lng": 35.6178, "population": 0}, {"name": "Sammā ar Rawsān", "lat": 32.63794, "lng": 35.82661, "population": 0}, {"name": "Samā as Sirḩān", "lat": 32.46859, "lng": 36.24363, "population": 0}, {"name": "Rujm ash Shāmī al Gharbī", "lat": 31.83693, "lng": 36.00492, "population": 0}, {"name": "Nā‘ūr", "lat": 31.87436, "lng": 35.82467, "population": 0}, {"name": "Mulayḩ", "lat": 31.58517, "lng": 35.80716, "population": 0}, {"name": "Al Mughayyir", "lat": 31.40634, "lng": 35.77083, "population": 0}, {"name": "Mā‘īn", "lat": 31.68002, "lng": 35.732, "population": 0}, {"name": "Kufrinjah", "lat": 32.29755, "lng": 35.70212, "population": 0}, {"name": "Al Fayşalīyah", "lat": 31.74909, "lng": 35.76922, "population": 0}, {"name": "Bīrayn", "lat": 32.09943, "lng": 35.95783, "population": 0}, {"name": "Al Murayghah", "lat": 30.09526, "lng": 35.52314, "population": 0}, {"name": "Juraynah", "lat": 31.76, "lng": 35.79466, "population": 0}, {"name": "‘Irjān", "lat": 32.39447, "lng": 35.73345, "population": 0}, {"name": "Ḩisbān", "lat": 31.79819, "lng": 35.80986, "population": 0}, {"name": "Ḩawshā", "lat": 32.45144, "lng": 36.09903, "population": 0}, {"name": "Fuqū‘", "lat": 31.36805, "lng": 35.7022, "population": 0}, {"name": "Dhībān", "lat": 31.49889, "lng": 35.78287, "population": 0}, {"name": "Dayr ‘Allā", "lat": 32.19571, "lng": 35.62161, "population": 0}, {"name": "Dayr Abū Sa‘īd", "lat": 32.49816, "lng": 35.68671, "population": 0}, {"name": "Bal‘amā", "lat": 32.23649, "lng": 36.08811, "population": 0}, {"name": "Muthallath al Azraq", "lat": 31.83269, "lng": 36.81487, "population": 0}, {"name": "‘Ayn al Bāshā", "lat": 32.05726, "lng": 35.83109, "population": 0}, {"name": "Ayl", "lat": 30.20588, "lng": 35.53627, "population": 0}, {"name": "Aş Şubayḩī", "lat": 32.14844, "lng": 35.70535, "population": 0}, {"name": "Ash Shūnah ash Shamālīyah", "lat": 32.62023, "lng": 35.61451, "population": 0}, {"name": "Ar Ruwayshid", "lat": 32.50152, "lng": 38.20405, "population": 0}, {"name": "Ar Ruşayfah", "lat": 32.01727, "lng": 36.03271, "population": 0}, {"name": "Al Qaţrānah", "lat": 31.25083, "lng": 36.04932, "population": 0}, {"name": "Ghawr al Mazra‘ah", "lat": 31.26586, "lng": 35.51674, "population": 0}, {"name": "Al Mazār ash Shamālī", "lat": 32.47041, "lng": 35.79693, "population": 0}, {"name": "Al Maşţabah", "lat": 32.18434, "lng": 35.85588, "population": 0}, {"name": "Manshīyat Banī Ḩasan", "lat": 32.37066, "lng": 36.07933, "population": 0}, {"name": "‘Allān", "lat": 32.11815, "lng": 35.74351, "population": 0}, {"name": "Al Juwayyidah", "lat": 31.88715, "lng": 35.93144, "population": 0}, {"name": "Al Ḩusaynīyah", "lat": 31.02606, "lng": 35.72294, "population": 0}, {"name": "Al Ḩişn", "lat": 32.48454, "lng": 35.88406, "population": 0}, {"name": "Al Hāshimīyah", "lat": 32.12901, "lng": 36.1213, "population": 0}, {"name": "Al Ḩasā", "lat": 30.82131, "lng": 35.97499, "population": 0}, {"name": "Al ‘Arīḑ", "lat": 31.55839, "lng": 35.65736, "population": 0}, {"name": "Al Khālidīyah", "lat": 32.179, "lng": 36.30326, "population": 0}, {"name": "Ar Rīshah", "lat": 30.22435, "lng": 35.21671, "population": 0}, {"name": "Al Muwaqqar", "lat": 31.81473, "lng": 36.10879, "population": 0}, {"name": "Al Ḩusaynīyah", "lat": 30.59545, "lng": 35.79701, "population": 0}, {"name": "Ad Dīsah", "lat": 29.65284, "lng": 35.51123, "population": 0}, {"name": "Muthallath Şabḩā", "lat": 32.26011, "lng": 36.4678, "population": 0}, {"name": "Muthallath Jāmi‘at Āl al Bayt", "lat": 32.34592, "lng": 36.23352, "population": 0}, {"name": "Al ‘Abdallī", "lat": 31.96501, "lng": 35.90821, "population": 0}, {"name": "Dayr al Kahf", "lat": 32.27535, "lng": 36.83949, "population": 0}]