[{"name": "Bishkek", "lat": 42.87, "lng": 74.59, "population": 900000}, {"name": "Osh", "lat": 40.52828, "lng": 72.7985, "population": 322164}, {"name": "Jalal-Abad", "lat": 40.94498, "lng": 72.99313, "population": 123239}, {"name": "Karakol", "lat": 42.49047, "lng": 78.39197, "population": 84351}, {"name": "Tokmok", "lat": 42.84194, "lng": 75.30149, "population": 71443}, {"name": "Uzgen", "lat": 40.76994, "lng": 73.30068, "population": 49410}, {"name": "Kara-Balta", "lat": 42.81423, "lng": 73.84813, "population": 48278}, {"name": "Balykchy", "lat": 42.46017, "lng": 76.18709, "population": 42875}, {"name": "Naryn", "lat": 41.4283, "lng": 75.9957, "population": 41178}, {"name": "Bazar-Korgon", "lat": 41.0376, "lng": 72.74586, "population": 41011}, {"name": "Talas", "lat": 42.52256, "lng": 72.2417, "population": 40308}, {"name": "Razzakov", "lat": 39.83895, "lng": 69.5276, "population": 34219}, {"name": "Kyzyl-Kyya", "lat": 40.25684, "lng": 72.12793, "population": 32000}, {"name": "Suzak", "lat": 40.8982, "lng": 72.90481, "population": 30534}, {"name": "Batken", "lat": 40.0604, "lng": 70.81929, "population": 27730}, {"name": "Kara Suu", "lat": 40.7046, "lng": 72.86666, "population": 26609}, {"name": "Iradan", "lat": 40.26667, "lng": 72.1, "population": 26200}, {"name": "Tash-Kumyr", "lat": 41.34612, "lng": 72.21707, "population": 23594}, {"name": "Belovodskoye", "lat": 42.82944, "lng": 74.1083, "population": 23046}, {"name": "Kant", "lat": 42.89106, "lng": 74.85077, "population": 22617}, {"name": "Lebedinovka", "lat": 42.88454, "lng": 74.67819, "population": 21118}, {"name": "Toktogul", "lat": 41.87442, "lng": 72.94192, "population": 20577}, {"name": "Massy", "lat": 41.0601, "lng": 72.63285, "population": 19774}, {"name": "Nookat", "lat": 40.26597, "lng": 72.61834, "population": 18228}, {"name": "Ivanovka", "lat": 42.88778, "lng": 75.085, "population": 17513}, {"name": "Kochkor-Ata", "lat": 41.03709, "lng": 72.4832, "population": 17177}, {"name": "Kara-Kulja", "lat": 40.63223, "lng": 73.59249, "population": 15616}, {"name": "Ala-Buka", "lat": 41.4105, "lng": 71.48628, "population": 15426}, {"name": "Kyzyl-Suu", "lat": 42.34211, "lng": 78.00644, "population": 15075}, {"name": "Suluktu", "lat": 39.93652, "lng": 69.56779, "population": 15019}, {"name": "Uch-Korgon", "lat": 40.22881, "lng": 72.05924, "population": 14708}, {"name": "At-Bashi", "lat": 41.16951, "lng": 75.80099, "population": 14655}, {"name": "Bokombayevskoye", "lat": 42.11769, "lng": 76.99332, "population": 14267}, {"name": "Cholpon-Ata", "lat": 42.64944, "lng": 77.08225, "population": 14237}, {"name": "Kerben", "lat": 41.49399, "lng": 71.75826, "population": 14141}, {"name": "Ak-Suu", "lat": 42.49948, "lng": 78.52702, "population": 14009}, {"name": "Gul’cha", "lat": 40.3138, "lng": 73.44418, "population": 13755}, {"name": "Kyzyl-Adyr", "lat": 42.61981, "lng": 71.5891, "population": 13612}, {"name": "Sovetskoye", "lat": 41.05178, "lng": 72.73965, "population": 13178}, {"name": "Tyup", "lat": 42.7276, "lng": 78.36476, "population": 12355}, {"name": "Aydarken", "lat": 39.94319, "lng": 71.34184, "population": 11857}, {"name": "Kazarman", "lat": 41.40452, "lng": 74.02828, "population": 11191}, {"name": "Nizhnyaya Ala-Archa", "lat": 42.92245, "lng": 74.56684, "population": 10760}, {"name": "Baetovo", "lat": 41.26668, "lng": 74.95698, "population": 10682}, {"name": "Mayevka", "lat": 42.90927, "lng": 74.5685, "population": 10535}, {"name": "Kemin", "lat": 42.78611, "lng": 75.69167, "population": 10354}, {"name": "Kaindy", "lat": 42.82469, "lng": 73.67585, "population": 9561}, {"name": "Pokrovka", "lat": 42.7362, "lng": 71.60982, "population": 8522}, {"name": "Kulundu", "lat": 40.10635, "lng": 69.64127, "population": 8250}, {"name": "Samarkandyk", "lat": 39.9981, "lng": 70.54589, "population": 8015}, {"name": "Andarak", "lat": 39.76849, "lng": 69.46398, "population": 8001}, {"name": "Kyzyl-Bel’", "lat": 40.09991, "lng": 70.74053, "population": 7481}, {"name": "Katran", "lat": 39.84434, "lng": 70.01474, "population": 7149}, {"name": "Daroot-Korgon", "lat": 39.55274, "lng": 72.20518, "population": 6421}, {"name": "Kyzyl-Jol", "lat": 40.04158, "lng": 70.81207, "population": 6378}, {"name": "Khalmion", "lat": 40.21218, "lng": 71.63274, "population": 6274}, {"name": "Sosnovka", "lat": 42.63707, "lng": 73.89608, "population": 5885}, {"name": "Ak-Dzhar", "lat": 41.17417, "lng": 75.7891, "population": 5559}, {"name": "Boz-Beshik", "lat": 42.43247, "lng": 77.95153, "population": 5237}, {"name": "Kanysh-Kyya", "lat": 41.76536, "lng": 71.09181, "population": 4805}, {"name": "Kadzhi-Say", "lat": 42.14107, "lng": 77.17848, "population": 4000}, {"name": "Chayek", "lat": 41.92768, "lng": 74.51699, "population": 3762}, {"name": "Kyzyl-Oktyabr’", "lat": 41.10189, "lng": 72.79274, "population": 3641}, {"name": "Karacha", "lat": 41.08511, "lng": 72.81146, "population": 3586}, {"name": "Orozbekovo", "lat": 40.05689, "lng": 71.66945, "population": 3503}, {"name": "Ak-Jol", "lat": 41.56672, "lng": 72.19452, "population": 3046}, {"name": "Pulgon", "lat": 40.14724, "lng": 71.72962, "population": 3014}, {"name": "Akbulun", "lat": 42.62607, "lng": 78.82249, "population": 2546}, {"name": "Birbash", "lat": 42.52684, "lng": 78.35989, "population": 2535}, {"name": "Ak-Bulung", "lat": 42.76688, "lng": 78.22616, "population": 2498}, {"name": "Akbulek", "lat": 42.61533, "lng": 78.81919, "population": 2498}, {"name": "Kyzyl-Bulak", "lat": 40.0517, "lng": 71.73726, "population": 2272}, {"name": "Korgon", "lat": 39.88899, "lng": 69.93559, "population": 2204}, {"name": "Tegizchil", "lat": 42.56513, "lng": 78.42132, "population": 1791}, {"name": "Besh-Badam", "lat": 41.14069, "lng": 72.88859, "population": 1720}, {"name": "Kyzyl-Tuu", "lat": 42.18527, "lng": 76.67422, "population": 1703}, {"name": "Tayan", "lat": 39.9026, "lng": 71.10826, "population": 1693}, {"name": "Zyndan", "lat": 42.64269, "lng": 78.87001, "population": 1425}, {"name": "Bozbulun", "lat": 42.57837, "lng": 78.36999, "population": 1183}, {"name": "Kyzyl-Eshme", "lat": 39.56559, "lng": 72.27153, "population": 1100}, {"name": "Karavan", "lat": 40.29513, "lng": 72.18627, "population": 1100}, {"name": "Chuy", "lat": 42.81973, "lng": 75.28233, "population": 0}, {"name": "Sokuluk", "lat": 42.85401, "lng": 74.30257, "population": 0}, {"name": "Bakai-Ata", "lat": 42.49298, "lng": 71.9236, "population": 0}, {"name": "Kochkor", "lat": 42.21552, "lng": 75.75659, "population": 0}, {"name": "Kara-Dzhygach", "lat": 40.12209, "lng": 72.09271, "population": 0}, {"name": "Ivanovo-Alekseyevka", "lat": 42.54689, "lng": 72.20921, "population": 0}, {"name": "Aravan", "lat": 40.51608, "lng": 72.4996, "population": 0}, {"name": "Alga", "lat": 40.2363, "lng": 71.49899, "population": 0}, {"name": "Beshkent", "lat": 40.03083, "lng": 69.81861, "population": 0}, {"name": "Talas", "lat": 42.35473, "lng": 72.65678, "population": 0}, {"name": "Üch-Terek", "lat": 41.76222, "lng": 73.20033, "population": 0}, {"name": "Kara-Dëbë", "lat": 40.24428, "lng": 72.04475, "population": 0}, {"name": "Chek", "lat": 40.10934, "lng": 70.84636, "population": 0}, {"name": "Kara-Bak", "lat": 40.16169, "lng": 70.81959, "population": 0}, {"name": "Kyrgyz-Kyshtak", "lat": 40.31055, "lng": 71.34966, "population": 0}, {"name": "Boz-Adyr", "lat": 39.9986, "lng": 71.07338, "population": 0}, {"name": "Markaz", "lat": 40.24019, "lng": 71.89983, "population": 0}, {"name": "Ak-Suu", "lat": 39.89877, "lng": 69.3716, "population": 0}, {"name": "Toguz-Bulak", "lat": 39.84331, "lng": 69.71355, "population": 0}, {"name": "Ak-Tatyr", "lat": 39.9599, "lng": 70.48451, "population": 0}, {"name": "Ormosh", "lat": 39.94591, "lng": 71.26086, "population": 0}, {"name": "Ak-Say", "lat": 39.87438, "lng": 70.52211, "population": 0}]