[{"name": "Tarawa", "lat": 1.3278, "lng": 172.97696, "population": 40311}, {"name": "Betio Village", "lat": 1.35797, "lng": 172.92105, "population": 12509}, {"name": "Bikenibeu Village", "lat": 1.3673, "lng": 173.12415, "population": 6170}, {"name": "Teaoraereke Village", "lat": 1.33309, "lng": 173.01162, "population": 3939}, {"name": "Bairiki Village", "lat": 1.32924, "lng": 172.97522, "population": 2766}, {"name": "Eita Village", "lat": 1.36154, "lng": 173.08113, "population": 2299}, {"name": "Bonriki Village", "lat": 1.38081, "lng": 173.13887, "population": 2119}, {"name": "Temaiku Village", "lat": 1.36292, "lng": 173.16226, "population": 2011}, {"name": "Tabwakea Village", "lat": 2.01643, "lng": -157.48773, "population": 1881}, {"name": "Makin Village", "lat": 3.3644, "lng": 172.98352, "population": 1834}, {"name": "London Village", "lat": 1.98487, "lng": -157.47502, "population": 1829}, {"name": "Banraeaba Village", "lat": 1.3454, "lng": 173.03464, "population": 1789}, {"name": "Nawerewere Village", "lat": 1.36362, "lng": 173.13935, "population": 1780}, {"name": "Ambo Village", "lat": 1.35317, "lng": 173.04259, "population": 1688}, {"name": "Buota Village", "lat": 1.39078, "lng": 173.13082, "population": 1373}, {"name": "Banana", "lat": 1.96865, "lng": -157.39361, "population": 1209}, {"name": "Banana Village", "lat": 1.98329, "lng": -157.36526, "population": 1170}, {"name": "Rawannawi Village", "lat": 2.05379, "lng": 173.26354, "population": 1075}, {"name": "Napari Village", "lat": 3.90806, "lng": -159.38832, "population": 194}]