[{"name": "Moroni", "lat": -11.70216, "lng": 43.25506, "population": 74749}, {"name": "Moutsamoudou", "lat": -12.16672, "lng": 44.39944, "population": 26313}, {"name": "Fomboni", "lat": -12.28759, "lng": 43.74344, "population": 17291}, {"name": "Tsimbeo", "lat": -12.20583, "lng": 44.46472, "population": 12590}, {"name": "Domoni", "lat": -12.26067, "lng": 44.52947, "population": 12262}, {"name": "Mirontsi", "lat": -12.1604, "lng": 44.40986, "population": 11955}, {"name": "Adda-Douéni", "lat": -12.2925, "lng": 44.49722, "population": 10858}, {"name": "Ouani", "lat": -12.13554, "lng": 44.42493, "population": 10073}, {"name": "Nkourani", "lat": -11.38972, "lng": 43.28806, "population": 10000}, {"name": "Sima", "lat": -12.19556, "lng": 44.27667, "population": 8737}, {"name": "Koni-Djodjo", "lat": -12.22972, "lng": 44.48167, "population": 8109}, {"name": "Moya", "lat": -12.30967, "lng": 44.43685, "population": 7529}, {"name": "Barakani", "lat": -12.13861, "lng": 44.43026, "population": 6089}, {"name": "Chandra", "lat": -12.195, "lng": 44.46472, "population": 5645}, {"name": "Ouellah", "lat": -11.39028, "lng": 43.33194, "population": 5478}, {"name": "Ikoni", "lat": -11.74487, "lng": 43.2371, "population": 5474}, {"name": "Mrémani", "lat": -12.30833, "lng": 44.49861, "population": 5470}, {"name": "Mbéni", "lat": -11.50139, "lng": 43.3775, "population": 5128}, {"name": "Mramani", "lat": -12.34639, "lng": 44.52861, "population": 5126}, {"name": "Koki", "lat": -12.17139, "lng": 44.44167, "population": 4929}, {"name": "Mitsamiouli", "lat": -11.38472, "lng": 43.28444, "population": 4811}, {"name": "Mvouni", "lat": -11.71965, "lng": 43.2752, "population": 4791}, {"name": "Tsidjé", "lat": -11.70137, "lng": 43.27057, "population": 4600}, {"name": "Kangani", "lat": -12.32102, "lng": 44.4727, "population": 3711}, {"name": "Lingoni", "lat": -12.25583, "lng": 44.41833, "population": 3583}, {"name": "Ntsoudjini", "lat": -11.66077, "lng": 43.27157, "population": 3559}, {"name": "Foumbouni", "lat": -11.86537, "lng": 43.49529, "population": 3386}, {"name": "Koni-Ngani", "lat": -12.21583, "lng": 44.48, "population": 3288}, {"name": "Mitsoudjé", "lat": -11.81209, "lng": 43.28043, "population": 3129}, {"name": "Mjimandra", "lat": -12.19167, "lng": 44.37028, "population": 3114}, {"name": "Ntsaouéni", "lat": -11.46583, "lng": 43.26278, "population": 2760}, {"name": "Bambao", "lat": -12.20325, "lng": 44.51638, "population": 2699}, {"name": "Nioumachoua", "lat": -12.36139, "lng": 43.71528, "population": 2687}, {"name": "Itsandra", "lat": -11.67638, "lng": 43.26466, "population": 2684}, {"name": "Daji", "lat": -12.32583, "lng": 44.48861, "population": 2676}, {"name": "Dembéni", "lat": -11.87361, "lng": 43.39778, "population": 2657}, {"name": "Chouani", "lat": -11.8233, "lng": 43.29429, "population": 2615}, {"name": "Vouani", "lat": -12.24417, "lng": 44.37444, "population": 2513}, {"name": "Hajoho", "lat": -12.12434, "lng": 44.48881, "population": 2505}, {"name": "Boungouéni", "lat": -12.20556, "lng": 44.29944, "population": 2465}, {"name": "Chironkamba", "lat": -12.19111, "lng": 44.3525, "population": 2391}, {"name": "Chezani", "lat": -11.4314, "lng": 43.39625, "population": 2322}, {"name": "Singani", "lat": -11.84784, "lng": 43.31731, "population": 2309}, {"name": "Magnassini-Nindri", "lat": -12.27806, "lng": 44.41583, "population": 2213}, {"name": "Kyo", "lat": -12.33222, "lng": 44.51917, "population": 2209}, {"name": "Kavani", "lat": -12.19194, "lng": 44.26944, "population": 2160}, {"name": "Djoyézi", "lat": -12.30587, "lng": 43.77425, "population": 2096}, {"name": "Ongoni", "lat": -12.17028, "lng": 44.50694, "population": 2058}, {"name": "Koimbani", "lat": -11.62306, "lng": 43.35667, "population": 2054}, {"name": "Bimbini", "lat": -12.18833, "lng": 44.23556, "population": 2052}, {"name": "Mohoro", "lat": -11.82701, "lng": 43.45436, "population": 2014}, {"name": "Hantsindzi", "lat": -11.43178, "lng": 43.41102, "population": 2004}, {"name": "Dzahadjou", "lat": -11.85287, "lng": 43.34987, "population": 2000}, {"name": "Ouhozi", "lat": -11.405, "lng": 43.28222, "population": 1930}, {"name": "Bandamadji-Domba", "lat": -11.78788, "lng": 43.45356, "population": 1929}, {"name": "Ouanani", "lat": -12.3375, "lng": 43.7975, "population": 1917}, {"name": "Pajé", "lat": -12.16972, "lng": 44.38806, "population": 1894}, {"name": "Ouzini", "lat": -12.26722, "lng": 44.47972, "population": 1886}, {"name": "Vanadjou", "lat": -11.6075, "lng": 43.27611, "population": 1830}, {"name": "Bandajou", "lat": -12.19167, "lng": 44.28694, "population": 1816}, {"name": "Douniani", "lat": -11.42111, "lng": 43.28889, "population": 1778}, {"name": "Dziani", "lat": -12.18333, "lng": 44.48333, "population": 1754}, {"name": "Oussivo", "lat": -11.585, "lng": 43.26722, "population": 1708}, {"name": "Harembo", "lat": -12.15108, "lng": 44.49828, "population": 1698}, {"name": "Salimani", "lat": -11.8115, "lng": 43.26823, "population": 1662}, {"name": "Séléa", "lat": -11.78756, "lng": 43.27036, "population": 1662}, {"name": "Vanambouani", "lat": -11.61139, "lng": 43.25306, "population": 1654}, {"name": "Mandza", "lat": -11.41806, "lng": 43.29528, "population": 1602}, {"name": "Patsi", "lat": -12.15556, "lng": 44.43722, "population": 1498}, {"name": "Mjamaoué", "lat": -12.19361, "lng": 44.31, "population": 1490}, {"name": "Chindini", "lat": -11.92328, "lng": 43.49109, "population": 1471}, {"name": "Héroumbili", "lat": -11.54389, "lng": 43.37972, "population": 1463}, {"name": "Ourovéni", "lat": -11.91375, "lng": 43.49804, "population": 1419}, {"name": "Maraharé", "lat": -12.23083, "lng": 44.31333, "population": 1415}, {"name": "Mtakoudja", "lat": -12.26111, "lng": 43.70361, "population": 1410}, {"name": "Koua", "lat": -11.40514, "lng": 43.34713, "population": 1391}, {"name": "Mavingouni", "lat": -11.71953, "lng": 43.26233, "population": 1390}, {"name": "Itsandzéni", "lat": -11.47278, "lng": 43.38444, "population": 1382}, {"name": "Bambadjani", "lat": -11.47861, "lng": 43.37722, "population": 1355}, {"name": "Madjeouéni", "lat": -11.82167, "lng": 43.27806, "population": 1320}, {"name": "Ivouani", "lat": -11.39157, "lng": 43.39454, "population": 1317}, {"name": "Bahani", "lat": -11.63972, "lng": 43.28417, "population": 1272}, {"name": "Ziroudani", "lat": -12.3325, "lng": 43.7775, "population": 1197}, {"name": "Antsahé", "lat": -12.35639, "lng": 44.5225, "population": 1180}, {"name": "Mtsamdou", "lat": -11.60694, "lng": 43.38056, "population": 1171}, {"name": "Hoani", "lat": -12.25083, "lng": 43.67472, "population": 1114}, {"name": "Assimpao", "lat": -12.23306, "lng": 44.31972, "population": 1112}, {"name": "Bouni", "lat": -11.48694, "lng": 43.38833, "population": 1104}, {"name": "Chitrouni", "lat": -12.18583, "lng": 44.33556, "population": 1081}, {"name": "Nioumamilima", "lat": -11.85461, "lng": 43.44607, "population": 1068}, {"name": "Dar Salam", "lat": -12.25083, "lng": 44.38806, "population": 1059}, {"name": "Limbi", "lat": -12.23944, "lng": 44.50528, "population": 1037}, {"name": "Mnoungou", "lat": -11.51778, "lng": 43.37389, "population": 1013}]