[{"name": "Beirut", "lat": 33.89332, "lng": 35.50157, "population": 1916100}, {"name": "Ra’s Bayrūt", "lat": 33.9, "lng": 35.48333, "population": 1251739}, {"name": "Tripoli", "lat": 34.43352, "lng": 35.84415, "population": 229398}, {"name": "Sidon", "lat": 33.55751, "lng": 35.37148, "population": 163554}, {"name": "Tyre", "lat": 33.27333, "lng": 35.19389, "population": 135204}, {"name": "Aley", "lat": 33.80528, "lng": 35.6, "population": 130000}, {"name": "Nabatîyé et Tahta", "lat": 33.37889, "lng": 35.48389, "population": 120000}, {"name": "Habboûch", "lat": 33.40729, "lng": 35.48169, "population": 98433}, {"name": "Jounieh", "lat": 33.98083, "lng": 35.61778, "population": 96315}, {"name": "Zahlé", "lat": 33.84675, "lng": 35.90203, "population": 78145}, {"name": "Ghazieh", "lat": 33.5175, "lng": 35.36889, "population": 50000}, {"name": "Baalbek", "lat": 34.00583, "lng": 36.21806, "population": 30916}, {"name": "En Nâqoûra", "lat": 33.11806, "lng": 35.13972, "population": 24910}, {"name": "El Hermel", "lat": 34.39417, "lng": 36.38472, "population": 22250}, {"name": "Byblos", "lat": 34.12111, "lng": 35.64806, "population": 20784}, {"name": "Bsharri", "lat": 34.25083, "lng": 36.01056, "population": 20000}, {"name": "Sarafand", "lat": 33.44948, "lng": 35.29948, "population": 10965}, {"name": "Batroûn", "lat": 34.25528, "lng": 35.65806, "population": 10852}, {"name": "Qâna", "lat": 33.20889, "lng": 35.29944, "population": 10000}, {"name": "Aajaltoûn", "lat": 33.96528, "lng": 35.68278, "population": 10000}, {"name": "Baabda", "lat": 33.83389, "lng": 35.54417, "population": 9000}, {"name": "Hrajel", "lat": 34.01722, "lng": 35.79244, "population": 8000}, {"name": "Aaïtanît", "lat": 33.56139, "lng": 35.67028, "population": 6800}, {"name": "Bhamdoûn el Mhatta", "lat": 33.80861, "lng": 35.65972, "population": 5000}, {"name": "Tebnine", "lat": 33.19399, "lng": 35.40967, "population": 5000}, {"name": "Srîfa", "lat": 33.28139, "lng": 35.39667, "population": 4750}, {"name": "Halba", "lat": 34.54278, "lng": 36.07972, "population": 4500}, {"name": "Aanjar", "lat": 33.72778, "lng": 35.93111, "population": 2400}, {"name": "Ain Ebel", "lat": 33.11023, "lng": 35.40251, "population": 2000}, {"name": "Bhamdoun", "lat": 33.795, "lng": 35.65111, "population": 1500}, {"name": "Aalma ech Chaab", "lat": 33.10454, "lng": 35.18195, "population": 1080}, {"name": "Zghartā", "lat": 34.39739, "lng": 35.89493, "population": 0}, {"name": "Sîr ed Danniyé", "lat": 34.38528, "lng": 36.03111, "population": 0}, {"name": "Marjayoun", "lat": 33.36028, "lng": 35.59111, "population": 0}, {"name": "Joubb Jannîne", "lat": 33.62694, "lng": 35.78417, "population": 0}, {"name": "Jezzine", "lat": 33.54167, "lng": 35.58444, "population": 0}, {"name": "Hasbaya", "lat": 33.39778, "lng": 35.685, "population": 0}, {"name": "Bent Jbaïl", "lat": 33.11944, "lng": 35.43333, "population": 0}, {"name": "Beït ed Dîne", "lat": 33.69417, "lng": 35.58083, "population": 0}, {"name": "Amioûn", "lat": 34.3, "lng": 35.80889, "population": 0}, {"name": "Jdaidet el Matn", "lat": 33.89056, "lng": 35.56639, "population": 0}, {"name": "Râchaïya el Ouadi", "lat": 33.50089, "lng": 35.8437, "population": 0}]