[{"name": "Riga", "lat": 56.946, "lng": 24.10589, "population": 742572}, {"name": "Daugavpils", "lat": 55.88333, "lng": 26.53333, "population": 78126}, {"name": "Liepāja", "lat": 56.50474, "lng": 21.01085, "population": 67421}, {"name": "Jelgava", "lat": 56.65, "lng": 23.71278, "population": 54834}, {"name": "Jūrmala", "lat": 56.968, "lng": 23.77038, "population": 52001}, {"name": "Ventspils", "lat": 57.39485, "lng": 21.56121, "population": 32723}, {"name": "Rēzekne", "lat": 56.51028, "lng": 27.34, "population": 26429}, {"name": "Valmiera", "lat": 57.54108, "lng": 25.42751, "population": 22812}, {"name": "Ogre", "lat": 56.8162, "lng": 24.61401, "population": 22767}, {"name": "Jēkabpils", "lat": 56.49903, "lng": 25.85735, "population": 21014}, {"name": "Mārupe", "lat": 56.90544, "lng": 24.05113, "population": 19096}, {"name": "Salaspils", "lat": 56.86014, "lng": 24.36544, "population": 17826}, {"name": "Dārzciems", "lat": 56.94563, "lng": 24.17459, "population": 17599}, {"name": "Tukums", "lat": 56.96764, "lng": 23.15554, "population": 16182}, {"name": "Cēsis", "lat": 57.31188, "lng": 25.27456, "population": 15020}, {"name": "Bolderaja", "lat": 57.03132, "lng": 24.05571, "population": 14771}, {"name": "Sigulda", "lat": 57.15375, "lng": 24.85953, "population": 14757}, {"name": "Mežciems", "lat": 56.96906, "lng": 24.23427, "population": 14409}, {"name": "Daugavgrīva", "lat": 57.04315, "lng": 24.03613, "population": 9952}, {"name": "Kuldīga", "lat": 56.97399, "lng": 21.95721, "population": 9863}, {"name": "Bauska", "lat": 56.4071, "lng": 24.18733, "population": 9709}, {"name": "Olaine", "lat": 56.79583, "lng": 23.93726, "population": 9654}, {"name": "Saldus", "lat": 56.66363, "lng": 22.48807, "population": 9553}, {"name": "Preiļi", "lat": 56.29444, "lng": 26.72459, "population": 9553}, {"name": "Talsi", "lat": 57.24562, "lng": 22.58137, "population": 8673}, {"name": "Dobele", "lat": 56.62372, "lng": 23.2751, "population": 8536}, {"name": "Aizpute", "lat": 56.72108, "lng": 21.60156, "population": 8083}, {"name": "Čiekurkalns", "lat": 56.98441, "lng": 24.17255, "population": 7764}, {"name": "Karosta", "lat": 56.55128, "lng": 21.01287, "population": 7500}, {"name": "Ikšķile", "lat": 56.83399, "lng": 24.49679, "population": 7448}, {"name": "Ludza", "lat": 56.53373, "lng": 27.72155, "population": 7332}, {"name": "Dreiliņi", "lat": 56.9438, "lng": 24.24253, "population": 7125}, {"name": "Krāslava", "lat": 55.89514, "lng": 27.16799, "population": 6797}, {"name": "Līvāni", "lat": 56.35431, "lng": 26.17579, "population": 6790}, {"name": "Baloži", "lat": 56.87643, "lng": 24.11825, "population": 6780}, {"name": "Ādaži", "lat": 57.0708, "lng": 24.33678, "population": 6734}, {"name": "Gulbene", "lat": 57.17767, "lng": 26.75291, "population": 6722}, {"name": "Aizkraukle", "lat": 56.60477, "lng": 25.25534, "population": 6689}, {"name": "Krustpils", "lat": 56.51068, "lng": 25.86117, "population": 6680}, {"name": "Madona", "lat": 56.85329, "lng": 26.21698, "population": 6575}, {"name": "Limbaži", "lat": 57.51287, "lng": 24.71941, "population": 6517}, {"name": "Alūksne", "lat": 57.4215, "lng": 27.04672, "population": 6188}, {"name": "Ulbroka", "lat": 56.9363, "lng": 24.30387, "population": 5893}, {"name": "Lielvārde", "lat": 56.72066, "lng": 24.80743, "population": 5873}, {"name": "Balvi", "lat": 57.1313, "lng": 27.26583, "population": 5652}, {"name": "Ķekava", "lat": 56.82662, "lng": 24.23, "population": 5446}, {"name": "Kārsava", "lat": 56.78405, "lng": 27.68829, "population": 5127}, {"name": "Smiltene", "lat": 57.42444, "lng": 25.90164, "population": 5073}, {"name": "Valka", "lat": 57.7752, "lng": 26.01013, "population": 4615}, {"name": "Aloja", "lat": 57.76723, "lng": 24.87743, "population": 4520}, {"name": "Mežaparks", "lat": 57.00008, "lng": 24.15997, "population": 4457}, {"name": "Iecava", "lat": 56.59766, "lng": 24.20763, "population": 4000}, {"name": "Grobiņa", "lat": 56.53521, "lng": 21.16782, "population": 3674}, {"name": "Baldone", "lat": 56.74451, "lng": 24.40078, "population": 3664}, {"name": "Jaunmārupe", "lat": 56.87459, "lng": 23.93869, "population": 3419}, {"name": "Ozolnieki", "lat": 56.68986, "lng": 23.7761, "population": 3400}, {"name": "Tērvete", "lat": 56.47989, "lng": 23.38895, "population": 3273}, {"name": "Kandava", "lat": 57.04087, "lng": 22.77466, "population": 3232}, {"name": "Vangaži", "lat": 57.09358, "lng": 24.54468, "population": 3192}, {"name": "Saulkrasti", "lat": 57.26224, "lng": 24.41471, "population": 3124}, {"name": "Nīca", "lat": 56.34601, "lng": 21.06401, "population": 3113}, {"name": "Piņķi", "lat": 56.94189, "lng": 23.91365, "population": 3033}, {"name": "Berģi", "lat": 56.98639, "lng": 24.29917, "population": 2950}, {"name": "Koknese", "lat": 56.65163, "lng": 25.43637, "population": 2906}, {"name": "Pļaviņas", "lat": 56.6178, "lng": 25.72552, "population": 2864}, {"name": "Brocēni", "lat": 56.6789, "lng": 22.56945, "population": 2834}, {"name": "Viļāni", "lat": 56.55253, "lng": 26.92449, "population": 2696}, {"name": "Rūjiena", "lat": 57.89752, "lng": 25.33155, "population": 2633}, {"name": "Kalnciems", "lat": 56.79908, "lng": 23.61503, "population": 2548}, {"name": "Aknīste", "lat": 56.16152, "lng": 25.74783, "population": 2546}, {"name": "Salacgrīva", "lat": 57.75312, "lng": 24.35895, "population": 2480}, {"name": "Skrīveri", "lat": 56.645, "lng": 25.12058, "population": 2424}, {"name": "Jaunciems", "lat": 57.0391, "lng": 24.17413, "population": 2339}, {"name": "Drabeši", "lat": 57.24316, "lng": 25.27748, "population": 2323}, {"name": "Ērgļi", "lat": 56.89752, "lng": 25.63668, "population": 2186}, {"name": "Jumprava", "lat": 56.67613, "lng": 24.9721, "population": 2177}, {"name": "Auce", "lat": 56.45981, "lng": 22.90169, "population": 2154}, {"name": "Vecrīga", "lat": 56.94966, "lng": 24.10418, "population": 2140}, {"name": "Priekuļi", "lat": 57.315, "lng": 25.36147, "population": 2136}, {"name": "Vecumnieki", "lat": 56.60608, "lng": 24.52232, "population": 2103}, {"name": "Tīreļi", "lat": 56.83991, "lng": 23.58902, "population": 2103}, {"name": "Ķegums", "lat": 56.7451, "lng": 24.72439, "population": 2065}, {"name": "Ilūkste", "lat": 55.97754, "lng": 26.29655, "population": 2036}, {"name": "Inčukalns", "lat": 57.09867, "lng": 24.6863, "population": 2028}, {"name": "Jaunjelgava", "lat": 56.61319, "lng": 25.08316, "population": 1938}, {"name": "Lubāna", "lat": 56.90425, "lng": 26.71606, "population": 1918}, {"name": "Zilupe", "lat": 56.38616, "lng": 28.12165, "population": 1897}, {"name": "Mērsrags", "lat": 57.33535, "lng": 23.12455, "population": 1860}, {"name": "Priekule", "lat": 56.44679, "lng": 21.58968, "population": 1843}, {"name": "Roja", "lat": 57.50146, "lng": 22.80881, "population": 1800}, {"name": "Dagda", "lat": 56.09512, "lng": 27.53723, "population": 1773}, {"name": "Skrunda", "lat": 56.67749, "lng": 22.01649, "population": 1767}, {"name": "Dundaga", "lat": 57.50498, "lng": 22.35041, "population": 1682}, {"name": "Varakļāni", "lat": 56.60826, "lng": 26.75377, "population": 1619}, {"name": "Engure", "lat": 57.16061, "lng": 23.22527, "population": 1600}, {"name": "Stende", "lat": 57.14497, "lng": 22.53482, "population": 1532}, {"name": "Ugāle", "lat": 57.27464, "lng": 22.03211, "population": 1500}, {"name": "Viesīte", "lat": 56.34751, "lng": 25.55514, "population": 1473}, {"name": "Vilce", "lat": 56.42032, "lng": 23.54781, "population": 1455}, {"name": "Sabile", "lat": 57.04577, "lng": 22.57261, "population": 1369}, {"name": "Nereta", "lat": 56.20279, "lng": 25.30752, "population": 1282}, {"name": "Ainaži", "lat": 57.86348, "lng": 24.35853, "population": 1278}, {"name": "Cesvaine", "lat": 56.96754, "lng": 26.30764, "population": 1210}, {"name": "Viļaka", "lat": 57.18458, "lng": 27.6722, "population": 1139}, {"name": "Valdemārpils", "lat": 57.37068, "lng": 22.59188, "population": 1135}, {"name": "Seda", "lat": 57.65042, "lng": 25.75089, "population": 1092}, {"name": "Mazsalaca", "lat": 57.86329, "lng": 25.05475, "population": 1092}, {"name": "Jaunaglona", "lat": 56.16066, "lng": 27.00714, "population": 1053}, {"name": "Liezēre", "lat": 57.01823, "lng": 26.06395, "population": 1041}, {"name": "Jaunpils", "lat": 56.73137, "lng": 23.01247, "population": 1029}, {"name": "Līgatne", "lat": 57.23429, "lng": 25.04059, "population": 1017}, {"name": "Strenči", "lat": 57.62574, "lng": 25.68535, "population": 973}, {"name": "Alsunga", "lat": 56.98194, "lng": 21.55938, "population": 940}, {"name": "Pāvilosta", "lat": 56.88791, "lng": 21.18593, "population": 858}, {"name": "Ape", "lat": 57.53928, "lng": 26.69291, "population": 773}, {"name": "Smārde", "lat": 56.9542, "lng": 23.33736, "population": 734}, {"name": "Vecpiebalga", "lat": 57.0609, "lng": 25.81624, "population": 596}, {"name": "Rucava", "lat": 56.16314, "lng": 21.16156, "population": 495}, {"name": "Zelmeņi", "lat": 56.45167, "lng": 23.35194, "population": 0}, {"name": "Vaiņode", "lat": 56.41848, "lng": 21.85405, "population": 0}, {"name": "Stalbe", "lat": 57.37065, "lng": 25.03106, "population": 0}, {"name": "Sala", "lat": 56.50675, "lng": 25.76423, "population": 0}, {"name": "Garkalne", "lat": 57.04486, "lng": 24.41951, "population": 0}, {"name": "Riebiņi", "lat": 56.3428, "lng": 26.79995, "population": 0}, {"name": "Rauna", "lat": 57.33173, "lng": 25.60947, "population": 0}, {"name": "Ragana", "lat": 57.18074, "lng": 24.70731, "population": 0}, {"name": "Naukšēni", "lat": 57.88349, "lng": 25.45609, "population": 0}, {"name": "Mūrmuiža", "lat": 57.47312, "lng": 25.49174, "population": 0}, {"name": "Matīši", "lat": 57.69892, "lng": 25.15886, "population": 0}, {"name": "Lieģi", "lat": 56.58173, "lng": 21.33399, "population": 0}, {"name": "Kocēni", "lat": 57.52057, "lng": 25.33821, "population": 0}]