[{"name": "Monaco", "lat": 43.73718, "lng": 7.42145, "population": 32965}, {"name": "Monte-Carlo", "lat": 43.73976, "lng": 7.42732, "population": 16012}, {"name": "La Condamine", "lat": 43.73439, "lng": 7.42024, "population": 12167}, {"name": "La Rousse", "lat": 43.74754, "lng": 7.43141, "population": 7087}, {"name": "Jardin Exotique", "lat": 43.73049, "lng": 7.41399, "population": 5117}, {"name": "Fontvieille", "lat": 43.72687, "lng": 7.41766, "population": 3602}, {"name": "Saint-Roman", "lat": 43.7489, "lng": 7.43423, "population": 3000}, {"name": "Moneghetti", "lat": 43.73679, "lng": 7.41647, "population": 3000}, {"name": "Larvotto", "lat": 43.74361, "lng": 7.43151, "population": 2026}, {"name": "Monaco-Ville", "lat": 43.73147, "lng": 7.4217, "population": 1064}]