[{"name": "Ulan Bator", "lat": 47.90771, "lng": 106.88324, "population": 844818}, {"name": "Erdenet", "lat": 49.03333, "lng": 104.08333, "population": 97814}, {"name": "Darhan", "lat": 49.48667, "lng": 105.92278, "population": 83883}, {"name": "Choibalsan", "lat": 48.07257, "lng": 114.53264, "population": 44835}, {"name": "Nalayh", "lat": 47.76667, "lng": 107.28333, "population": 39579}, {"name": "Mörön", "lat": 49.63417, "lng": 100.1625, "population": 39404}, {"name": "Bayanhongor", "lat": 46.19444, "lng": 100.71806, "population": 30931}, {"name": "Ulaangom", "lat": 49.98111, "lng": 92.06667, "population": 30092}, {"name": "Khovd", "lat": 48.00556, "lng": 91.64194, "population": 29800}, {"name": "Arvayheer", "lat": 46.26389, "lng": 102.775, "population": 29420}, {"name": "Ölgii", "lat": 48.96833, "lng": 89.9625, "population": 28400}, {"name": "Bogd", "lat": 44.67024, "lng": 102.17491, "population": 27924}, {"name": "Dalandzadgad", "lat": 43.57083, "lng": 104.425, "population": 24863}, {"name": "Sühbaatar", "lat": 50.23139, "lng": 106.20778, "population": 22741}, {"name": "Undurkhaan", "lat": 47.31944, "lng": 110.65556, "population": 22741}, {"name": "Tsetserleg", "lat": 47.475, "lng": 101.45417, "population": 21620}, {"name": "Saynshand", "lat": 44.88239, "lng": 110.11631, "population": 19891}, {"name": "Dzüünharaa", "lat": 48.85229, "lng": 106.45786, "population": 18830}, {"name": "Baruun-Urt", "lat": 46.68056, "lng": 113.27917, "population": 18190}, {"name": "Altai", "lat": 46.37222, "lng": 96.25833, "population": 17617}, {"name": "Bulgan", "lat": 48.8125, "lng": 103.53472, "population": 17348}, {"name": "Dzuunmod", "lat": 47.70694, "lng": 106.95278, "population": 16953}, {"name": "Zuunmod", "lat": 47.70693, "lng": 106.95276, "population": 16953}, {"name": "Uliastay", "lat": 47.74167, "lng": 96.84444, "population": 16265}, {"name": "Mandalgovi", "lat": 45.7625, "lng": 106.27083, "population": 12339}, {"name": "Zamiin Uud", "lat": 43.7193, "lng": 111.90777, "population": 11527}, {"name": "Choyr", "lat": 46.36111, "lng": 108.36111, "population": 10434}, {"name": "Choyr", "lat": 46.13333, "lng": 108.65, "population": 10434}, {"name": "Tosontsengel", "lat": 48.75667, "lng": 98.28389, "population": 9526}, {"name": "Kharkhorin", "lat": 47.19245, "lng": 102.81349, "population": 8977}, {"name": "Bor-Öndör", "lat": 46.26712, "lng": 109.43825, "population": 8897}, {"name": "Tsengel", "lat": 49.47833, "lng": 100.88944, "population": 8348}, {"name": "Sharïngol", "lat": 49.23733, "lng": 106.43005, "population": 7795}, {"name": "Hongor", "lat": 49.23012, "lng": 105.89674, "population": 5874}, {"name": "Hutag", "lat": 49.395, "lng": 102.69333, "population": 4591}, {"name": "Berh", "lat": 47.78333, "lng": 111.16667, "population": 3890}, {"name": "Jargalant", "lat": 49.05666, "lng": 104.4017, "population": 3417}, {"name": "Orhon", "lat": 49.8325, "lng": 106.13639, "population": 3245}, {"name": "Ergel", "lat": 43.15, "lng": 109.13333, "population": 2853}, {"name": "Turt", "lat": 51.50725, "lng": 100.66257, "population": 2140}, {"name": "Argalant", "lat": 47.94211, "lng": 105.89584, "population": 1955}, {"name": "Hongor", "lat": 45.8, "lng": 111.2, "population": 1781}, {"name": "Ulaanhudag", "lat": 47.33333, "lng": 104.5, "population": 1500}, {"name": "Altanbulag", "lat": 50.31556, "lng": 106.49861, "population": 500}, {"name": "Ereencav", "lat": 49.8807, "lng": 115.72526, "population": 23}, {"name": "Üyönch", "lat": 46.05, "lng": 92.01667, "population": 0}, {"name": "Uujim", "lat": 48.9, "lng": 89.61667, "population": 0}, {"name": "Urdgol", "lat": 47.83333, "lng": 92.65, "population": 0}, {"name": "Ulaantolgoy", "lat": 46.68333, "lng": 92.78333, "population": 0}, {"name": "Tsetserleg", "lat": 49.27128, "lng": 94.85836, "population": 0}, {"name": "Tsetsegnuur", "lat": 46.6, "lng": 93.26667, "population": 0}, {"name": "Tsenher", "lat": 46.91667, "lng": 92.11667, "population": 0}, {"name": "Tseel", "lat": 45.56667, "lng": 95.86667, "population": 0}, {"name": "Tsalgar", "lat": 49.71667, "lng": 93.26667, "population": 0}, {"name": "Tsahir", "lat": 48.07972, "lng": 98.85167, "population": 0}, {"name": "Tsagaantüngi", "lat": 49.05, "lng": 90.45, "population": 0}, {"name": "Tsagaan-Olom", "lat": 46.71327, "lng": 96.52588, "population": 0}, {"name": "Tsagaanchuluut", "lat": 47.11196, "lng": 96.67145, "population": 0}, {"name": "Tooromt", "lat": 50.46667, "lng": 93.58333, "population": 0}, {"name": "Tolbo", "lat": 48.41667, "lng": 90.28333, "population": 0}, {"name": "Tögrög", "lat": 47.42414, "lng": 92.22439, "population": 0}, {"name": "Tögrög", "lat": 45.82976, "lng": 94.81544, "population": 0}, {"name": "Tögöl", "lat": 50.68333, "lng": 99.23333, "population": 0}, {"name": "Tegsh", "lat": 48.75132, "lng": 95.99974, "population": 0}, {"name": "Taygan", "lat": 46.35356, "lng": 97.36633, "population": 0}, {"name": "Talshand", "lat": 45.33333, "lng": 97.98333, "population": 0}, {"name": "Tahilt", "lat": 45.3466, "lng": 96.6457, "population": 0}, {"name": "Shiree", "lat": 47.49714, "lng": 96.80311, "population": 0}, {"name": "Sharga", "lat": 49.8, "lng": 98.8, "population": 0}, {"name": "Sharga", "lat": 46.25, "lng": 95.26667, "population": 0}, {"name": "Sharbulag", "lat": 48.81667, "lng": 93.1, "population": 0}, {"name": "Sayn-Ust", "lat": 47.35732, "lng": 94.52448, "population": 0}, {"name": "Sangiyn Dalay", "lat": 45.13333, "lng": 97.75, "population": 0}, {"name": "Rashaant", "lat": 47.76667, "lng": 90.83333, "population": 0}, {"name": "Oygon", "lat": 48.98562, "lng": 96.54339, "population": 0}, {"name": "Övögdiy", "lat": 48.64278, "lng": 97.61861, "population": 0}, {"name": "Orgil", "lat": 48.58722, "lng": 99.35083, "population": 0}, {"name": "Nuga", "lat": 48.31667, "lng": 95.11667, "population": 0}, {"name": "Nogoonnuur", "lat": 49.61627, "lng": 90.24204, "population": 0}, {"name": "Naranbulag", "lat": 49.36667, "lng": 92.56667, "population": 0}, {"name": "Namir", "lat": 49.10641, "lng": 91.71782, "population": 0}, {"name": "Tsagaanhayrhan", "lat": 49.4, "lng": 94.23333, "population": 0}, {"name": "Mandal", "lat": 49.9, "lng": 99.43333, "population": 0}, {"name": "Jargalant", "lat": 49.30677, "lng": 95.44785, "population": 0}, {"name": "Jargalant", "lat": 47.15, "lng": 99.63333, "population": 0}, {"name": "Jargalant", "lat": 46.9267, "lng": 91.08782, "population": 0}, {"name": "Jargalant", "lat": 45.70954, "lng": 97.17596, "population": 0}, {"name": "Ider", "lat": 48.77278, "lng": 99.87389, "population": 0}, {"name": "Hunt", "lat": 47.86667, "lng": 99.46667, "population": 0}, {"name": "Hungiy", "lat": 48.51672, "lng": 94.29428, "population": 0}, {"name": "Höviyn Am", "lat": 47.23123, "lng": 98.5714, "population": 0}, {"name": "Höshööt", "lat": 48.94776, "lng": 89.14358, "population": 0}, {"name": "Holboo", "lat": 48.58876, "lng": 95.43257, "population": 0}, {"name": "Höhtolgoy", "lat": 49.28001, "lng": 90.91015, "population": 0}, {"name": "Hödrögö", "lat": 48.87284, "lng": 96.96259, "population": 0}, {"name": "Havtsal", "lat": 50.1, "lng": 91.66667, "population": 0}, {"name": "Har-Us", "lat": 49.03333, "lng": 92.03333, "population": 0}, {"name": "Har-Us", "lat": 48.48333, "lng": 91.43333, "population": 0}, {"name": "Harmod", "lat": 50.3413, "lng": 91.60641, "population": 0}, {"name": "Harhiraa", "lat": 49.77849, "lng": 91.90424, "population": 0}, {"name": "Haliun", "lat": 45.9296, "lng": 96.16239, "population": 0}, {"name": "Halban", "lat": 49.52877, "lng": 97.7409, "population": 0}, {"name": "Erdenet", "lat": 48.94877, "lng": 99.53665, "population": 0}, {"name": "Dzüyl", "lat": 46.30686, "lng": 93.90409, "population": 0}, {"name": "Dzuunmod", "lat": 48.21987, "lng": 97.3744, "population": 0}, {"name": "Dzüünhövöö", "lat": 50.60977, "lng": 92.4024, "population": 0}, {"name": "Dzür", "lat": 49.65796, "lng": 95.79323, "population": 0}, {"name": "Dzöölön", "lat": 51.10719, "lng": 99.67226, "population": 0}, {"name": "Dzel", "lat": 49.90713, "lng": 93.78582, "population": 0}, {"name": "Dzalaa", "lat": 44.53333, "lng": 99.26667, "population": 0}, {"name": "Dzag", "lat": 46.94229, "lng": 99.16689, "population": 0}, {"name": "Dzadgay", "lat": 46.21061, "lng": 99.59862, "population": 0}, {"name": "Duut", "lat": 47.51667, "lng": 91.63333, "population": 0}, {"name": "Tsagaannuur", "lat": 51.35639, "lng": 99.34444, "population": 0}, {"name": "Delgermörön", "lat": 46.40946, "lng": 98.28712, "population": 0}, {"name": "Darvi", "lat": 46.45, "lng": 94.11667, "population": 0}, {"name": "Chihertey", "lat": 48.30272, "lng": 89.51557, "population": 0}, {"name": "Chandmanĭ", "lat": 48.05, "lng": 96.25, "population": 0}, {"name": "Buyant", "lat": 48.57967, "lng": 89.5475, "population": 0}, {"name": "Buyant", "lat": 48.06667, "lng": 91.81667, "population": 0}, {"name": "Buyant", "lat": 47.21211, "lng": 97.60666, "population": 0}, {"name": "Buyant", "lat": 46.1664, "lng": 98.69173, "population": 0}, {"name": "Buyanbat", "lat": 46.97838, "lng": 95.92532, "population": 0}, {"name": "Bürenhayrhan", "lat": 46.09237, "lng": 91.54796, "population": 0}, {"name": "Darvi", "lat": 46.93678, "lng": 93.61673, "population": 0}, {"name": "Bulgan", "lat": 44.78333, "lng": 98.65, "population": 0}, {"name": "Bugat", "lat": 49.53333, "lng": 93.81667, "population": 0}, {"name": "Buga", "lat": 48.95, "lng": 89.98333, "population": 0}, {"name": "Buga", "lat": 47.65013, "lng": 95.0005, "population": 0}, {"name": "Bor-Üdzüür", "lat": 45.8, "lng": 92.28333, "population": 0}, {"name": "Bilüü", "lat": 49.04372, "lng": 89.43798, "population": 0}, {"name": "Bayshint", "lat": 49.66667, "lng": 90.28333, "population": 0}, {"name": "Bayan-Uhaa", "lat": 48.71906, "lng": 98.79181, "population": 0}, {"name": "Bayansayr", "lat": 45.55529, "lng": 99.43314, "population": 0}, {"name": "Bayan-Ovoo", "lat": 44.61667, "lng": 94.91667, "population": 0}, {"name": "Bayanhoshuu", "lat": 48.23333, "lng": 91.91667, "population": 0}, {"name": "Bayangol", "lat": 45.55655, "lng": 94.36449, "population": 0}, {"name": "Bayanbulag", "lat": 46.80981, "lng": 98.09006, "population": 0}, {"name": "Bayan", "lat": 49.43333, "lng": 99.6, "population": 0}, {"name": "Bayan", "lat": 46.9929, "lng": 95.19962, "population": 0}, {"name": "Baruunturuun", "lat": 49.65963, "lng": 94.40414, "population": 0}, {"name": "Balgatay", "lat": 46.9, "lng": 97.15, "population": 0}, {"name": "Altraga", "lat": 50.1791, "lng": 98.97205, "population": 0}, {"name": "Altay", "lat": 49.70317, "lng": 96.3592, "population": 0}, {"name": "Altanteel", "lat": 47.11044, "lng": 92.84374, "population": 0}, {"name": "Altanbulag", "lat": 49.30688, "lng": 96.34237, "population": 0}, {"name": "Altan", "lat": 48.11667, "lng": 95.71667, "population": 0}, {"name": "Aldar", "lat": 47.64226, "lng": 96.53687, "population": 0}, {"name": "Horgo", "lat": 48.16, "lng": 99.87556, "population": 0}, {"name": "Üydzen", "lat": 44.08216, "lng": 106.86985, "population": 0}, {"name": "Uubulan", "lat": 48.60885, "lng": 101.93424, "population": 0}, {"name": "Urt", "lat": 43.23245, "lng": 101.04813, "population": 0}, {"name": "Uldz", "lat": 48.69028, "lng": 111.99463, "population": 0}, {"name": "Ulaan-Uul", "lat": 46.0674, "lng": 100.81724, "population": 0}, {"name": "Ulaan-Uul", "lat": 44.33333, "lng": 111.23333, "population": 0}, {"name": "Ulaanjirem", "lat": 45.05, "lng": 105.56667, "population": 0}, {"name": "Ulaanhad", "lat": 47.94993, "lng": 105.55321, "population": 0}, {"name": "Ulaan-Ereg", "lat": 46.9, "lng": 109.75, "population": 0}, {"name": "Ulaandel", "lat": 46.36446, "lng": 113.577, "population": 0}, {"name": "Tsul-Ulaan", "lat": 47.83333, "lng": 104.5, "population": 0}, {"name": "Tsoohor", "lat": 43.30657, "lng": 104.07417, "population": 0}, {"name": "Tsomog", "lat": 45.91667, "lng": 109.06667, "population": 0}, {"name": "Tsant", "lat": 46.18333, "lng": 106.71667, "population": 0}, {"name": "Tsagaan-Ovoo", "lat": 45.96404, "lng": 101.45977, "population": 0}, {"name": "Tsagaan-Ovoo", "lat": 45.50719, "lng": 105.75594, "population": 0}, {"name": "Tsagaandörvölj", "lat": 45.79817, "lng": 109.31826, "population": 0}, {"name": "Tsagaanders", "lat": 48.05, "lng": 114.36667, "population": 0}, {"name": "Töhöm", "lat": 44.4, "lng": 108.25, "population": 0}, {"name": "Teshig", "lat": 49.94669, "lng": 102.66123, "population": 0}, {"name": "Teel", "lat": 48.04639, "lng": 100.50917, "population": 0}, {"name": "Tavin", "lat": 46.39194, "lng": 105.73517, "population": 0}, {"name": "Tavanbulag", "lat": 47.38185, "lng": 101.90815, "population": 0}, {"name": "Dashinchilling", "lat": 47.85, "lng": 104.05, "population": 0}, {"name": "Suugaant", "lat": 45.53257, "lng": 107.04546, "population": 0}, {"name": "Sümiyn Bulag", "lat": 49.13333, "lng": 114.88333, "population": 0}, {"name": "Sört", "lat": 49.31751, "lng": 104.38196, "population": 0}, {"name": "Shireet", "lat": 45.72727, "lng": 112.35563, "population": 0}, {"name": "Shiree", "lat": 45.85, "lng": 103.4, "population": 0}, {"name": "Sharhulsan", "lat": 44.65, "lng": 104.05, "population": 0}, {"name": "Sharga", "lat": 49.04192, "lng": 102.08925, "population": 0}, {"name": "Sergelen", "lat": 48.56667, "lng": 114.08333, "population": 0}, {"name": "Sergelen", "lat": 46.2, "lng": 111.81667, "population": 0}, {"name": "Senj", "lat": 44.71667, "lng": 110.76667, "population": 0}, {"name": "Selenge", "lat": 49.43333, "lng": 101.46667, "population": 0}, {"name": "Saynshand", "lat": 43.61667, "lng": 102.53333, "population": 0}, {"name": "Sangiyn Dalay", "lat": 46.65, "lng": 103.31667, "population": 0}, {"name": "Sangiyn Dalay", "lat": 46.00793, "lng": 104.94209, "population": 0}, {"name": "Sangiyn Dalay", "lat": 42.84199, "lng": 105.13796, "population": 0}, {"name": "Rashaant", "lat": 49.12667, "lng": 101.42806, "population": 0}, {"name": "Rashaant", "lat": 45.3, "lng": 106.2, "population": 0}, {"name": "Övt", "lat": 46.81667, "lng": 102.25, "population": 0}, {"name": "Ovoot", "lat": 45.30423, "lng": 113.84977, "population": 0}, {"name": "Orhontuul", "lat": 48.94972, "lng": 104.97583, "population": 0}, {"name": "Örgön", "lat": 44.73637, "lng": 100.39135, "population": 0}, {"name": "Orgil", "lat": 48.4538, "lng": 105.31769, "population": 0}, {"name": "Onon", "lat": 48.61667, "lng": 110.6, "population": 0}, {"name": "Ongon", "lat": 46.98259, "lng": 103.78389, "population": 0}, {"name": "Ongi", "lat": 46.46667, "lng": 102.28333, "population": 0}, {"name": "Ongi", "lat": 45.45, "lng": 103.9, "population": 0}, {"name": "Öndörhoshuu", "lat": 48.0, "lng": 113.93333, "population": 0}, {"name": "Öldziyt", "lat": 48.52843, "lng": 101.37394, "population": 0}, {"name": "Öldziyt", "lat": 44.68333, "lng": 109.01667, "population": 0}, {"name": "Ögöömör", "lat": 43.78336, "lng": 104.48067, "population": 0}, {"name": "Nüden", "lat": 43.58333, "lng": 110.46667, "population": 0}, {"name": "Nomgon", "lat": 49.2001, "lng": 105.66582, "population": 0}, {"name": "Nart", "lat": 49.145, "lng": 105.38833, "population": 0}, {"name": "Naranbulag", "lat": 49.2436, "lng": 113.37427, "population": 0}, {"name": "Mörön", "lat": 47.38254, "lng": 110.31647, "population": 0}, {"name": "Mönhbulag", "lat": 46.75, "lng": 103.51667, "population": 0}, {"name": "Modot", "lat": 47.75, "lng": 109.05, "population": 0}, {"name": "Mayhan", "lat": 46.09121, "lng": 103.83951, "population": 0}, {"name": "Mardzad", "lat": 45.95, "lng": 102.05, "population": 0}, {"name": "Manhan", "lat": 50.12139, "lng": 100.04306, "population": 0}, {"name": "Dzüünkharaa", "lat": 48.63333, "lng": 106.73333, "population": 0}, {"name": "Mandal", "lat": 48.63111, "lng": 103.52917, "population": 0}, {"name": "Mandal", "lat": 48.37062, "lng": 106.74076, "population": 0}, {"name": "Maanĭt", "lat": 48.29667, "lng": 103.42556, "population": 0}, {"name": "Maanĭt", "lat": 47.25, "lng": 107.53333, "population": 0}, {"name": "Lün", "lat": 47.86667, "lng": 105.25, "population": 0}, {"name": "Javhlant", "lat": 48.80189, "lng": 105.924, "population": 0}, {"name": "Javarthushuu", "lat": 49.15, "lng": 112.73333, "population": 0}, {"name": "Jargalant", "lat": 50.0675, "lng": 105.88056, "population": 0}, {"name": "Jargalant", "lat": 49.29591, "lng": 100.25711, "population": 0}, {"name": "Jargalant", "lat": 48.52056, "lng": 105.86833, "population": 0}, {"name": "Jargalant", "lat": 47.79309, "lng": 101.97235, "population": 0}, {"name": "Jargalant", "lat": 47.53333, "lng": 100.21667, "population": 0}, {"name": "Ingettolgoy", "lat": 49.46167, "lng": 103.97417, "population": 0}, {"name": "Ihsüüj", "lat": 48.2257, "lng": 106.29152, "population": 0}, {"name": "Ihbulag", "lat": 43.2, "lng": 107.2, "population": 0}, {"name": "Huurch", "lat": 50.10361, "lng": 105.42, "population": 0}, {"name": "Hüremt", "lat": 48.66306, "lng": 102.62278, "population": 0}, {"name": "Hüremt", "lat": 46.30241, "lng": 102.44554, "population": 0}, {"name": "Hulstay", "lat": 48.43333, "lng": 114.86667, "population": 0}, {"name": "Hujirt", "lat": 48.88199, "lng": 101.23953, "population": 0}, {"name": "Khujirt", "lat": 46.89704, "lng": 102.76903, "population": 0}, {"name": "Hujirt", "lat": 46.6, "lng": 104.58333, "population": 0}, {"name": "Noyon Suma", "lat": 43.17361, "lng": 102.13194, "population": 0}, {"name": "Hövsgöl", "lat": 43.60639, "lng": 109.63806, "population": 0}, {"name": "Hovd", "lat": 44.66667, "lng": 102.38333, "population": 0}, {"name": "Hotont", "lat": 47.36278, "lng": 102.46794, "population": 0}, {"name": "Höshööt", "lat": 48.1009, "lng": 102.55686, "population": 0}, {"name": "Horiult", "lat": 45.2, "lng": 100.76667, "population": 0}, {"name": "Tsagaan-Owoo", "lat": 48.4, "lng": 113.43333, "population": 0}, {"name": "Bayan Uula Sumu", "lat": 45.16667, "lng": 101.4, "population": 0}, {"name": "Hoolt", "lat": 45.53333, "lng": 102.98333, "population": 0}, {"name": "Hongor", "lat": 45.13507, "lng": 113.68378, "population": 0}, {"name": "Undur Sume", "lat": 50.47278, "lng": 100.92778, "population": 0}, {"name": "Höhbürd", "lat": 46.28575, "lng": 100.44834, "population": 0}, {"name": "Herlen", "lat": 47.3, "lng": 110.56667, "population": 0}, {"name": "Haylaastay", "lat": 46.77076, "lng": 113.88248, "population": 0}, {"name": "Havirga", "lat": 45.66667, "lng": 113.08333, "population": 0}, {"name": "Hatavch", "lat": 46.16667, "lng": 112.95, "population": 0}, {"name": "Hatansuudal", "lat": 44.54595, "lng": 100.82788, "population": 0}, {"name": "Hashaat", "lat": 45.24323, "lng": 104.80511, "population": 0}, {"name": "Haraat", "lat": 46.41667, "lng": 107.65, "population": 0}, {"name": "Hanhöhiy", "lat": 47.61667, "lng": 112.13333, "population": 0}, {"name": "Hajuu-Us", "lat": 46.04988, "lng": 107.48955, "population": 0}, {"name": "Erhet", "lat": 48.27394, "lng": 102.9812, "population": 0}, {"name": "Erdenetsogt", "lat": 46.41845, "lng": 100.82239, "population": 0}, {"name": "Erdenetsogt", "lat": 42.97238, "lng": 106.11866, "population": 0}, {"name": "Eg-Uur", "lat": 50.10944, "lng": 101.57528, "population": 0}, {"name": "Enhtal", "lat": 49.2475, "lng": 105.37361, "population": 0}, {"name": "Eg", "lat": 48.68333, "lng": 110.18333, "population": 0}, {"name": "Dzüünbulag", "lat": 46.95343, "lng": 115.29396, "population": 0}, {"name": "Dzüünbulag", "lat": 46.38333, "lng": 112.18333, "population": 0}, {"name": "Dzogsool", "lat": 46.8, "lng": 107.15, "population": 0}, {"name": "Dzelter", "lat": 50.31556, "lng": 105.04583, "population": 0}, {"name": "Dzegstey", "lat": 47.66805, "lng": 102.54999, "population": 0}, {"name": "Dzaanhoshuu", "lat": 47.49331, "lng": 100.87801, "population": 0}, {"name": "Dund-Urt", "lat": 48.03791, "lng": 105.9219, "population": 0}, {"name": "Dundbürd", "lat": 47.9459, "lng": 111.49784, "population": 0}, {"name": "Doloon", "lat": 44.42446, "lng": 105.32078, "population": 0}, {"name": "Delgerhaan", "lat": 50.08578, "lng": 106.18578, "population": 0}, {"name": "Dashbalbar", "lat": 49.54571, "lng": 114.40287, "population": 0}, {"name": "Darhan", "lat": 48.25463, "lng": 103.88054, "population": 0}, {"name": "Darhan", "lat": 46.61667, "lng": 109.41667, "population": 0}, {"name": "Dalay", "lat": 43.46787, "lng": 103.51284, "population": 0}, {"name": "Chonogol", "lat": 45.9, "lng": 115.36667, "population": 0}, {"name": "Chandmanĭ", "lat": 45.53333, "lng": 110.46667, "population": 0}, {"name": "Buyant", "lat": 46.25, "lng": 110.83333, "population": 0}, {"name": "Burgaltay", "lat": 49.265, "lng": 104.74348, "population": 0}, {"name": "Bumbat", "lat": 46.49674, "lng": 104.11777, "population": 0}, {"name": "Bulgan", "lat": 50.54194, "lng": 101.51417, "population": 0}, {"name": "Bulgan", "lat": 44.09745, "lng": 103.54288, "population": 0}, {"name": "Bulagtay", "lat": 49.77594, "lng": 107.51616, "population": 0}, {"name": "Bulagiyn Denj", "lat": 47.31869, "lng": 101.11576, "population": 0}, {"name": "Bulag", "lat": 49.85946, "lng": 100.62687, "population": 0}, {"name": "Bulag", "lat": 48.2, "lng": 108.48333, "population": 0}, {"name": "Bugat", "lat": 49.06667, "lng": 103.66583, "population": 0}, {"name": "Bugant", "lat": 49.58333, "lng": 106.85, "population": 0}, {"name": "Bornuur", "lat": 48.46667, "lng": 106.26667, "population": 0}, {"name": "Böhöt", "lat": 45.23223, "lng": 108.28245, "population": 0}, {"name": "Bodĭ", "lat": 45.41171, "lng": 100.574, "population": 0}, {"name": "Bayshint", "lat": 47.41667, "lng": 104.81667, "population": 0}, {"name": "Bayasgalant", "lat": 47.17945, "lng": 108.25996, "population": 0}, {"name": "Bayasgalant", "lat": 46.98333, "lng": 112.05, "population": 0}, {"name": "Bayan-Ulaan", "lat": 46.52178, "lng": 102.59428, "population": 0}, {"name": "Bayantsagaan", "lat": 48.73167, "lng": 100.76, "population": 0}, {"name": "Bayantöhöm", "lat": 46.91667, "lng": 105.05, "population": 0}, {"name": "Bayan-Ovoo", "lat": 49.01667, "lng": 111.63333, "population": 0}, {"name": "Javhlant", "lat": 47.78333, "lng": 112.11667, "population": 0}, {"name": "Bayanhoshuu", "lat": 46.70197, "lng": 100.1433, "population": 0}, {"name": "Bayandelger", "lat": 47.72732, "lng": 108.11062, "population": 0}, {"name": "Bayanbulag", "lat": 47.86667, "lng": 109.91667, "population": 0}, {"name": "Bayanbaraat", "lat": 46.86667, "lng": 106.25, "population": 0}, {"name": "Bayan", "lat": 48.55, "lng": 111.08333, "population": 0}, {"name": "Bayan", "lat": 47.91667, "lng": 112.95, "population": 0}, {"name": "Bayan", "lat": 47.45, "lng": 103.15, "population": 0}, {"name": "Bayan", "lat": 47.16667, "lng": 110.81667, "population": 0}, {"name": "Bayan", "lat": 46.25, "lng": 110.16667, "population": 0}, {"name": "Bat-Öldziyt", "lat": 48.21552, "lng": 104.77318, "population": 0}, {"name": "Baruunsuu", "lat": 43.65595, "lng": 105.75577, "population": 0}, {"name": "Hushaat", "lat": 49.5, "lng": 105.61667, "population": 0}, {"name": "Badrah", "lat": 49.61833, "lng": 101.98972, "population": 0}, {"name": "Avraga", "lat": 47.17851, "lng": 109.18968, "population": 0}, {"name": "Avdzaga", "lat": 47.63333, "lng": 103.51667, "population": 0}, {"name": "Arhust", "lat": 47.79425, "lng": 107.88334, "population": 0}, {"name": "Arguut", "lat": 45.46278, "lng": 102.42056, "population": 0}, {"name": "Argatay", "lat": 45.76667, "lng": 107.98333, "population": 0}, {"name": "Ar-Asgat", "lat": 48.26222, "lng": 105.41194, "population": 0}, {"name": "Amardalay", "lat": 46.12572, "lng": 106.37426, "population": 0}, {"name": "Altan-Ovoo", "lat": 47.44742, "lng": 101.75503, "population": 0}, {"name": "Altanbulag", "lat": 47.7, "lng": 106.4, "population": 0}, {"name": "Asgat", "lat": 49.51082, "lng": 96.79944, "population": 0}, {"name": "Ulaanshiveet", "lat": 47.28948, "lng": 103.85659, "population": 0}, {"name": "Sümber", "lat": 47.65858, "lng": 118.51014, "population": 0}, {"name": "Bayantal", "lat": 46.56221, "lng": 108.30439, "population": 0}, {"name": "Shiveegovĭ", "lat": 46.10558, "lng": 108.62061, "population": 0}, {"name": "Jargalant", "lat": 49.12915, "lng": 104.40803, "population": 0}, {"name": "Höshigiyn-Ar", "lat": 47.55717, "lng": 106.96333, "population": 0}]