[{"name": "Fort-de-France", "lat": 14.60365, "lng": -61.07418, "population": 89995}, {"name": "Le Lamentin", "lat": 14.61341, "lng": -60.99964, "population": 40581}, {"name": "Le Robert", "lat": 14.67751, "lng": -60.94228, "population": 23814}, {"name": "Sainte-Marie", "lat": 14.78352, "lng": -60.99227, "population": 20380}, {"name": "Le François", "lat": 14.61513, "lng": -60.90311, "population": 19682}, {"name": "Ducos", "lat": 14.57529, "lng": -60.97453, "population": 17394}, {"name": "Saint-Joseph", "lat": 14.67099, "lng": -61.03905, "population": 16974}, {"name": "La Trinité", "lat": 14.73807, "lng": -60.96319, "population": 15040}, {"name": "Rivière-Pilote", "lat": 14.48738, "lng": -60.90257, "population": 13359}, {"name": "Le Gros-Morne", "lat": 14.7, "lng": -61.0, "population": 11025}, {"name": "Sainte-Luce", "lat": 14.46848, "lng": -60.92138, "population": 9196}, {"name": "Saint-Esprit", "lat": 14.55, "lng": -60.93333, "population": 8508}, {"name": "Le Lorrain", "lat": 14.83257, "lng": -61.05553, "population": 8341}, {"name": "Le Marin", "lat": 14.47158, "lng": -60.86989, "population": 7943}, {"name": "Le Vauclin", "lat": 14.5454, "lng": -60.83831, "population": 7812}, {"name": "Les Trois-Îlets", "lat": 14.53912, "lng": -61.03354, "population": 5657}, {"name": "Le Morne-Rouge", "lat": 14.7761, "lng": -61.13564, "population": 5469}, {"name": "Saint-Pierre", "lat": 14.74309, "lng": -61.17541, "population": 4125}, {"name": "Basse-Pointe", "lat": 14.86935, "lng": -61.11521, "population": 4037}, {"name": "L'Ajoupa-Bouillon", "lat": 14.82094, "lng": -61.11749, "population": 1815}]