[{"name": "Nouakchott", "lat": 18.08581, "lng": -15.9785, "population": 1184530}, {"name": "Nouadhibou", "lat": 20.94188, "lng": -17.03842, "population": 146048}, {"name": "Kiffa", "lat": 16.62073, "lng": -11.40208, "population": 62051}, {"name": "Dar Naim", "lat": 18.10808, "lng": -15.92666, "population": 61089}, {"name": "Néma", "lat": 16.61702, "lng": -7.25649, "population": 60000}, {"name": "Mbera", "lat": 15.85615, "lng": -5.79067, "population": 58985}, {"name": "Ksar", "lat": 18.0995, "lng": -15.9574, "population": 57758}, {"name": "Kaédi", "lat": 16.15071, "lng": -13.50582, "population": 56283}, {"name": "Zouérat", "lat": 22.73542, "lng": -12.47134, "population": 55183}, {"name": "Tevragh Zeina", "lat": 18.09894, "lng": -15.98848, "population": 48093}, {"name": "Bougadoum", "lat": 15.86702, "lng": -7.36924, "population": 40341}, {"name": "Sélibaby", "lat": 15.15846, "lng": -12.1843, "population": 32653}, {"name": "Atar", "lat": 20.51875, "lng": -13.04637, "population": 31133}, {"name": "Ayoun El Atrous", "lat": 16.6614, "lng": -9.6149, "population": 28174}, {"name": "Guerou", "lat": 17.07754, "lng": -12.03869, "population": 27590}, {"name": "Boutilimitt", "lat": 17.54584, "lng": -14.69777, "population": 27170}, {"name": "El ’Ayoûn", "lat": 15.55791, "lng": -11.18004, "population": 22896}, {"name": "Tékane", "lat": 16.60175, "lng": -15.34866, "population": 22041}, {"name": "Bogué", "lat": 16.59153, "lng": -14.26309, "population": 20291}, {"name": "Aleg", "lat": 17.05314, "lng": -13.91312, "population": 19183}, {"name": "Tembedgha", "lat": 16.24137, "lng": -8.17321, "population": 17465}, {"name": "Rosso", "lat": 16.51378, "lng": -15.80503, "population": 15870}, {"name": "Akjoujt", "lat": 19.74163, "lng": -14.38534, "population": 15851}, {"name": "Ṭinṭâne", "lat": 16.3946, "lng": -10.1737, "population": 15684}, {"name": "Elghabra", "lat": 16.64713, "lng": -12.67113, "population": 15480}, {"name": "Magṭa‘ Laḥjar", "lat": 17.506, "lng": -13.0927, "population": 15446}, {"name": "Bouly", "lat": 15.31753, "lng": -11.80095, "population": 14906}, {"name": "Maghama", "lat": 15.51014, "lng": -12.85096, "population": 13898}, {"name": "Tidjikja", "lat": 18.55644, "lng": -11.42715, "population": 13479}, {"name": "Dar el Barka", "lat": 16.68294, "lng": -14.70031, "population": 12353}, {"name": "Basseknou", "lat": 15.86652, "lng": -5.94604, "population": 12232}, {"name": "Oualata", "lat": 17.29784, "lng": -7.02346, "population": 11779}, {"name": "Lexeiba Un", "lat": 16.22506, "lng": -13.14089, "population": 11417}, {"name": "Bagodine", "lat": 16.24013, "lng": -13.72224, "population": 11263}, {"name": "Ganki Un", "lat": 16.21413, "lng": -13.24037, "population": 11250}, {"name": "Vassala", "lat": 15.5571, "lng": -5.516, "population": 10982}, {"name": "R'kiz", "lat": 16.9151, "lng": -15.23701, "population": 10688}, {"name": "Kobenni", "lat": 15.81722, "lng": -9.36528, "population": 8979}, {"name": "Bababé", "lat": 16.3371, "lng": -13.95287, "population": 8869}, {"name": "Fondé Elimane", "lat": 16.31684, "lng": -13.91911, "population": 8500}, {"name": "Ndiago", "lat": 16.16763, "lng": -16.51026, "population": 8440}, {"name": "Sagné", "lat": 15.20457, "lng": -12.78979, "population": 8430}, {"name": "Bouhdida", "lat": 16.92809, "lng": -13.99918, "population": 8316}, {"name": "Djiguenni", "lat": 15.73208, "lng": -8.66561, "population": 8293}, {"name": "Kankossa", "lat": 15.93891, "lng": -11.52701, "population": 8122}, {"name": "Wali Djantang", "lat": 15.33255, "lng": -12.87464, "population": 7716}, {"name": "Djowol", "lat": 16.06393, "lng": -13.37292, "population": 7582}, {"name": "Bousteila", "lat": 15.5754, "lng": -8.08563, "population": 7520}, {"name": "El Ghayra", "lat": 17.19778, "lng": -12.24, "population": 7240}, {"name": "Hassi Chegar", "lat": 15.36628, "lng": -12.08663, "population": 6960}, {"name": "Bouanzé", "lat": 15.81852, "lng": -12.23218, "population": 6955}, {"name": "Mederdra", "lat": 16.92256, "lng": -15.65646, "population": 6858}, {"name": "Mboutt", "lat": 16.02322, "lng": -12.57872, "population": 6733}, {"name": "Diaguily", "lat": 14.84796, "lng": -12.39271, "population": 6278}, {"name": "Diogountourou", "lat": 14.77, "lng": -12.2509, "population": 6226}, {"name": "Amourj", "lat": 16.10916, "lng": -7.21387, "population": 5509}, {"name": "Ouad Naga", "lat": 17.96636, "lng": -15.51802, "population": 5165}, {"name": "Ould Yenjé", "lat": 15.54038, "lng": -11.71467, "population": 5057}, {"name": "Çangarâfa", "lat": 17.592, "lng": -12.8365, "population": 4786}, {"name": "Chingueṭṭi", "lat": 20.463, "lng": -12.362, "population": 4711}, {"name": "Ouâd Nâga", "lat": 17.9525, "lng": -15.69528, "population": 4179}, {"name": "Nouâmghâr", "lat": 19.35644, "lng": -16.51389, "population": 4151}, {"name": "Fderîck", "lat": 22.678, "lng": -12.711, "population": 4073}, {"name": "Mbagne", "lat": 16.14497, "lng": -13.79258, "population": 4004}, {"name": "Nbeika", "lat": 17.98083, "lng": -12.25331, "population": 4000}, {"name": "El Medda", "lat": 19.91667, "lng": -13.31667, "population": 3900}, {"name": "Woumpou", "lat": 15.1308, "lng": -12.7253, "population": 3746}, {"name": "Tachott Brana", "lat": 15.43263, "lng": -12.26792, "population": 3735}, {"name": "Barkéwol", "lat": 16.64039, "lng": -12.49849, "population": 3622}, {"name": "Oujeft", "lat": 19.96222, "lng": -13.05944, "population": 3134}, {"name": "Tamchekett", "lat": 17.24475, "lng": -10.66983, "population": 3131}, {"name": "Taguilalett", "lat": 17.04045, "lng": -15.52049, "population": 2726}, {"name": "KeurMassène", "lat": 16.53848, "lng": -16.21491, "population": 2532}, {"name": "Mônguel", "lat": 16.42361, "lng": -13.14087, "population": 2417}, {"name": "Bir Mogran", "lat": 25.22967, "lng": -11.57912, "population": 1993}, {"name": "Boulenouar", "lat": 21.28965, "lng": -16.52404, "population": 1901}, {"name": "Moudjeria", "lat": 17.87655, "lng": -12.33346, "population": 1899}, {"name": "El Ghediya", "lat": 17.8283, "lng": -11.57889, "population": 1709}, {"name": "Ouadane", "lat": 20.92767, "lng": -11.62138, "population": 1638}, {"name": "Bîr Mogreïn", "lat": 25.22125, "lng": -11.57928, "population": 1613}, {"name": "Tîchît", "lat": 18.44134, "lng": -9.49394, "population": 1580}, {"name": "Hamoud", "lat": 15.64004, "lng": -11.51864, "population": 1547}, {"name": "’Elb el Jmel", "lat": 17.0105, "lng": -13.97102, "population": 1500}, {"name": "Choum", "lat": 21.29957, "lng": -13.06684, "population": 1153}, {"name": "Arafat", "lat": 18.04639, "lng": -15.97194, "population": 0}]