[{"name": "Mexico City", "lat": 19.42847, "lng": -99.12766, "population": 12294193}, {"name": "Tijuana", "lat": 32.5027, "lng": -117.00371, "population": 1922523}, {"name": "Iztapalapa", "lat": 19.35529, "lng": -99.06224, "population": 1835486}, {"name": "Puebla", "lat": 19.04778, "lng": -98.20723, "population": 1692181}, {"name": "Ecatepec de Morelos", "lat": 19.60492, "lng": -99.06064, "population": 1645352}, {"name": "Santiago de Querétaro", "lat": 20.58806, "lng": -100.38806, "population": 1594212}, {"name": "León de los Aldama", "lat": 21.12908, "lng": -101.67374, "population": 1579803}, {"name": "Ciudad Juárez", "lat": 31.72024, "lng": -106.46084, "population": 1512450}, {"name": "Zapopan", "lat": 20.72111, "lng": -103.38742, "population": 1476491}, {"name": "Guadalajara", "lat": 20.67738, "lng": -103.34749, "population": 1385629}, {"name": "Mérida", "lat": 20.967, "lng": -89.62318, "population": 1201000}, {"name": "Gustavo Adolfo Madero", "lat": 19.49392, "lng": -99.11075, "population": 1185772}, {"name": "Monterrey", "lat": 25.68435, "lng": -100.31721, "population": 1135512}, {"name": "Ciudad Nezahualcoyotl", "lat": 19.40061, "lng": -99.01483, "population": 1077208}, {"name": "Mexicali", "lat": 32.62781, "lng": -115.45446, "population": 1032686}, {"name": "Chihuahua", "lat": 28.63528, "lng": -106.08889, "population": 925762}, {"name": "Cancún", "lat": 21.17429, "lng": -86.84656, "population": 888797}, {"name": "Naucalpan de Juárez", "lat": 19.47851, "lng": -99.23963, "population": 834434}, {"name": "Hermosillo", "lat": 29.08874, "lng": -110.96677, "population": 812229}, {"name": "Culiacán", "lat": 24.80209, "lng": -107.39421, "population": 808416}, {"name": "Morelia", "lat": 19.70078, "lng": -101.18443, "population": 743275}, {"name": "Torreón", "lat": 25.54389, "lng": -103.41898, "population": 735340}, {"name": "Álvaro Obregón", "lat": 19.35867, "lng": -99.20329, "population": 726664}, {"name": "San Luis Potosí", "lat": 22.15234, "lng": -100.97135, "population": 722772}, {"name": "Aguascalientes", "lat": 21.88262, "lng": -102.2843, "population": 722250}, {"name": "Saltillo", "lat": 25.42595, "lng": -100.97963, "population": 709671}, {"name": "Guadalupe", "lat": 25.67678, "lng": -100.25646, "population": 673616}, {"name": "Acapulco de Juárez", "lat": 16.84942, "lng": -99.90891, "population": 658609}, {"name": "Tlalnepantla", "lat": 19.54005, "lng": -99.19538, "population": 653410}, {"name": "Tlaquepaque", "lat": 20.64121, "lng": -103.29342, "population": 650123}, {"name": "Coyoacán", "lat": 19.3467, "lng": -99.16174, "population": 614447}, {"name": "Tuxtla", "lat": 16.75357, "lng": -93.11578, "population": 604147}, {"name": "Reynosa", "lat": 26.08005, "lng": -98.28456, "population": 589466}, {"name": "Tlalpan", "lat": 19.29513, "lng": -99.16206, "population": 574577}, {"name": "Cuautitlán Izcalli", "lat": 19.64388, "lng": -99.21598, "population": 555163}, {"name": "Cuauhtémoc", "lat": 19.44506, "lng": -99.14612, "population": 531831}, {"name": "Victoria de Durango", "lat": 24.02032, "lng": -104.65756, "population": 518709}, {"name": "Heroica Matamoros", "lat": 25.87972, "lng": -97.50417, "population": 510739}, {"name": "Toluca", "lat": 19.28786, "lng": -99.65324, "population": 489333}, {"name": "Ciudad López Mateos", "lat": 19.55793, "lng": -99.25675, "population": 489160}, {"name": "Ciudad Apodaca", "lat": 25.78195, "lng": -100.18839, "population": 467157}, {"name": "Ciudad General Escobedo", "lat": 25.79698, "lng": -100.31791, "population": 454967}, {"name": "Ensenada", "lat": 31.87149, "lng": -116.60071, "population": 443807}, {"name": "Xochimilco", "lat": 19.25465, "lng": -99.10356, "population": 442178}, {"name": "Venustiano Carranza", "lat": 19.44361, "lng": -99.10499, "population": 430978}, {"name": "Veracruz", "lat": 19.18095, "lng": -96.1429, "population": 428323}, {"name": "Xalapa de Enríquez", "lat": 19.53124, "lng": -96.91589, "population": 424755}, {"name": "Nuevo Laredo", "lat": 27.47629, "lng": -99.51639, "population": 416055}, {"name": "Azcapotzalco", "lat": 19.48698, "lng": -99.18594, "population": 414711}, {"name": "San Nicolás de los Garza", "lat": 25.74167, "lng": -100.30222, "population": 412199}, {"name": "Tonalá", "lat": 20.62263, "lng": -103.24168, "population": 408759}, {"name": "Ojo de Agua", "lat": 19.68028, "lng": -99.01, "population": 386290}, {"name": "Benito Juárez", "lat": 19.3727, "lng": -99.1564, "population": 385439}, {"name": "Xico", "lat": 19.27032, "lng": -98.95088, "population": 384327}, {"name": "Iztacalco", "lat": 19.39528, "lng": -99.09778, "population": 384326}, {"name": "Mazatlán", "lat": 23.22163, "lng": -106.41885, "population": 381583}, {"name": "Irapuato", "lat": 20.67675, "lng": -101.35628, "population": 380941}, {"name": "Miguel Hidalgo", "lat": 19.43411, "lng": -99.20024, "population": 372889}, {"name": "Benito Juarez", "lat": 19.3984, "lng": -99.15766, "population": 355017}, {"name": "Tapachula", "lat": 14.90541, "lng": -92.25891, "population": 353706}, {"name": "Villahermosa", "lat": 17.98625, "lng": -92.93928, "population": 353577}, {"name": "Celaya", "lat": 20.52353, "lng": -100.8157, "population": 340387}, {"name": "Cuernavaca", "lat": 18.9261, "lng": -99.23075, "population": 338650}, {"name": "Tepic", "lat": 21.50733, "lng": -104.89332, "population": 332863}, {"name": "Ciudad Victoria", "lat": 23.74061, "lng": -99.14364, "population": 332100}, {"name": "Soledad de Graciano Sánchez", "lat": 22.18912, "lng": -100.93792, "population": 332072}, {"name": "Ciudad Obregón", "lat": 27.48642, "lng": -109.94079, "population": 329404}, {"name": "Ixtapaluca", "lat": 19.31556, "lng": -98.88284, "population": 322271}, {"name": "Coatzacoalcos", "lat": 18.14905, "lng": -94.4447, "population": 310698}, {"name": "Tampico", "lat": 22.28519, "lng": -97.87777, "population": 309003}, {"name": "Ciudad Benito Juárez", "lat": 25.64724, "lng": -100.09582, "population": 308285}, {"name": "Tláhuac", "lat": 19.28689, "lng": -99.00507, "population": 305076}, {"name": "Santa Catarina", "lat": 25.67325, "lng": -100.45813, "population": 304052}, {"name": "Uruapan", "lat": 19.41677, "lng": -102.05842, "population": 299523}, {"name": "Cholula", "lat": 19.06406, "lng": -98.30352, "population": 292881}, {"name": "Nicolás Romero", "lat": 19.64177, "lng": -99.3068, "population": 281799}, {"name": "Zumpango", "lat": 19.7967, "lng": -99.09946, "population": 280455}, {"name": "Coacalco", "lat": 19.62923, "lng": -99.10689, "population": 277959}, {"name": "Nogales", "lat": 31.30862, "lng": -110.94217, "population": 264782}, {"name": "Gómez Palacio", "lat": 25.56871, "lng": -103.4996, "population": 257352}, {"name": "Los Mochis", "lat": 25.79097, "lng": -108.99825, "population": 256613}, {"name": "Pachuca de Soto", "lat": 20.11697, "lng": -98.73329, "population": 256584}, {"name": "Oaxaca", "lat": 17.06025, "lng": -96.72544, "population": 255029}, {"name": "La Paz", "lat": 24.14231, "lng": -110.31316, "population": 250141}, {"name": "Colonia del Valle", "lat": 19.38611, "lng": -99.16204, "population": 250000}, {"name": "Tehuacán", "lat": 18.46422, "lng": -97.39735, "population": 248716}, {"name": "Magdalena Contreras", "lat": 19.33212, "lng": -99.21118, "population": 238431}, {"name": "Puerto Vallarta", "lat": 20.617, "lng": -105.23018, "population": 224166}, {"name": "Campeche", "lat": 19.84073, "lng": -90.51676, "population": 220389}, {"name": "Buenavista", "lat": 19.60833, "lng": -99.16944, "population": 216776}, {"name": "Ciudad Acuña", "lat": 29.32322, "lng": -100.95217, "population": 216099}, {"name": "San Cristóbal de las Casas", "lat": 16.73006, "lng": -92.63825, "population": 215874}, {"name": "Jiutepec", "lat": 18.88139, "lng": -99.17778, "population": 215357}, {"name": "Monclova", "lat": 26.90687, "lng": -101.42056, "population": 215271}, {"name": "Córdoba", "lat": 18.8842, "lng": -96.92559, "population": 204721}, {"name": "Cabo San Lucas", "lat": 22.89088, "lng": -109.91238, "population": 202694}, {"name": "Ciudad Madero", "lat": 22.2475, "lng": -97.83665, "population": 197216}, {"name": "Ciudad Lázaro Cárdenas", "lat": 17.96256, "lng": -102.19887, "population": 196003}, {"name": "Ciudad del Carmen", "lat": 18.64592, "lng": -91.82991, "population": 191238}, {"name": "Chilpancingo", "lat": 17.55228, "lng": -99.50124, "population": 187251}, {"name": "Zamora de Hidalgo", "lat": 19.98404, "lng": -102.28634, "population": 186102}, {"name": "Poza Rica de Hidalgo", "lat": 20.53315, "lng": -97.45946, "population": 185242}, {"name": "Cuautitlán", "lat": 19.67052, "lng": -99.17989, "population": 178847}, {"name": "San Luis Río Colorado", "lat": 32.4555, "lng": -114.77037, "population": 176685}, {"name": "San Miguel de Allende", "lat": 20.91528, "lng": -100.74389, "population": 174615}, {"name": "Chicoloapan", "lat": 19.41687, "lng": -98.90202, "population": 172919}, {"name": "Guadalupe", "lat": 22.74678, "lng": -102.5188, "population": 170029}, {"name": "Chetumal", "lat": 18.51957, "lng": -88.30397, "population": 169028}, {"name": "Chalco", "lat": 19.26174, "lng": -98.89775, "population": 168720}, {"name": "Cuauhtémoc", "lat": 28.4063, "lng": -106.86667, "population": 168482}, {"name": "Comitán", "lat": 16.24004, "lng": -92.13668, "population": 166178}, {"name": "Salamanca", "lat": 20.57196, "lng": -101.19154, "population": 160682}, {"name": "Delegación Cuajimalpa de Morelos", "lat": 19.3692, "lng": -99.29089, "population": 160491}, {"name": "Manzanillo", "lat": 19.11695, "lng": -104.34214, "population": 159853}, {"name": "Tuxtepec", "lat": 18.0883, "lng": -96.12535, "population": 159452}, {"name": "Cuautla", "lat": 18.8106, "lng": -98.93525, "population": 157336}, {"name": "San Pablo de las Salinas", "lat": 19.66658, "lng": -99.09477, "population": 156191}, {"name": "San Martin Texmelucan de Labastida", "lat": 19.28431, "lng": -98.43885, "population": 155738}, {"name": "Piedras Negras", "lat": 28.70007, "lng": -100.52353, "population": 150178}, {"name": "Playa del Carmen", "lat": 20.6274, "lng": -87.07987, "population": 149923}, {"name": "Ciudad Delicias", "lat": 28.19013, "lng": -105.47012, "population": 148045}, {"name": "Colima", "lat": 19.24473, "lng": -103.7127, "population": 146965}, {"name": "Fresnillo", "lat": 23.1749, "lng": -102.86785, "population": 143281}, {"name": "San Juan del Río", "lat": 20.38897, "lng": -99.99637, "population": 138878}, {"name": "San José del Cabo", "lat": 23.05406, "lng": -109.70367, "population": 136285}, {"name": "San Pedro Garza García", "lat": 25.6604, "lng": -100.40651, "population": 132128}, {"name": "Zacatecas", "lat": 22.76843, "lng": -102.58141, "population": 129011}, {"name": "Huixquilucan", "lat": 19.35985, "lng": -99.35016, "population": 124846}, {"name": "Ciudad Valles", "lat": 21.99631, "lng": -99.01093, "population": 124644}, {"name": "Orizaba", "lat": 18.85195, "lng": -97.09957, "population": 123182}, {"name": "Miramar", "lat": 22.36094, "lng": -97.89997, "population": 118614}, {"name": "Iguala de la Independencia", "lat": 18.34536, "lng": -99.5413, "population": 118468}, {"name": "Ciudad de Villa de Álvarez", "lat": 19.26722, "lng": -103.73778, "population": 117600}, {"name": "Heroica Guaymas", "lat": 27.91989, "lng": -110.89888, "population": 117253}, {"name": "Navojoa", "lat": 27.07057, "lng": -109.44345, "population": 113836}, {"name": "Minatitlán", "lat": 18.00011, "lng": -94.5569, "population": 112046}, {"name": "Ciudad Guzmán", "lat": 19.70413, "lng": -103.46383, "population": 111975}, {"name": "Yautepec", "lat": 18.88188, "lng": -99.06715, "population": 105780}, {"name": "Texcoco de Mora", "lat": 19.51194, "lng": -98.88293, "population": 105165}, {"name": "Parral", "lat": 26.93022, "lng": -105.6664, "population": 104836}, {"name": "Teziutlan", "lat": 19.8173, "lng": -97.35992, "population": 103583}, {"name": "Tepexpan", "lat": 19.61387, "lng": -98.9364, "population": 102667}, {"name": "Tulancingo", "lat": 20.08355, "lng": -98.36288, "population": 102406}, {"name": "Apatzingán", "lat": 19.08864, "lng": -102.35704, "population": 102362}, {"name": "Rosarito", "lat": 32.36044, "lng": -117.04645, "population": 100660}, {"name": "Colonia Lindavista", "lat": 19.49156, "lng": -99.12475, "population": 100000}, {"name": "Lagos de Moreno", "lat": 21.35875, "lng": -101.93311, "population": 98206}, {"name": "Temixco", "lat": 18.85254, "lng": -99.22537, "population": 97788}, {"name": "Ciudad Río Bravo", "lat": 25.98507, "lng": -98.08964, "population": 95647}, {"name": "Amozoc de Mota", "lat": 19.04611, "lng": -98.045, "population": 95322}, {"name": "García", "lat": 25.81201, "lng": -100.59874, "population": 93641}, {"name": "Tepatitlán de Morelos", "lat": 20.81692, "lng": -102.76347, "population": 91959}, {"name": "Cárdenas", "lat": 18.00135, "lng": -93.37559, "population": 91558}, {"name": "Heroica Ciudad de Juchitán de Zaragoza", "lat": 16.43375, "lng": -95.02181, "population": 88280}, {"name": "Hacienda Santa Fe", "lat": 20.51806, "lng": -103.38056, "population": 86935}, {"name": "Atlixco", "lat": 18.90815, "lng": -98.43613, "population": 86690}, {"name": "Paraiso", "lat": 18.40116, "lng": -93.21406, "population": 86632}, {"name": "Tecomán", "lat": 18.91614, "lng": -103.87713, "population": 85689}, {"name": "Los Reyes Acaquilpan", "lat": 19.36357, "lng": -98.97707, "population": 85359}, {"name": "Ciudad Mante", "lat": 22.74277, "lng": -98.97172, "population": 84787}, {"name": "Túxpam de Rodríguez Cano", "lat": 20.95777, "lng": -97.40805, "population": 84750}, {"name": "Tlaxcala", "lat": 19.31777, "lng": -98.23846, "population": 84670}, {"name": "Salina Cruz", "lat": 16.17535, "lng": -95.19424, "population": 84438}, {"name": "Heróica Zitácuaro", "lat": 19.43657, "lng": -100.35639, "population": 84307}, {"name": "Ocotlán", "lat": 20.35116, "lng": -102.76832, "population": 83769}, {"name": "La Piedad de Cabadas", "lat": 20.34107, "lng": -102.02251, "population": 83323}, {"name": "Tepeji del Río de Ocampo", "lat": 19.90481, "lng": -99.34379, "population": 80612}, {"name": "Lerdo", "lat": 25.53611, "lng": -103.52485, "population": 79669}, {"name": "Matehuala", "lat": 23.64824, "lng": -100.64334, "population": 77328}, {"name": "Agua Prieta", "lat": 31.3224, "lng": -109.54251, "population": 77254}, {"name": "Kanasín", "lat": 20.93485, "lng": -89.55822, "population": 77240}, {"name": "Cozumel", "lat": 20.50038, "lng": -86.94272, "population": 77236}, {"name": "Silao", "lat": 20.94356, "lng": -101.42703, "population": 74242}, {"name": "Fuentes del Valle", "lat": 19.6325, "lng": -99.13861, "population": 74087}, {"name": "Guamúchil", "lat": 25.4587, "lng": -108.07732, "population": 72500}, {"name": "Guanajuato", "lat": 21.01858, "lng": -101.2591, "population": 72237}, {"name": "El Pueblito", "lat": 20.54006, "lng": -100.44093, "population": 71254}, {"name": "Guasave", "lat": 25.56792, "lng": -108.46949, "population": 71196}, {"name": "San Francisco del Rincón", "lat": 21.01843, "lng": -101.85515, "population": 71139}, {"name": "Santa María Chimalhuacán", "lat": 19.42155, "lng": -98.95038, "population": 70519}, {"name": "Linares", "lat": 24.85798, "lng": -99.56768, "population": 70378}, {"name": "Frontera", "lat": 26.92814, "lng": -101.45212, "population": 69462}, {"name": "Cadereyta Jiménez", "lat": 25.58896, "lng": -100.00156, "population": 68111}, {"name": "Valle de Santiago", "lat": 20.3914, "lng": -101.19222, "population": 68058}, {"name": "Cadereyta", "lat": 25.58333, "lng": -99.98333, "population": 67994}, {"name": "San Mateo Atenco", "lat": 19.26757, "lng": -99.53214, "population": 67890}, {"name": "Santo Domingo Tehuantepec", "lat": 16.32463, "lng": -95.24104, "population": 67739}, {"name": "Montemorelos", "lat": 25.18909, "lng": -99.82865, "population": 67428}, {"name": "Ixtapa-Zihuatanejo", "lat": 17.64344, "lng": -101.55212, "population": 67408}, {"name": "Dolores Hidalgo", "lat": 21.15611, "lng": -100.9325, "population": 67101}, {"name": "Santa Cruz Xoxocotlán", "lat": 17.02958, "lng": -96.73518, "population": 67086}, {"name": "Ramos Arizpe", "lat": 25.53928, "lng": -100.94742, "population": 66554}, {"name": "Tultepec", "lat": 19.685, "lng": -99.12806, "population": 65338}, {"name": "Tecate", "lat": 32.566, "lng": -116.63187, "population": 64764}, {"name": "Sahuayo de Morelos", "lat": 20.057, "lng": -102.7164, "population": 64431}, {"name": "Puerto Peñasco", "lat": 31.31716, "lng": -113.53799, "population": 62689}, {"name": "San Francisco Tesistán", "lat": 20.79729, "lng": -103.47712, "population": 62397}, {"name": "San Andrés Tuxtla", "lat": 18.4487, "lng": -95.21327, "population": 61769}, {"name": "Cortazar", "lat": 20.48362, "lng": -100.96237, "population": 61658}, {"name": "San Salvador Tizatlalli", "lat": 19.26028, "lng": -99.59083, "population": 61367}, {"name": "Ciudad Hidalgo", "lat": 19.68957, "lng": -100.55502, "population": 60542}, {"name": "Martínez de la Torre", "lat": 20.07082, "lng": -97.06078, "population": 60074}, {"name": "Villa Vicente Guerrero", "lat": 19.12123, "lng": -98.16572, "population": 60001}, {"name": "Colonia Nativitas", "lat": 19.38119, "lng": -99.13685, "population": 60000}, {"name": "Heroica Caborca", "lat": 30.71833, "lng": -112.15837, "population": 59922}, {"name": "Altamira", "lat": 22.39309, "lng": -97.93857, "population": 59536}, {"name": "Acámbaro", "lat": 20.03085, "lng": -100.72194, "population": 57972}, {"name": "Huauchinango", "lat": 20.17376, "lng": -98.05491, "population": 56206}, {"name": "Nuevo Casas Grandes", "lat": 30.41552, "lng": -107.91166, "population": 55553}, {"name": "Pátzcuaro", "lat": 19.5132, "lng": -101.60995, "population": 55298}, {"name": "Sabinas", "lat": 27.85591, "lng": -101.11738, "population": 54905}, {"name": "San Bernardino Tlaxcalancingo", "lat": 19.02867, "lng": -98.27698, "population": 54517}, {"name": "Zinacantepec", "lat": 19.28428, "lng": -99.73394, "population": 54220}, {"name": "Jacona de Plancarte", "lat": 19.95625, "lng": -102.30557, "population": 53860}, {"name": "Jardines de la Silla", "lat": 25.62944, "lng": -100.18778, "population": 53742}, {"name": "Santiago Teyahualco", "lat": 19.65985, "lng": -99.12493, "population": 53684}, {"name": "Coatepec", "lat": 19.45229, "lng": -96.96148, "population": 53621}, {"name": "Papantla de Olarte", "lat": 20.44655, "lng": -97.32494, "population": 53546}, {"name": "Rioverde", "lat": 21.93115, "lng": -99.99488, "population": 53128}, {"name": "Ciudad de Huajuapan de León", "lat": 17.80787, "lng": -97.77956, "population": 53043}, {"name": "Matamoros", "lat": 25.52699, "lng": -103.2285, "population": 52233}, {"name": "Arandas", "lat": 20.70551, "lng": -102.34514, "population": 52175}, {"name": "Huamantla", "lat": 19.31451, "lng": -97.9252, "population": 51996}, {"name": "Uriangato", "lat": 20.14085, "lng": -101.18251, "population": 51382}, {"name": "Teoloyucan", "lat": 19.74423, "lng": -99.18113, "population": 51255}, {"name": "Acayucan", "lat": 17.94979, "lng": -94.91386, "population": 50934}, {"name": "Taxco de Alarcón", "lat": 18.55462, "lng": -99.60592, "population": 50399}, {"name": "Zacapu", "lat": 19.81523, "lng": -101.79198, "population": 50112}, {"name": "Pijijiapan", "lat": 15.68618, "lng": -93.20938, "population": 50079}, {"name": "Polanco", "lat": 19.43332, "lng": -99.19919, "population": 50000}, {"name": "San Luis de la Paz", "lat": 21.29771, "lng": -100.51736, "population": 49914}, {"name": "Apizaco", "lat": 19.41333, "lng": -98.14358, "population": 49506}, {"name": "Emiliano Zapata", "lat": 18.84065, "lng": -99.18463, "population": 49193}, {"name": "Valladolid", "lat": 20.68812, "lng": -88.19936, "population": 48973}, {"name": "Valle Hermoso", "lat": 25.67317, "lng": -97.81272, "population": 48918}, {"name": "San Pedro", "lat": 25.75602, "lng": -102.98385, "population": 48746}, {"name": "San Juan de los Lagos", "lat": 21.24893, "lng": -102.33036, "population": 48684}, {"name": "Colonia del Sol", "lat": 22.91273, "lng": -109.92655, "population": 48032}, {"name": "Santa Ana Chiautempan", "lat": 19.30661, "lng": -98.18773, "population": 48030}, {"name": "Tierra Blanca", "lat": 18.44771, "lng": -96.35912, "population": 47824}, {"name": "Tlapa de Comonfort", "lat": 17.54528, "lng": -98.57599, "population": 46975}, {"name": "Tizimín", "lat": 21.14304, "lng": -88.15188, "population": 46971}, {"name": "Autlán de Navarro", "lat": 19.77189, "lng": -104.36644, "population": 45382}, {"name": "Chiapa de Corzo", "lat": 16.7075, "lng": -93.01216, "population": 45077}, {"name": "San Buenaventura", "lat": 19.3025, "lng": -98.86306, "population": 44761}, {"name": "Purísima de Bustos", "lat": 21.0315, "lng": -101.87833, "population": 43512}, {"name": "Tizayuca", "lat": 19.83721, "lng": -98.97607, "population": 43250}, {"name": "Moroleón", "lat": 20.12571, "lng": -101.19208, "population": 43200}, {"name": "Jerez de García Salinas", "lat": 22.6497, "lng": -102.98979, "population": 43064}, {"name": "Jesús María", "lat": 21.96111, "lng": -102.34333, "population": 43012}, {"name": "Palenque", "lat": 17.50914, "lng": -91.98125, "population": 42947}, {"name": "Izúcar de Matamoros", "lat": 18.60157, "lng": -98.46152, "population": 42936}, {"name": "Las Choapas", "lat": 17.91177, "lng": -94.09646, "population": 42693}, {"name": "Empalme", "lat": 27.96166, "lng": -110.81411, "population": 42516}, {"name": "Cintalapa de Figueroa", "lat": 16.68393, "lng": -93.71814, "population": 42467}, {"name": "Juventino Rosas", "lat": 20.64337, "lng": -100.99286, "population": 42264}, {"name": "Zacatelco", "lat": 19.21583, "lng": -98.23972, "population": 42150}, {"name": "Ocosingo", "lat": 16.90634, "lng": -92.09349, "population": 41878}, {"name": "Comalcalco", "lat": 18.26496, "lng": -93.22432, "population": 41458}, {"name": "San Pedro", "lat": 25.43333, "lng": -103.21667, "population": 41165}, {"name": "Ciudad Constitución", "lat": 25.0321, "lng": -111.66256, "population": 40935}, {"name": "Loma Bonita", "lat": 18.10766, "lng": -95.88053, "population": 40934}, {"name": "Pánuco", "lat": 22.05378, "lng": -98.18192, "population": 40754}, {"name": "Río Blanco", "lat": 18.83036, "lng": -97.156, "population": 40611}, {"name": "Camargo", "lat": 27.67891, "lng": -105.17158, "population": 40221}, {"name": "Cihuatlán", "lat": 19.2366, "lng": -104.56512, "population": 40139}, {"name": "Pénjamo", "lat": 20.43108, "lng": -101.72261, "population": 40070}, {"name": "Huejutla de Reyes", "lat": 21.14, "lng": -98.41944, "population": 40015}, {"name": "San Andrés Cholula", "lat": 19.05144, "lng": -98.29526, "population": 39964}, {"name": "Xicotepec de Juárez", "lat": 20.27605, "lng": -97.96111, "population": 39803}, {"name": "Umán", "lat": 20.88149, "lng": -89.74798, "population": 39611}, {"name": "San José del Castillo", "lat": 20.51167, "lng": -103.23689, "population": 39246}, {"name": "Los Reyes de Salgado", "lat": 19.58854, "lng": -102.47333, "population": 39209}, {"name": "Ocozocoautla de Espinosa", "lat": 16.7612, "lng": -93.37426, "population": 39180}, {"name": "Esperanza", "lat": 27.58046, "lng": -109.93119, "population": 38969}, {"name": "Melchor Ocampo", "lat": 19.70186, "lng": -99.14485, "population": 38599}, {"name": "Nueva Rosita", "lat": 27.93712, "lng": -101.21746, "population": 38158}, {"name": "Tepotzotlán", "lat": 19.72116, "lng": -99.22391, "population": 38119}, {"name": "Las Guacamayas", "lat": 18.01913, "lng": -102.21011, "population": 37980}, {"name": "Perote", "lat": 19.56233, "lng": -97.24235, "population": 37516}, {"name": "Paracho de Verduzco", "lat": 19.64757, "lng": -102.04765, "population": 37464}, {"name": "Progreso", "lat": 21.28217, "lng": -89.66289, "population": 37369}, {"name": "Villaflores", "lat": 16.23377, "lng": -93.27006, "population": 37237}, {"name": "Salvatierra", "lat": 20.21322, "lng": -100.88023, "population": 37203}, {"name": "Santa Teresa", "lat": 19.845, "lng": -99.23333, "population": 36845}, {"name": "Santiago", "lat": 25.42533, "lng": -100.15205, "population": 36840}, {"name": "San Jerónimo Cuatro Vientos", "lat": 19.29306, "lng": -98.84167, "population": 36778}, {"name": "Ameca", "lat": 20.54783, "lng": -104.0461, "population": 36156}, {"name": "Agua Dulce", "lat": 18.13909, "lng": -94.14527, "population": 36079}, {"name": "Xalisco", "lat": 21.451, "lng": -104.8983, "population": 35702}, {"name": "Coyotepec", "lat": 19.77722, "lng": -99.21295, "population": 35677}, {"name": "Ciudad Mendoza", "lat": 18.80645, "lng": -97.1787, "population": 35641}, {"name": "Tala", "lat": 20.65267, "lng": -103.70148, "population": 35396}, {"name": "San Martín Azcatepec", "lat": 19.68667, "lng": -98.97278, "population": 35390}, {"name": "Tlapacoyan", "lat": 19.96268, "lng": -97.21141, "population": 35338}, {"name": "Tonalá", "lat": 16.09007, "lng": -93.7546, "population": 35322}, {"name": "La Barca", "lat": 20.28988, "lng": -102.54198, "population": 35219}, {"name": "San Pablo Autopan", "lat": 19.35638, "lng": -99.65724, "population": 35141}, {"name": "Ciudad Melchor Múzquiz", "lat": 27.87933, "lng": -101.51615, "population": 35060}, {"name": "Ixmiquilpan", "lat": 20.47841, "lng": -99.21697, "population": 34814}, {"name": "Fraccionamiento Real Palmas", "lat": 25.90417, "lng": -100.15972, "population": 34636}, {"name": "San Miguel Topilejo", "lat": 19.20264, "lng": -99.14193, "population": 34603}, {"name": "Maravatío de Ocampo", "lat": 19.8919, "lng": -100.44192, "population": 34381}, {"name": "José Mariano Jiménez", "lat": 27.13076, "lng": -104.92391, "population": 34281}, {"name": "Pórticos de San Antonio", "lat": 32.4425, "lng": -117.03417, "population": 34234}, {"name": "Coatzintla", "lat": 20.48699, "lng": -97.46823, "population": 34036}, {"name": "Parras de la Fuente", "lat": 25.44185, "lng": -102.17808, "population": 33817}, {"name": "San Isidro", "lat": 19.33972, "lng": -98.95056, "population": 33737}, {"name": "Zacatlán", "lat": 19.9355, "lng": -97.96125, "population": 33736}, {"name": "Calpulalpan", "lat": 19.58867, "lng": -98.56972, "population": 33263}, {"name": "Ciudad Sabinas Hidalgo", "lat": 26.50358, "lng": -100.18187, "population": 33068}, {"name": "Río Grande", "lat": 23.82733, "lng": -103.03408, "population": 32944}, {"name": "Ticul", "lat": 20.39875, "lng": -89.53493, "population": 32796}, {"name": "Jáltipan de Morelos", "lat": 17.96542, "lng": -94.71396, "population": 32778}, {"name": "Víctor Rosales", "lat": 22.94889, "lng": -102.70222, "population": 32721}, {"name": "Tenosique", "lat": 17.4729, "lng": -91.4236, "population": 32579}, {"name": "Nueva Italia de Ruiz", "lat": 19.02473, "lng": -102.09314, "population": 32467}, {"name": "Zapotlanejo", "lat": 20.62268, "lng": -103.06813, "population": 32376}, {"name": "Actopan", "lat": 20.26961, "lng": -98.94377, "population": 32276}, {"name": "Macuspana", "lat": 17.76052, "lng": -92.59539, "population": 32225}, {"name": "Centro Familiar la Soledad", "lat": 21.135, "lng": -101.74972, "population": 32159}, {"name": "Huixtla", "lat": 15.13924, "lng": -92.4634, "population": 32033}, {"name": "Ciudad Fernández", "lat": 21.94045, "lng": -100.01153, "population": 32006}, {"name": "Amecameca", "lat": 19.12384, "lng": -98.76649, "population": 31687}, {"name": "Cananea", "lat": 30.98352, "lng": -110.29758, "population": 31560}, {"name": "Huatusco", "lat": 19.14876, "lng": -96.9676, "population": 31305}, {"name": "San José Guadalupe Otzacatipan", "lat": 19.34472, "lng": -99.59194, "population": 31299}, {"name": "Chilapa de Álvarez", "lat": 17.59917, "lng": -99.17389, "population": 31157}, {"name": "Champotón", "lat": 19.34745, "lng": -90.72039, "population": 30881}, {"name": "Miguel Alemán (La Doce)", "lat": 28.84028, "lng": -111.4775, "population": 30869}, {"name": "Escuinapa de Hidalgo", "lat": 22.83474, "lng": -105.77766, "population": 30790}, {"name": "Tantoyuca", "lat": 21.35064, "lng": -98.2257, "population": 30587}, {"name": "Cosamaloapan", "lat": 18.36759, "lng": -95.79857, "population": 30577}, {"name": "Puruándiro", "lat": 20.08879, "lng": -101.5156, "population": 30571}, {"name": "Huatabampo", "lat": 26.82649, "lng": -109.64206, "population": 30475}, {"name": "San Agustín", "lat": 20.54772, "lng": -103.46714, "population": 30424}, {"name": "Tlajomulco de Zúñiga", "lat": 20.47421, "lng": -103.44654, "population": 30273}, {"name": "Puerto Escondido", "lat": 15.86275, "lng": -97.06835, "population": 29903}, {"name": "Tequisquiapan", "lat": 20.5225, "lng": -99.89167, "population": 29799}, {"name": "San Miguel Ajusco", "lat": 19.22201, "lng": -99.20242, "population": 29781}, {"name": "Coyula", "lat": 20.6614, "lng": -103.22846, "population": 29674}, {"name": "Pinotepa Nacional", "lat": 16.34014, "lng": -98.05297, "population": 29604}, {"name": "Escárcega", "lat": 18.60891, "lng": -90.74544, "population": 29477}, {"name": "Marfil", "lat": 20.99165, "lng": -101.28434, "population": 29375}, {"name": "Santa Isabel", "lat": 32.63075, "lng": -115.57039, "population": 29311}, {"name": "Cocula", "lat": 20.36517, "lng": -103.82215, "population": 29267}, {"name": "Tequila", "lat": 20.88205, "lng": -103.83599, "population": 29203}, {"name": "San Fernando", "lat": 24.84713, "lng": -98.14885, "population": 29171}, {"name": "Navolato", "lat": 24.7668, "lng": -107.69768, "population": 29153}, {"name": "Ixtapa", "lat": 20.71598, "lng": -105.20508, "population": 29036}, {"name": "Tecamachalco", "lat": 18.88352, "lng": -97.73344, "population": 28679}, {"name": "Pabellón de Arteaga", "lat": 22.14642, "lng": -102.2769, "population": 28633}, {"name": "Ciudad Sahagun", "lat": 19.77557, "lng": -98.57471, "population": 28609}, {"name": "Tula de Allende", "lat": 20.05161, "lng": -99.34397, "population": 28577}, {"name": "San Felipe", "lat": 21.47831, "lng": -101.21566, "population": 28452}, {"name": "Metepec", "lat": 19.25934, "lng": -99.60175, "population": 28205}, {"name": "San Sebastián el Grande", "lat": 20.53279, "lng": -103.42938, "population": 28138}, {"name": "Nuevo México", "lat": 20.7565, "lng": -103.44297, "population": 28135}, {"name": "Berriozábal", "lat": 16.79944, "lng": -93.27219, "population": 28128}, {"name": "Ojinaga", "lat": 29.56689, "lng": -104.54487, "population": 28040}, {"name": "Ajalpan", "lat": 18.37908, "lng": -97.25867, "population": 28031}, {"name": "Tultitlán de Mariano Escobedo", "lat": 19.64655, "lng": -99.16787, "population": 28017}, {"name": "Apaseo el Alto", "lat": 20.45798, "lng": -100.62081, "population": 27991}, {"name": "Rincón de Romos", "lat": 22.22819, "lng": -102.32216, "population": 27988}, {"name": "San Francisco Acuautla", "lat": 19.34564, "lng": -98.86034, "population": 27960}, {"name": "Sanctorum", "lat": 19.09917, "lng": -98.25417, "population": 27936}, {"name": "Catemaco", "lat": 18.42131, "lng": -95.11398, "population": 27615}, {"name": "Contla", "lat": 19.32932, "lng": -98.1664, "population": 27610}, {"name": "Gabriel Leyva Solano", "lat": 25.66157, "lng": -108.63657, "population": 27536}, {"name": "Tuxpan", "lat": 19.55555, "lng": -103.37587, "population": 27523}, {"name": "Tepeaca", "lat": 18.96688, "lng": -97.8998, "population": 27449}, {"name": "Abasolo", "lat": 20.44997, "lng": -101.53073, "population": 27389}, {"name": "Huimanguillo", "lat": 17.83498, "lng": -93.38902, "population": 27344}, {"name": "Moyotzingo", "lat": 19.24811, "lng": -98.40486, "population": 27137}, {"name": "Villagrán", "lat": 20.51452, "lng": -100.99745, "population": 27079}, {"name": "Atotonilco el Alto", "lat": 20.55084, "lng": -102.50822, "population": 26874}, {"name": "La Joya", "lat": 32.44363, "lng": -117.00371, "population": 26860}, {"name": "Misantla", "lat": 19.92992, "lng": -96.85194, "population": 26827}, {"name": "Sayula", "lat": 19.88372, "lng": -103.60073, "population": 26789}, {"name": "Apan", "lat": 19.71128, "lng": -98.45086, "population": 26642}, {"name": "Francisco I. Madero", "lat": 25.773, "lng": -103.27127, "population": 26632}, {"name": "Magdalena de Kino", "lat": 30.62681, "lng": -110.96151, "population": 26605}, {"name": "Teapa", "lat": 17.55602, "lng": -92.94788, "population": 26548}, {"name": "Río de Teapa", "lat": 17.77473, "lng": -92.90217, "population": 26500}, {"name": "Las Pintitas", "lat": 20.56444, "lng": -103.30222, "population": 26500}, {"name": "Magdalena Atlicpac", "lat": 19.36906, "lng": -98.94935, "population": 26429}, {"name": "Isla", "lat": 18.0278, "lng": -95.52946, "population": 26287}, {"name": "San Jerónimo", "lat": 19.28279, "lng": -99.5929, "population": 26281}, {"name": "Reforma", "lat": 17.85904, "lng": -93.15381, "population": 26257}, {"name": "Ixtaczoquitlán", "lat": 18.85364, "lng": -97.06229, "population": 26187}, {"name": "Santiago Papasquiaro", "lat": 25.04389, "lng": -105.41917, "population": 26121}, {"name": "Apaseo el Grande", "lat": 20.54495, "lng": -100.68462, "population": 26121}, {"name": "Ciudad de Allende", "lat": 25.27673, "lng": -100.01442, "population": 26065}, {"name": "Ocoyoacac", "lat": 19.27127, "lng": -99.45787, "population": 26015}, {"name": "Acatzingo", "lat": 18.98196, "lng": -97.78363, "population": 25811}, {"name": "Tecax", "lat": 20.2052, "lng": -89.28522, "population": 25751}, {"name": "Felipe Carrillo Puerto", "lat": 19.5775, "lng": -88.04529, "population": 25744}, {"name": "Valente Diaz", "lat": 19.16347, "lng": -96.21648, "population": 25700}, {"name": "Huejotzingo", "lat": 19.15892, "lng": -98.40824, "population": 25684}, {"name": "Tacámbaro de Codallos", "lat": 19.23606, "lng": -101.45803, "population": 25665}, {"name": "Tejupilco de Hidalgo", "lat": 18.90475, "lng": -100.15275, "population": 25631}, {"name": "Valle de Bravo", "lat": 19.19501, "lng": -100.13132, "population": 25554}, {"name": "Mixquiahuala de Juarez", "lat": 20.23031, "lng": -99.21396, "population": 25510}, {"name": "Ixtepec", "lat": 16.56052, "lng": -95.10375, "population": 25381}, {"name": "Emiliano Zapata", "lat": 19.34361, "lng": -98.97472, "population": 25309}, {"name": "Nanchital de Lázaro Cárdenas del Río", "lat": 18.07117, "lng": -94.40756, "population": 25289}, {"name": "Yuriria", "lat": 20.21081, "lng": -101.13212, "population": 25216}, {"name": "Ciudad Altamirano", "lat": 18.3582, "lng": -100.66965, "population": 25168}, {"name": "Álamo", "lat": 20.91154, "lng": -97.67554, "population": 25159}, {"name": "Cuautlancingo", "lat": 19.08995, "lng": -98.27319, "population": 25104}, {"name": "Encarnación de Díaz", "lat": 21.52631, "lng": -102.24024, "population": 25010}, {"name": "Hunucmá", "lat": 21.0164, "lng": -89.87716, "population": 24910}, {"name": "San Francisco Cuaxusco", "lat": 19.26755, "lng": -99.61925, "population": 24900}, {"name": "Costa Rica", "lat": 24.5907, "lng": -107.38992, "population": 24874}, {"name": "Zumpango del Río", "lat": 17.65437, "lng": -99.52725, "population": 24719}, {"name": "Tamazunchale", "lat": 21.25993, "lng": -98.78935, "population": 24562}, {"name": "La Isla", "lat": 18.6, "lng": -96.15, "population": 24558}, {"name": "Arriaga", "lat": 16.23557, "lng": -93.89972, "population": 24447}, {"name": "Jalostotitlán", "lat": 21.16813, "lng": -102.46097, "population": 24423}, {"name": "San Antonio Tecómitl", "lat": 19.21778, "lng": -98.98806, "population": 24397}, {"name": "Ébano", "lat": 22.21808, "lng": -98.37706, "population": 24296}, {"name": "Loreto", "lat": 22.27194, "lng": -101.98602, "population": 24260}, {"name": "El Salto", "lat": 23.77846, "lng": -105.36038, "population": 24241}, {"name": "Jiquilpan de Juárez", "lat": 19.99173, "lng": -102.71843, "population": 24233}, {"name": "Licenciado Benito Juárez", "lat": 24.65667, "lng": -107.545, "population": 24185}, {"name": "San Juan Ixtayopan", "lat": 19.23187, "lng": -98.99867, "population": 24120}, {"name": "Ometepec", "lat": 16.69008, "lng": -98.40797, "population": 24120}, {"name": "San Miguel el Alto", "lat": 21.03053, "lng": -102.40227, "population": 23982}, {"name": "Miahuatlán de Porfirio Díaz", "lat": 16.329, "lng": -96.59606, "population": 23940}, {"name": "Yurécuaro", "lat": 20.33954, "lng": -102.28219, "population": 23843}, {"name": "Ciudad Serdán", "lat": 18.98856, "lng": -97.44643, "population": 23824}, {"name": "Motozintla", "lat": 15.36615, "lng": -92.24673, "population": 23755}, {"name": "Teocaltiche", "lat": 21.43434, "lng": -102.57427, "population": 23726}, {"name": "Purépero de Echáiz", "lat": 19.91025, "lng": -102.00691, "population": 23713}, {"name": "Comonfort", "lat": 20.72278, "lng": -100.75946, "population": 23683}, {"name": "Castaños", "lat": 26.78932, "lng": -101.43211, "population": 23649}, {"name": "Allende", "lat": 18.15401, "lng": -94.39425, "population": 23620}, {"name": "Juan José Ríos", "lat": 25.75714, "lng": -108.8242, "population": 23553}, {"name": "Teloloapan", "lat": 18.36663, "lng": -99.87185, "population": 23549}, {"name": "San Martín Cuautlalpan", "lat": 19.27618, "lng": -98.83167, "population": 23501}, {"name": "San José Iturbide", "lat": 21.00153, "lng": -100.38416, "population": 23471}, {"name": "Teotihuacán de Arista", "lat": 19.68972, "lng": -98.86083, "population": 23325}, {"name": "Ixtlán del Río", "lat": 21.03907, "lng": -104.37116, "population": 23303}, {"name": "Motul", "lat": 21.09571, "lng": -89.28332, "population": 23240}, {"name": "Jesús del Monte", "lat": 19.375, "lng": -99.29444, "population": 23150}, {"name": "Alvarado", "lat": 18.77143, "lng": -95.76181, "population": 23128}, {"name": "Zacualtipán", "lat": 20.65002, "lng": -98.65628, "population": 23125}, {"name": "San Jorge Pueblo Nuevo", "lat": 19.25417, "lng": -99.62778, "population": 23107}, {"name": "Oxkutzkab", "lat": 20.30734, "lng": -89.41809, "population": 23096}, {"name": "San Lorenzo Acopilco", "lat": 19.33002, "lng": -99.32721, "population": 23037}, {"name": "Papalotla", "lat": 19.16861, "lng": -98.20389, "population": 22969}, {"name": "Rodolfo Sánchez Taboada", "lat": 31.72294, "lng": -116.57196, "population": 22957}, {"name": "Las Pintas de Arriba", "lat": 20.57573, "lng": -103.32442, "population": 22838}, {"name": "Zapotiltic", "lat": 19.62749, "lng": -103.41752, "population": 22833}, {"name": "Tixtla de Guerrero", "lat": 17.56732, "lng": -99.39799, "population": 22826}, {"name": "Frontera", "lat": 18.54326, "lng": -92.6453, "population": 22795}, {"name": "Atlacomulco de Fabela", "lat": 19.79919, "lng": -99.875, "population": 22774}, {"name": "Manuel Ojinaga", "lat": 29.56444, "lng": -104.41639, "population": 22744}, {"name": "Lerma de Villada", "lat": 19.28881, "lng": -99.51163, "population": 22713}, {"name": "Tequixquiac", "lat": 19.90944, "lng": -99.14472, "population": 22676}, {"name": "San Mateo Otzacatipan", "lat": 19.33273, "lng": -99.60345, "population": 22656}, {"name": "San Miguel Coatlinchán", "lat": 19.44999, "lng": -98.87274, "population": 22619}, {"name": "Meoqui", "lat": 28.26701, "lng": -105.48093, "population": 22574}, {"name": "El Salto", "lat": 20.33333, "lng": -104.5, "population": 22550}, {"name": "San José del Valle", "lat": 20.76376, "lng": -105.22813, "population": 22541}, {"name": "Cosoleacaque", "lat": 17.99913, "lng": -94.6359, "population": 22454}, {"name": "Cerro Azul", "lat": 21.192, "lng": -97.74088, "population": 22268}, {"name": "Nava", "lat": 28.42071, "lng": -100.76565, "population": 22192}, {"name": "Nogales", "lat": 18.82776, "lng": -97.16311, "population": 22085}, {"name": "Reyes Acozac", "lat": 19.7755, "lng": -98.98079, "population": 21910}, {"name": "Playas del Rosario", "lat": 17.85289, "lng": -92.93243, "population": 21893}, {"name": "Huetamo de Núñez", "lat": 18.62602, "lng": -100.90004, "population": 21864}, {"name": "Santa María Atzompa", "lat": 17.10165, "lng": -96.77686, "population": 21788}, {"name": "Tenango de Arista", "lat": 19.10446, "lng": -99.5898, "population": 21765}, {"name": "Chiconcuac", "lat": 19.55939, "lng": -98.89884, "population": 21738}, {"name": "Tuxpan", "lat": 21.94221, "lng": -105.2987, "population": 21709}, {"name": "Sombrerete", "lat": 23.63138, "lng": -103.64134, "population": 21702}, {"name": "Petatlán", "lat": 17.53768, "lng": -101.26798, "population": 21659}, {"name": "El Salto", "lat": 20.51853, "lng": -103.18159, "population": 21644}, {"name": "Chapala", "lat": 20.29246, "lng": -103.18963, "population": 21596}, {"name": "Zacatepec", "lat": 18.65409, "lng": -99.18981, "population": 21586}, {"name": "Atoyac de Álvarez", "lat": 17.20667, "lng": -100.43306, "population": 21407}, {"name": "Fortín de las Flores", "lat": 18.90806, "lng": -97.0, "population": 21370}, {"name": "Romita", "lat": 20.87127, "lng": -101.51683, "population": 21176}, {"name": "Puente de Ixtla", "lat": 18.61472, "lng": -99.31806, "population": 21098}, {"name": "San Pedro Totoltepec", "lat": 19.31108, "lng": -99.57197, "population": 21076}, {"name": "Xoxocotla", "lat": 18.68415, "lng": -99.24577, "population": 21074}, {"name": "El Grullo", "lat": 19.80665, "lng": -104.21626, "population": 20924}, {"name": "Acajete", "lat": 19.11154, "lng": -97.95231, "population": 20923}, {"name": "San Rafael", "lat": 19.20959, "lng": -98.75636, "population": 20873}, {"name": "Las Margaritas", "lat": 16.31281, "lng": -91.98224, "population": 20786}, {"name": "Capulhuac de Mirafuentes", "lat": 19.19354, "lng": -99.46585, "population": 20757}, {"name": "Allende", "lat": 28.34124, "lng": -100.85111, "population": 20694}, {"name": "Xonacatlán", "lat": 19.40513, "lng": -99.52807, "population": 20680}, {"name": "San Buenaventura", "lat": 27.06193, "lng": -101.54891, "population": 20480}, {"name": "Jaral del Progreso", "lat": 20.37237, "lng": -101.06249, "population": 20457}, {"name": "Terrazas del Valle", "lat": 32.4875, "lng": -116.82667, "population": 20421}, {"name": "Santa Anita", "lat": 20.55005, "lng": -103.4435, "population": 20320}, {"name": "San Antonio de la Cal", "lat": 17.02921, "lng": -96.70094, "population": 20198}, {"name": "La Orilla", "lat": 17.99583, "lng": -102.22694, "population": 20126}, {"name": "Mezcales", "lat": 20.73072, "lng": -105.28257, "population": 20092}, {"name": "Naranjos", "lat": 21.35087, "lng": -97.68656, "population": 20073}, {"name": "Emiliano Zapata", "lat": 17.74058, "lng": -91.76635, "population": 20030}, {"name": "Ciudad Miguel Alemán", "lat": 26.39823, "lng": -99.02857, "population": 19997}, {"name": "Cunduacán", "lat": 18.06557, "lng": -93.17302, "population": 19824}, {"name": "Peto", "lat": 20.1261, "lng": -88.92302, "population": 19821}, {"name": "Calvillo", "lat": 21.84583, "lng": -102.71849, "population": 19742}, {"name": "Altotonga", "lat": 19.76613, "lng": -97.24514, "population": 19722}, {"name": "La Ermita", "lat": 21.15194, "lng": -101.73306, "population": 19703}, {"name": "Banderilla", "lat": 19.58893, "lng": -96.93727, "population": 19649}, {"name": "Chignahuapan", "lat": 19.83866, "lng": -98.03171, "population": 19608}, {"name": "San Juan Zitlaltepec", "lat": 19.81207, "lng": -99.14526, "population": 19600}, {"name": "Lomas del Sur", "lat": 20.4925, "lng": -103.4175, "population": 19413}, {"name": "Pueblo Nuevo", "lat": 23.38359, "lng": -105.37084, "population": 19363}, {"name": "Acatlán de Osorio", "lat": 18.2025, "lng": -98.04864, "population": 19341}, {"name": "Xochitepec", "lat": 18.7808, "lng": -99.23049, "population": 19164}, {"name": "Acaponeta", "lat": 22.49396, "lng": -105.36369, "population": 19140}, {"name": "José Cardel", "lat": 19.3681, "lng": -96.36951, "population": 19092}, {"name": "Matías Romero Avendaño", "lat": 16.8774, "lng": -95.03819, "population": 18944}, {"name": "Jojutla", "lat": 18.61472, "lng": -99.18028, "population": 18867}, {"name": "Jocotepec", "lat": 20.28566, "lng": -103.42908, "population": 18852}, {"name": "Cuautepec de Hinojosa", "lat": 20.03557, "lng": -98.31015, "population": 18835}, {"name": "Las Rosas", "lat": 16.36554, "lng": -92.37063, "population": 18817}, {"name": "Tamazula de Gordiano", "lat": 19.68006, "lng": -103.2514, "population": 18787}, {"name": "Santa María Totoltepec", "lat": 19.30653, "lng": -99.59279, "population": 18779}, {"name": "Lerdo de Tejada", "lat": 18.62936, "lng": -95.51968, "population": 18715}, {"name": "Comalapa", "lat": 15.65995, "lng": -92.14111, "population": 18704}, {"name": "Arcelia", "lat": 18.31847, "lng": -100.28148, "population": 18685}, {"name": "Xico", "lat": 19.42178, "lng": -97.00819, "population": 18652}, {"name": "Aldama", "lat": 28.83826, "lng": -105.91214, "population": 18642}, {"name": "Santa Rosa Jáuregui", "lat": 20.7421, "lng": -100.44783, "population": 18508}, {"name": "San José de los Olvera", "lat": 20.55257, "lng": -100.41511, "population": 18406}, {"name": "Tlaquiltenango", "lat": 18.63429, "lng": -99.1632, "population": 18334}, {"name": "Parque Industrial Ciudad Mitras", "lat": 25.78861, "lng": -100.44778, "population": 18312}, {"name": "Milpa Alta", "lat": 19.19251, "lng": -99.02317, "population": 18274}, {"name": "Mitras Poniente", "lat": 25.77583, "lng": -100.42583, "population": 18246}, {"name": "Santiago Ixcuintla", "lat": 21.81295, "lng": -105.20844, "population": 18241}, {"name": "Tulum", "lat": 20.21173, "lng": -87.46325, "population": 18233}, {"name": "Villa del Prado 2da Sección", "lat": 32.42389, "lng": -116.97167, "population": 18226}, {"name": "Altepexi", "lat": 18.37035, "lng": -97.29966, "population": 18217}, {"name": "Zacoalco de Torres", "lat": 20.22627, "lng": -103.56981, "population": 18172}, {"name": "Coalcomán de Vázquez Pallares", "lat": 18.7775, "lng": -103.16, "population": 18156}, {"name": "San Andrés Cuexcontitlán", "lat": 19.35892, "lng": -99.62151, "population": 18005}, {"name": "Chichén-Itzá", "lat": 20.66667, "lng": -88.56667, "population": 18000}, {"name": "Carlos A. Carrillo", "lat": 18.37477, "lng": -95.75444, "population": 17989}, {"name": "Tres de Mayo", "lat": 18.86861, "lng": -99.20833, "population": 17966}, {"name": "Mapastepec", "lat": 15.43358, "lng": -92.90039, "population": 17931}, {"name": "Santa María Ajoloapan", "lat": 19.7636, "lng": -98.95908, "population": 17784}, {"name": "Don Antonio", "lat": 19.87444, "lng": -98.93472, "population": 17736}, {"name": "San José del Quince", "lat": 20.5417, "lng": -103.28416, "population": 17669}, {"name": "Ixtapan de la Sal", "lat": 18.84369, "lng": -99.67671, "population": 17640}, {"name": "Santiago Momoxpan", "lat": 19.07361, "lng": -98.26694, "population": 17622}, {"name": "Compostela", "lat": 21.23777, "lng": -104.9001, "population": 17573}, {"name": "Heroica Ciudad de Tlaxiaco", "lat": 17.26868, "lng": -97.68032, "population": 17543}, {"name": "Axochiapan", "lat": 18.50246, "lng": -98.75358, "population": 17508}, {"name": "Progreso de Alvaro Obregon", "lat": 20.24929, "lng": -99.18988, "population": 17486}, {"name": "Ciudad de Huitzuco", "lat": 18.30334, "lng": -99.33376, "population": 17475}, {"name": "Huilango", "lat": 19.68056, "lng": -99.25639, "population": 17399}, {"name": "Tres Valles", "lat": 18.23915, "lng": -96.13569, "population": 17299}, {"name": "San Salvador El Seco", "lat": 19.13325, "lng": -97.64167, "population": 17263}, {"name": "Casa Blanca", "lat": 19.04222, "lng": -98.11889, "population": 17262}, {"name": "Palmarito Tochapan", "lat": 18.90135, "lng": -97.63833, "population": 17213}, {"name": "Jamay", "lat": 20.29479, "lng": -102.7094, "population": 17204}, {"name": "San Salvador Atenco", "lat": 19.5517, "lng": -98.91867, "population": 17124}, {"name": "Guadalupe Victoria", "lat": 32.28924, "lng": -115.10534, "population": 17119}, {"name": "Palaú", "lat": 27.89243, "lng": -101.42349, "population": 16970}, {"name": "Tezoyuca", "lat": 19.59283, "lng": -98.91084, "population": 16933}, {"name": "La Magdalena Tlaltelulco", "lat": 19.28287, "lng": -98.19609, "population": 16834}, {"name": "Salinas de Hidalgo", "lat": 22.62795, "lng": -101.71417, "population": 16821}, {"name": "Yecapixtla", "lat": 18.88333, "lng": -98.865, "population": 16811}, {"name": "Zaragoza", "lat": 19.77097, "lng": -97.55506, "population": 16752}, {"name": "La Providencia Siglo XXI", "lat": 20.06417, "lng": -98.71722, "population": 16747}, {"name": "San Felipe", "lat": 31.02526, "lng": -114.84173, "population": 16702}, {"name": "Ozumba de Alzate", "lat": 19.03689, "lng": -98.79516, "population": 16700}, {"name": "Santa Rosa Treinta", "lat": 18.70025, "lng": -99.18357, "population": 16691}, {"name": "Los Reyes de Juárez", "lat": 18.94918, "lng": -97.80379, "population": 16683}, {"name": "Suchiapa", "lat": 16.62473, "lng": -93.09894, "population": 16637}, {"name": "Anáhuac", "lat": 27.24457, "lng": -100.13229, "population": 16628}, {"name": "Yajalón", "lat": 17.17291, "lng": -92.33392, "population": 16622}, {"name": "Ario de Rosales", "lat": 19.2083, "lng": -101.70904, "population": 16595}, {"name": "Cacahoatán", "lat": 14.99199, "lng": -92.16417, "population": 16572}, {"name": "Nochistlán de Mejía", "lat": 21.36355, "lng": -102.84754, "population": 16562}, {"name": "Hidalgo", "lat": 25.97205, "lng": -100.45029, "population": 16524}, {"name": "San Francisco Tlalcilalcalpan", "lat": 19.29474, "lng": -99.76771, "population": 16509}, {"name": "Guadalupe Victoria", "lat": 24.44676, "lng": -104.12336, "population": 16506}, {"name": "San Antonio Acahualco", "lat": 19.274, "lng": -99.77169, "population": 16442}, {"name": "Tlaltenango de Sánchez Román", "lat": 21.78129, "lng": -103.30436, "population": 16396}, {"name": "Tamuín", "lat": 22.00554, "lng": -98.77972, "population": 16318}, {"name": "Lázaro Cárdenas", "lat": 30.52663, "lng": -115.93137, "population": 16294}, {"name": "Ampliación San Mateo", "lat": 19.61639, "lng": -99.14722, "population": 16250}, {"name": "Teopisca", "lat": 16.54144, "lng": -92.47288, "population": 16240}, {"name": "Teolocholco", "lat": 19.24333, "lng": -98.19083, "population": 16240}, {"name": "Magdalena", "lat": 20.90686, "lng": -103.9769, "population": 16214}, {"name": "Izamal", "lat": 20.93315, "lng": -89.01887, "population": 16195}, {"name": "Medina", "lat": 21.14972, "lng": -101.6225, "population": 16166}, {"name": "Bucerías", "lat": 20.75626, "lng": -105.33438, "population": 16161}, {"name": "Santa Ana Xalmimilulco", "lat": 19.21287, "lng": -98.38207, "population": 16125}, {"name": "San Francisco de los Romo", "lat": 22.07748, "lng": -102.2714, "population": 16124}, {"name": "Tepatlaxco de Hidalgo", "lat": 19.08067, "lng": -97.97338, "population": 16085}, {"name": "Santiago Tulantepec", "lat": 20.03618, "lng": -98.35563, "population": 16078}, {"name": "Fraccionamiento Ciudad Olmeca", "lat": 18.15056, "lng": -94.5525, "population": 16074}, {"name": "Juchitepec", "lat": 19.10059, "lng": -98.8788, "population": 16021}, {"name": "El Rosario", "lat": 22.99032, "lng": -105.85419, "population": 16001}, {"name": "San Rafael Tlanalapan", "lat": 19.29167, "lng": -98.46806, "population": 15998}, {"name": "Vicente Guerrero", "lat": 23.73267, "lng": -103.98247, "population": 15982}, {"name": "Ciudad de Armería", "lat": 18.9378, "lng": -103.96417, "population": 15923}, {"name": "Tecámac de Felipe Villanueva", "lat": 19.71306, "lng": -98.96833, "population": 15911}, {"name": "Zinapécuaro de Figueroa", "lat": 19.86005, "lng": -100.82731, "population": 15875}, {"name": "Santiago Tlacotepec", "lat": 19.22708, "lng": -99.67083, "population": 15853}, {"name": "Jalpa de Méndez", "lat": 18.17678, "lng": -93.06376, "population": 15695}, {"name": "La Cruz", "lat": 23.92126, "lng": -106.8925, "population": 15657}, {"name": "Zinacatepec", "lat": 18.33516, "lng": -97.24621, "population": 15592}, {"name": "Tulantongo", "lat": 19.53159, "lng": -98.87464, "population": 15584}, {"name": "Venceremos", "lat": 20.55083, "lng": -100.39806, "population": 15538}, {"name": "Libres", "lat": 19.46574, "lng": -97.68737, "population": 15536}, {"name": "Ahualulco de Mercado", "lat": 20.70137, "lng": -103.97461, "population": 15512}, {"name": "San Pablo Oztotepec", "lat": 19.18652, "lng": -99.07361, "population": 15507}, {"name": "Venustiano Carranza", "lat": 16.33851, "lng": -92.56317, "population": 15496}, {"name": "Las Delicias", "lat": 32.40889, "lng": -116.94361, "population": 15486}, {"name": "Cárdenas", "lat": 22.00144, "lng": -99.64247, "population": 15469}, {"name": "Santiago Tuxtla", "lat": 18.46576, "lng": -95.3006, "population": 15459}, {"name": "Madera", "lat": 29.19269, "lng": -108.14334, "population": 15447}, {"name": "Peribán de Ramos", "lat": 19.52032, "lng": -102.41526, "population": 15434}, {"name": "Juan Aldama", "lat": 24.29072, "lng": -103.39339, "population": 15431}, {"name": "San Mateo Huitzilzingo", "lat": 19.22906, "lng": -98.92504, "population": 15389}, {"name": "Ayutla de los Libres", "lat": 16.96376, "lng": -99.09616, "population": 15370}, {"name": "Tuzantla", "lat": 19.20289, "lng": -100.56679, "population": 15302}, {"name": "Villa Independencia", "lat": 20.05523, "lng": -97.05214, "population": 15297}, {"name": "Coscomatepec de Bravo", "lat": 19.07275, "lng": -97.04685, "population": 15252}, {"name": "Tepeapulco", "lat": 19.7884, "lng": -98.55266, "population": 15244}, {"name": "Tecámac", "lat": 19.71288, "lng": -98.96895, "population": 15244}, {"name": "Alborada Jaltenco", "lat": 19.66194, "lng": -99.06889, "population": 15235}, {"name": "Tepalcatepec", "lat": 19.18725, "lng": -102.84704, "population": 15221}, {"name": "Villa Hidalgo", "lat": 21.67616, "lng": -102.58803, "population": 15182}, {"name": "Puebla", "lat": 32.56645, "lng": -115.35387, "population": 15168}, {"name": "Ciénega de Flores", "lat": 25.95467, "lng": -100.16695, "population": 15162}, {"name": "Tetla", "lat": 19.44204, "lng": -98.10325, "population": 15161}, {"name": "Crucecita", "lat": 15.76889, "lng": -96.135, "population": 15130}, {"name": "Técpan de Galeana", "lat": 17.21976, "lng": -100.63032, "population": 15119}, {"name": "Tangancícuaro de Arista", "lat": 19.88684, "lng": -102.20717, "population": 15068}, {"name": "Xalatlaco", "lat": 19.18314, "lng": -99.41844, "population": 15043}, {"name": "Ocotlán de Morelos", "lat": 16.79183, "lng": -96.67504, "population": 15016}, {"name": "Alto Lucero", "lat": 20.95361, "lng": -97.44194, "population": 15011}, {"name": "Col. Bosques de las Lomas", "lat": 19.37893, "lng": -99.26587, "population": 15000}, {"name": "Benito Juárez", "lat": 22.20261, "lng": -97.84015, "population": 14990}, {"name": "Calkiní", "lat": 20.36905, "lng": -90.05119, "population": 14934}, {"name": "Oteapan", "lat": 18.00173, "lng": -94.66615, "population": 14925}, {"name": "Alfredo V. Bonfil", "lat": 21.08776, "lng": -86.84706, "population": 14900}, {"name": "Chemax", "lat": 20.65562, "lng": -87.93693, "population": 14885}, {"name": "Tizapán el Alto", "lat": 20.15942, "lng": -103.0447, "population": 14877}, {"name": "Santa Ana Nextlalpan", "lat": 19.74171, "lng": -99.07496, "population": 14871}, {"name": "San Miguel Canoa", "lat": 19.15194, "lng": -98.10306, "population": 14863}, {"name": "Coronango", "lat": 19.1209, "lng": -98.30594, "population": 14859}, {"name": "Tlaxco", "lat": 19.61442, "lng": -98.11997, "population": 14806}, {"name": "Cerritos", "lat": 22.42835, "lng": -100.28474, "population": 14804}, {"name": "Tlalmanalco", "lat": 19.20521, "lng": -98.80115, "population": 14786}, {"name": "Nuevo San Juan Parangaricutiro", "lat": 19.41751, "lng": -102.13064, "population": 14772}, {"name": "Loreto", "lat": 26.01217, "lng": -111.34888, "population": 14724}, {"name": "Quiroga", "lat": 19.66479, "lng": -101.52322, "population": 14669}, {"name": "Santa Cruz del Valle", "lat": 20.53333, "lng": -103.43333, "population": 14637}, {"name": "Juan Rodríguez Clara", "lat": 17.99283, "lng": -95.40099, "population": 14628}, {"name": "Ciudad Hidalgo", "lat": 14.68018, "lng": -92.15195, "population": 14606}, {"name": "El Rosario", "lat": 24.25556, "lng": -107.18278, "population": 14577}, {"name": "El Llano", "lat": 20.06537, "lng": -99.31976, "population": 14559}, {"name": "Las Amapolas", "lat": 19.15194, "lng": -96.19778, "population": 14553}, {"name": "Progreso", "lat": 18.88008, "lng": -99.1526, "population": 14525}, {"name": "Guachochi", "lat": 26.82037, "lng": -107.0713, "population": 14513}, {"name": "Tecuala", "lat": 22.39815, "lng": -105.45808, "population": 14511}, {"name": "Benito Juárez", "lat": 17.83316, "lng": -92.5302, "population": 14451}, {"name": "Las Varas", "lat": 21.18021, "lng": -105.13595, "population": 14419}, {"name": "Tihuatlan", "lat": 20.71449, "lng": -97.53335, "population": 14417}, {"name": "Santa Clara del Cobre", "lat": 19.40664, "lng": -101.63991, "population": 14359}, {"name": "San Vicente", "lat": 20.74879, "lng": -105.25018, "population": 14324}, {"name": "General Miguel Alemán", "lat": 18.8921, "lng": -96.79665, "population": 14287}, {"name": "Palmira", "lat": 18.88278, "lng": -97.11139, "population": 14256}, {"name": "Villa de El Carmen Tequexquitla", "lat": 19.32426, "lng": -97.6535, "population": 14249}, {"name": "Cherán", "lat": 19.68621, "lng": -101.95403, "population": 14245}, {"name": "Tlaxcoapan", "lat": 20.09163, "lng": -99.22042, "population": 14241}, {"name": "Pueblo Yaqui", "lat": 27.35515, "lng": -110.034, "population": 14234}, {"name": "Pichucalco", "lat": 17.51, "lng": -93.11591, "population": 14212}, {"name": "Jalpa", "lat": 21.63241, "lng": -102.97906, "population": 14199}, {"name": "Tenancingo de Degollado", "lat": 18.96136, "lng": -99.5903, "population": 14174}, {"name": "Tepoztlán", "lat": 18.98622, "lng": -99.10051, "population": 14130}, {"name": "Anahuac", "lat": 22.20275, "lng": -97.85506, "population": 14116}, {"name": "San José el Alto", "lat": 20.65345, "lng": -100.38221, "population": 14094}, {"name": "Ezequiel Montes", "lat": 20.6657, "lng": -99.89872, "population": 14053}, {"name": "Ruíz", "lat": 21.95107, "lng": -105.1438, "population": 14050}, {"name": "Trancoso", "lat": 22.73566, "lng": -102.36588, "population": 14021}, {"name": "Sayula de Alemán", "lat": 17.88191, "lng": -94.95986, "population": 13980}, {"name": "Villa de Zaachila", "lat": 16.95048, "lng": -96.74934, "population": 13959}, {"name": "Ciudad Manuel Doblado", "lat": 20.72888, "lng": -101.95226, "population": 13956}, {"name": "Real del Valle (El Paraíso) [Fraccionamiento]", "lat": 20.54556, "lng": -103.36972, "population": 13949}, {"name": "Cuerámaro", "lat": 20.62546, "lng": -101.67242, "population": 13948}, {"name": "Miahuatlán", "lat": 18.54983, "lng": -97.43953, "population": 13909}, {"name": "Villa del Campo", "lat": 32.5075, "lng": -116.73833, "population": 13906}, {"name": "Acala", "lat": 16.5561, "lng": -92.80772, "population": 13889}, {"name": "San Jacinto Amilpas", "lat": 17.10188, "lng": -96.76228, "population": 13860}, {"name": "San Salvador Cuauhtenco", "lat": 19.19276, "lng": -99.08983, "population": 13856}, {"name": "Apaxco de Ocampo", "lat": 19.97512, "lng": -99.17112, "population": 13836}, {"name": "Tlacolula de Matamoros", "lat": 16.95525, "lng": -96.47764, "population": 13821}, {"name": "Vicente Guerrero", "lat": 16.93306, "lng": -96.70139, "population": 13794}, {"name": "Villa Juárez", "lat": 27.12981, "lng": -109.83707, "population": 13770}, {"name": "Atarasquillo", "lat": 19.32831, "lng": -99.46899, "population": 13769}, {"name": "Brisas Barra de Suchiate", "lat": 14.53588, "lng": -92.22414, "population": 13743}, {"name": "La Joya", "lat": 18.89064, "lng": -99.12337, "population": 13715}, {"name": "San Pedro Pochutla", "lat": 15.74555, "lng": -96.4657, "population": 13685}, {"name": "Unión Hidalgo", "lat": 16.4723, "lng": -94.82952, "population": 13683}, {"name": "Santa María Xonacatepec", "lat": 19.08944, "lng": -98.10361, "population": 13673}, {"name": "Aldama", "lat": 22.92096, "lng": -98.07523, "population": 13661}, {"name": "Yahualica de González Gallo", "lat": 21.17978, "lng": -102.88611, "population": 13655}, {"name": "Gutiérrez Zamora", "lat": 20.45347, "lng": -97.08588, "population": 13651}, {"name": "Cuitláhuac", "lat": 18.81429, "lng": -96.72281, "population": 13651}, {"name": "San Pedro Tultepec", "lat": 19.26514, "lng": -99.50934, "population": 13634}, {"name": "Poncitlán", "lat": 20.38111, "lng": -102.92395, "population": 13581}, {"name": "Coyuca de Benítez", "lat": 17.00895, "lng": -100.08714, "population": 13566}, {"name": "Morelos", "lat": 19.64889, "lng": -101.23889, "population": 13565}, {"name": "Cotija de la Paz", "lat": 19.8101, "lng": -102.70212, "population": 13560}, {"name": "Miguel Auza", "lat": 24.29445, "lng": -103.45113, "population": 13551}, {"name": "Etzatlán", "lat": 20.76652, "lng": -104.07899, "population": 13513}, {"name": "Ascensión", "lat": 31.09205, "lng": -107.99642, "population": 13456}, {"name": "La Mira", "lat": 18.03658, "lng": -102.32586, "population": 13415}, {"name": "Paso del Macho", "lat": 18.97098, "lng": -96.72419, "population": 13413}, {"name": "Villa Unión", "lat": 23.18992, "lng": -106.21947, "population": 13404}, {"name": "Acuitlapilco", "lat": 19.27333, "lng": -98.23542, "population": 13386}, {"name": "Empalme Escobedo", "lat": 20.6725, "lng": -100.74675, "population": 13384}, {"name": "Coquimatlán", "lat": 19.20625, "lng": -103.80952, "population": 13358}, {"name": "Cadereyta de Montes", "lat": 20.6948, "lng": -99.81511, "population": 13347}, {"name": "San Andrés Mixquic", "lat": 19.22512, "lng": -98.96408, "population": 13310}, {"name": "Jalacingo", "lat": 19.80333, "lng": -97.3083, "population": 13310}, {"name": "Juriquilla", "lat": 20.7114, "lng": -100.45705, "population": 13309}, {"name": "Capilla de Guadalupe", "lat": 20.82718, "lng": -102.59136, "population": 13308}, {"name": "Filomeno Mata", "lat": 20.20004, "lng": -97.70392, "population": 13304}, {"name": "San Miguel Octopan", "lat": 20.57428, "lng": -100.7478, "population": 13303}, {"name": "Asunción Nochixtlán", "lat": 17.4586, "lng": -97.22569, "population": 13284}, {"name": "San Marcos", "lat": 16.79772, "lng": -99.38921, "population": 13282}, {"name": "Colotlán", "lat": 22.11316, "lng": -103.26658, "population": 13256}, {"name": "Zimapan", "lat": 20.73814, "lng": -99.3818, "population": 13243}, {"name": "Tepetlixpa", "lat": 19.02893, "lng": -98.82129, "population": 13239}, {"name": "Almecatla", "lat": 19.14286, "lng": -98.23597, "population": 13217}, {"name": "Eldorado", "lat": 24.32444, "lng": -107.36722, "population": 13197}, {"name": "La Joya", "lat": 18.66667, "lng": -99.46667, "population": 13158}, {"name": "San Gregorio Cuautzingo", "lat": 19.25962, "lng": -98.85742, "population": 13138}, {"name": "Santiago Tianguistenco de Galeana", "lat": 19.18024, "lng": -99.46644, "population": 13106}, {"name": "Santa María del Río", "lat": 21.79615, "lng": -100.73815, "population": 13099}, {"name": "Centro de Readaptación Social", "lat": 20.55444, "lng": -103.19361, "population": 13071}, {"name": "Guerrero Negro", "lat": 27.96005, "lng": -114.05589, "population": 13054}, {"name": "Balancán", "lat": 17.80903, "lng": -91.53682, "population": 13030}, {"name": "Veintidós de Febrero", "lat": 19.61139, "lng": -99.34667, "population": 13021}, {"name": "Adolfo Ruiz Cortines", "lat": 25.70387, "lng": -108.71894, "population": 12978}, {"name": "San Sebastián Chimalpa", "lat": 19.38151, "lng": -98.95505, "population": 12951}, {"name": "San Julián", "lat": 21.01035, "lng": -102.17967, "population": 12949}, {"name": "Adolfo Ruíz Cortínes", "lat": 25.75, "lng": -108.75, "population": 12947}, {"name": "Río Grande", "lat": 16.01108, "lng": -97.43557, "population": 12943}, {"name": "Valparaíso", "lat": 22.77094, "lng": -103.57045, "population": 12919}, {"name": "Sonoyta", "lat": 31.86323, "lng": -112.85012, "population": 12849}, {"name": "Fraccionamiento Geovillas los Pinos", "lat": 19.21722, "lng": -96.22639, "population": 12840}, {"name": "San Martín de las Pirámides", "lat": 19.70582, "lng": -98.83554, "population": 12812}, {"name": "San Marcos", "lat": 20.03056, "lng": -99.33547, "population": 12779}, {"name": "Juan Morales", "lat": 18.81139, "lng": -98.92194, "population": 12756}, {"name": "Charcas", "lat": 23.12943, "lng": -101.11346, "population": 12748}, {"name": "Valtierrilla", "lat": 20.53244, "lng": -101.12761, "population": 12713}, {"name": "Oluta", "lat": 17.92972, "lng": -94.89662, "population": 12709}, {"name": "Temascalcingo", "lat": 19.91635, "lng": -100.00369, "population": 12698}, {"name": "Isla Mujeres", "lat": 21.23114, "lng": -86.73105, "population": 12642}, {"name": "San Pedro Apatlaco", "lat": 18.79306, "lng": -98.95972, "population": 12630}, {"name": "Maxcanú", "lat": 20.58567, "lng": -90.002, "population": 12621}, {"name": "Lombardía", "lat": 19.15806, "lng": -102.05111, "population": 12610}, {"name": "El Fuerte", "lat": 26.41691, "lng": -108.61816, "population": 12566}, {"name": "Progreso", "lat": 32.58165, "lng": -115.58434, "population": 12557}, {"name": "Tempoal de Sánchez", "lat": 21.51998, "lng": -98.38829, "population": 12526}, {"name": "San Antonio la Isla", "lat": 19.16441, "lng": -99.56685, "population": 12525}, {"name": "Tototlán", "lat": 20.54219, "lng": -102.7913, "population": 12516}, {"name": "Santa María Zacatepec", "lat": 19.12333, "lng": -98.36528, "population": 12466}, {"name": "Santa María Huexoculco", "lat": 19.25804, "lng": -98.8205, "population": 12456}, {"name": "La Tijera", "lat": 20.58167, "lng": -103.44056, "population": 12425}, {"name": "Tecalitlán", "lat": 19.47156, "lng": -103.30708, "population": 12411}, {"name": "Bochil", "lat": 16.99618, "lng": -92.8947, "population": 12404}, {"name": "Soledad de Doblado", "lat": 19.04637, "lng": -96.42142, "population": 12398}, {"name": "Lomas de San Sebastián", "lat": 19.38206, "lng": -98.9332, "population": 12372}, {"name": "Cuilápam de Guerrero", "lat": 16.99626, "lng": -96.78003, "population": 12360}, {"name": "Santiago Cuautlalpan", "lat": 19.43232, "lng": -98.90136, "population": 12336}, {"name": "Villanueva", "lat": 22.35451, "lng": -102.88366, "population": 12269}, {"name": "Xicohtzinco", "lat": 19.17371, "lng": -98.23377, "population": 12255}, {"name": "San Juan de las Huertas", "lat": 19.24755, "lng": -99.75834, "population": 12253}, {"name": "Villa Lázaro Cárdenas", "lat": 20.46193, "lng": -97.70024, "population": 12253}, {"name": "San Marcos Huixtoco", "lat": 19.29668, "lng": -98.86369, "population": 12229}, {"name": "San Bartolo del Llano", "lat": 19.59069, "lng": -99.74099, "population": 12227}, {"name": "La Magdalena Chichicaspa", "lat": 19.41237, "lng": -99.32555, "population": 12193}, {"name": "Tarimoro", "lat": 20.28336, "lng": -100.75477, "population": 12188}, {"name": "Ciudad de Nanacamilpa", "lat": 19.49339, "lng": -98.53665, "population": 12177}, {"name": "San Gabriel Chilac", "lat": 18.32596, "lng": -97.34697, "population": 12149}, {"name": "San Pedro de los Baños", "lat": 19.66873, "lng": -99.83533, "population": 12149}, {"name": "Huixcolotla", "lat": 18.92073, "lng": -97.77166, "population": 12148}, {"name": "Estación Manuel", "lat": 22.72871, "lng": -98.32182, "population": 12077}, {"name": "Tepalcingo", "lat": 18.59498, "lng": -98.84537, "population": 12053}, {"name": "Ángel R. Cabada", "lat": 18.59601, "lng": -95.4458, "population": 12033}, {"name": "Cacalomacan", "lat": 19.25311, "lng": -99.70623, "population": 12001}, {"name": "San Pedro Cahro", "lat": 20.11548, "lng": -102.65328, "population": 11987}, {"name": "Heroica Villa de San Blas Atempa", "lat": 16.32608, "lng": -95.22711, "population": 11959}, {"name": "Huehuetoca", "lat": 19.82819, "lng": -99.2037, "population": 11948}, {"name": "Acatic", "lat": 20.78085, "lng": -102.91055, "population": 11890}, {"name": "San Pedro Los Baños", "lat": 19.62537, "lng": -99.8217, "population": 11886}, {"name": "Ojuelos de Jalisco", "lat": 21.86367, "lng": -101.59336, "population": 11881}, {"name": "Nacozari Viejo", "lat": 30.4, "lng": -109.65, "population": 11872}, {"name": "Santa Ana", "lat": 30.5412, "lng": -111.11882, "population": 11864}, {"name": "Maltrata", "lat": 18.81091, "lng": -97.27538, "population": 11842}, {"name": "Lomas de San Agustín", "lat": 20.5275, "lng": -103.46778, "population": 11836}, {"name": "Jilotepec de Molina Enríquez", "lat": 19.95194, "lng": -99.53278, "population": 11828}, {"name": "San Juan y San Pedro Tezompa", "lat": 19.2068, "lng": -98.96073, "population": 11819}, {"name": "Cruz Grande", "lat": 16.72241, "lng": -99.12356, "population": 11783}, {"name": "Ascención", "lat": 31.1, "lng": -107.98333, "population": 11781}, {"name": "Santa Rosalía", "lat": 27.34035, "lng": -112.26706, "population": 11765}, {"name": "José María Morelos", "lat": 19.74887, "lng": -88.70866, "population": 11750}, {"name": "Ayotlán", "lat": 20.52943, "lng": -102.32778, "population": 11724}, {"name": "Córdoba (Santa Leticia)", "lat": 18.90861, "lng": -96.97889, "population": 11720}, {"name": "El Rosario", "lat": 17.04271, "lng": -96.69209, "population": 11707}, {"name": "Dzitbalché", "lat": 20.31857, "lng": -90.05611, "population": 11686}, {"name": "Plan de Ayala", "lat": 20.54745, "lng": -97.47482, "population": 11657}, {"name": "San Francisco Ocotlán", "lat": 19.13411, "lng": -98.28345, "population": 11636}, {"name": "Tenancingo", "lat": 19.14725, "lng": -98.20132, "population": 11636}, {"name": "El Arenal", "lat": 20.77629, "lng": -103.6935, "population": 11610}, {"name": "Jesús Gómez Portugal (Margaritas)", "lat": 21.99917, "lng": -102.29139, "population": 11589}, {"name": "Las Palmas", "lat": 22.93672, "lng": -109.94235, "population": 11562}, {"name": "San Pedro Mártir", "lat": 20.61787, "lng": -100.47038, "population": 11552}, {"name": "Espita", "lat": 21.01062, "lng": -88.30672, "population": 11551}, {"name": "Tierra Colorada", "lat": 17.16571, "lng": -99.52791, "population": 11540}, {"name": "Ciudad Gustavo Díaz Ordaz", "lat": 26.2318, "lng": -98.59647, "population": 11523}, {"name": "Nealtican", "lat": 19.0499, "lng": -98.4272, "population": 11517}, {"name": "Bacalar", "lat": 18.68109, "lng": -88.39333, "population": 11513}, {"name": "Chiautla de Tapia", "lat": 18.30149, "lng": -98.60339, "population": 11511}, {"name": "Canatlán", "lat": 24.52653, "lng": -104.77397, "population": 11495}, {"name": "Nacozari de García", "lat": 30.37462, "lng": -109.68803, "population": 11489}, {"name": "San Pedro Tlaltizapan", "lat": 19.19973, "lng": -99.49956, "population": 11472}, {"name": "Muna", "lat": 20.48831, "lng": -89.71441, "population": 11469}, {"name": "Cedral", "lat": 23.82099, "lng": -100.72527, "population": 11468}, {"name": "San Francisco Tecoxpa", "lat": 19.19167, "lng": -99.00639, "population": 11456}, {"name": "Vicente Guerrero", "lat": 30.73054, "lng": -115.98871, "population": 11455}, {"name": "Ajijic", "lat": 20.29992, "lng": -103.26138, "population": 11439}, {"name": "Ahome", "lat": 25.91985, "lng": -109.17338, "population": 11331}, {"name": "Progreso Industrial", "lat": 19.63635, "lng": -99.35687, "population": 11289}, {"name": "Nacajuca", "lat": 18.16963, "lng": -93.01837, "population": 11289}, {"name": "San Miguel Xoxtla", "lat": 19.16763, "lng": -98.30758, "population": 11269}, {"name": "Villa Cuauhtémoc", "lat": 19.41676, "lng": -99.55872, "population": 11241}, {"name": "San Pablo Atlazalpan", "lat": 19.21742, "lng": -98.90763, "population": 11236}, {"name": "Anenecuilco", "lat": 18.77738, "lng": -98.98907, "population": 11227}, {"name": "González", "lat": 22.82761, "lng": -98.42715, "population": 11212}, {"name": "Santa Cruz de las Flores", "lat": 20.48056, "lng": -103.50278, "population": 11204}, {"name": "La Resolana", "lat": 19.6039, "lng": -104.43421, "population": 11180}, {"name": "El Tejar", "lat": 19.07497, "lng": -96.16089, "population": 11168}, {"name": "Calimaya", "lat": 19.16324, "lng": -99.6181, "population": 11165}, {"name": "San Bartolomé Tlaltelulco", "lat": 19.22738, "lng": -99.62964, "population": 11141}, {"name": "Chinautla", "lat": 19.81996, "lng": -97.38859, "population": 11096}, {"name": "Jaltenco", "lat": 19.75298, "lng": -99.0939, "population": 11093}, {"name": "Tepatepec", "lat": 20.24568, "lng": -99.08981, "population": 11084}, {"name": "Villas de la Hacienda [Fraccionamiento]", "lat": 20.53111, "lng": -103.38278, "population": 11078}, {"name": "San Matias Tlalancaleca", "lat": 19.32536, "lng": -98.49863, "population": 11076}, {"name": "Mineral del Monte", "lat": 20.1383, "lng": -98.67364, "population": 11015}, {"name": "Jalpan de Serra", "lat": 21.21745, "lng": -99.47183, "population": 11010}, {"name": "Amatitán", "lat": 20.83423, "lng": -103.73016, "population": 11006}, {"name": "Saucillo", "lat": 28.0299, "lng": -105.29276, "population": 11004}, {"name": "San Bartolo Cuautlalpan", "lat": 19.8151, "lng": -99.01044, "population": 10989}, {"name": "Zimatlán de Álvarez", "lat": 16.86707, "lng": -96.78484, "population": 10986}, {"name": "Tixkokob", "lat": 21.0012, "lng": -89.39476, "population": 10968}, {"name": "Acanceh", "lat": 20.81291, "lng": -89.45332, "population": 10968}, {"name": "Atlautla", "lat": 19.02188, "lng": -98.77859, "population": 10967}, {"name": "Parrilla II", "lat": 17.87702, "lng": -92.92468, "population": 10967}, {"name": "Conjunto Habitacional Villas del Pedregal", "lat": 19.68361, "lng": -101.30361, "population": 10934}, {"name": "Putla Villa de Guerrero", "lat": 17.02622, "lng": -97.92843, "population": 10925}, {"name": "Atencingo", "lat": 18.51347, "lng": -98.60542, "population": 10879}, {"name": "Nuevo Ideal", "lat": 24.88819, "lng": -105.07455, "population": 10876}, {"name": "El Parral", "lat": 16.37022, "lng": -93.00428, "population": 10865}, {"name": "Pomoca", "lat": 18.04972, "lng": -92.93056, "population": 10864}, {"name": "Villa Corzo", "lat": 16.18463, "lng": -93.26802, "population": 10841}, {"name": "Chahuites", "lat": 16.28824, "lng": -94.19491, "population": 10763}, {"name": "Simojovel de Allende", "lat": 17.14012, "lng": -92.714, "population": 10762}, {"name": "Platón Sánchez", "lat": 21.27182, "lng": -98.37456, "population": 10758}, {"name": "Villa Unión", "lat": 23.9753, "lng": -104.04462, "population": 10753}, {"name": "Degollado", "lat": 20.46702, "lng": -102.14976, "population": 10753}, {"name": "Vista Hermosa de Negrete", "lat": 20.27297, "lng": -102.47426, "population": 10752}, {"name": "Chocamán", "lat": 19.01214, "lng": -97.03291, "population": 10727}, {"name": "Galeana", "lat": 18.6381, "lng": -99.2124, "population": 10726}, {"name": "Puerto Escondido (Tepeolulco Puerto Escondido)", "lat": 19.55194, "lng": -99.09806, "population": 10717}, {"name": "Santa Catarina Ayotzingo", "lat": 19.20948, "lng": -98.92985, "population": 10702}, {"name": "Chichihualco", "lat": 17.65902, "lng": -99.67624, "population": 10690}, {"name": "Santa María Zolotepec", "lat": 19.41728, "lng": -99.49327, "population": 10656}, {"name": "Tecolutilla", "lat": 18.28251, "lng": -93.33352, "population": 10637}, {"name": "Unidad Habitacional José María Morelos y Pavón", "lat": 18.82028, "lng": -99.26222, "population": 10625}, {"name": "Soto la Marina", "lat": 23.76922, "lng": -98.20525, "population": 10620}, {"name": "San Francisco Telixtlahuaca", "lat": 17.29627, "lng": -96.90478, "population": 10618}, {"name": "Santa Ana Tlacotenco", "lat": 19.17569, "lng": -98.99788, "population": 10593}, {"name": "Nueva Palestina", "lat": 16.81722, "lng": -91.26, "population": 10588}, {"name": "Tlaltizapán", "lat": 18.6863, "lng": -99.11868, "population": 10563}, {"name": "El Naranjo", "lat": 22.52597, "lng": -99.32968, "population": 10562}, {"name": "Arteaga", "lat": 18.35679, "lng": -102.29113, "population": 10537}, {"name": "San Juanito", "lat": 27.97213, "lng": -107.60107, "population": 10535}, {"name": "Huautla de Jiménez", "lat": 18.1315, "lng": -96.84088, "population": 10528}, {"name": "Tlaixpan", "lat": 18.91217, "lng": -97.73818, "population": 10513}, {"name": "La Cañada", "lat": 20.60639, "lng": -100.33114, "population": 10506}, {"name": "San Agustín Tlaxiaca", "lat": 20.1151, "lng": -98.8864, "population": 10496}, {"name": "Las Veredas", "lat": 23.15028, "lng": -109.70611, "population": 10478}, {"name": "Santiago Tangamandapio", "lat": 19.95579, "lng": -102.43534, "population": 10463}, {"name": "Zaragoza", "lat": 28.4932, "lng": -100.9223, "population": 10461}, {"name": "Acatlán de Juárez", "lat": 20.42238, "lng": -103.59098, "population": 10461}, {"name": "San Juan de Abajo", "lat": 20.81673, "lng": -105.19187, "population": 10442}, {"name": "Jaltenango de la Paz", "lat": 15.87257, "lng": -92.72469, "population": 10427}, {"name": "Profesor Carlos Hank González", "lat": 19.37222, "lng": -98.93889, "population": 10416}, {"name": "Ciudad del Maíz", "lat": 22.40187, "lng": -99.60468, "population": 10391}, {"name": "Buenavista Tomatlán", "lat": 19.21145, "lng": -102.58827, "population": 10390}, {"name": "Villa de Reyes", "lat": 21.80309, "lng": -100.93418, "population": 10383}, {"name": "Rincón de Tamayo", "lat": 20.42344, "lng": -100.7547, "population": 10324}, {"name": "Ciudad de Chiautla de Tapia", "lat": 18.3, "lng": -98.60389, "population": 10320}, {"name": "Cuatro Ciénegas de Carranza", "lat": 26.98542, "lng": -102.06386, "population": 10309}, {"name": "Hecelchakán", "lat": 20.17735, "lng": -90.13357, "population": 10285}, {"name": "Nahuatzen", "lat": 19.65427, "lng": -101.91699, "population": 10283}, {"name": "Cuajinicuilapa", "lat": 16.47347, "lng": -98.41389, "population": 10282}, {"name": "Nuevo Progreso", "lat": 26.05378, "lng": -97.95149, "population": 10272}, {"name": "Doctor Arroyo", "lat": 23.67211, "lng": -100.18134, "population": 10272}, {"name": "El Colomo", "lat": 19.06015, "lng": -104.25727, "population": 10255}, {"name": "Cuitzeo del Porvenir", "lat": 19.96912, "lng": -101.14053, "population": 10239}, {"name": "Fraccionamiento la Trinidad", "lat": 19.82917, "lng": -99.08278, "population": 10230}, {"name": "Felipe Carrillo Puerto", "lat": 19.16108, "lng": -102.70687, "population": 10217}, {"name": "Quecholac", "lat": 18.95471, "lng": -97.65858, "population": 10216}, {"name": "Zacatepec", "lat": 19.26631, "lng": -97.5328, "population": 10204}, {"name": "Tetela del Volcán", "lat": 18.89306, "lng": -98.72972, "population": 10199}, {"name": "Xaloztoc", "lat": 19.40775, "lng": -98.04602, "population": 10191}, {"name": "Moralillo", "lat": 22.22585, "lng": -97.91254, "population": 10191}, {"name": "San Blas", "lat": 21.54076, "lng": -105.28797, "population": 10187}, {"name": "Akil", "lat": 20.2654, "lng": -89.34726, "population": 10176}, {"name": "Ixhuatlán del Sureste", "lat": 18.02137, "lng": -94.3886, "population": 10149}, {"name": "Tanquián de Escobedo", "lat": 21.60587, "lng": -98.66275, "population": 10127}, {"name": "Santa Cruz Amilpas", "lat": 17.05833, "lng": -96.68333, "population": 10120}, {"name": "San Andrés Ahuashuatepec", "lat": 19.37831, "lng": -98.10654, "population": 10114}, {"name": "Santiago Jamiltepec", "lat": 16.28141, "lng": -97.82277, "population": 10107}, {"name": "Otumba", "lat": 19.69985, "lng": -98.75638, "population": 10097}, {"name": "Santiago Tílapa", "lat": 19.18953, "lng": -99.42089, "population": 10087}, {"name": "Opopeo", "lat": 19.41222, "lng": -101.60677, "population": 10055}, {"name": "Grajales", "lat": 19.22796, "lng": -97.80307, "population": 10054}, {"name": "Santa Ana Pacueco", "lat": 20.34722, "lng": -102.01583, "population": 10052}, {"name": "Paseos de San Juan", "lat": 19.78194, "lng": -99.0175, "population": 10050}, {"name": "Ciudad Tula", "lat": 22.99679, "lng": -99.71187, "population": 10043}, {"name": "Pueblo Nuevo", "lat": 17.15996, "lng": -92.899, "population": 10043}, {"name": "Guadalupe Victoria", "lat": 19.2911, "lng": -97.3429, "population": 10035}, {"name": "Pajacuarán", "lat": 20.11674, "lng": -102.56431, "population": 10014}, {"name": "Santiago Yancuitlalpan", "lat": 19.38404, "lng": -99.30471, "population": 10013}, {"name": "San Buenaventura", "lat": 19.26595, "lng": -99.67332, "population": 9991}, {"name": "Tzucacab", "lat": 20.0721, "lng": -89.05009, "population": 9967}, {"name": "Teocelo", "lat": 19.3856, "lng": -96.97371, "population": 9967}, {"name": "Valle Dorado Inn", "lat": 20.52444, "lng": -103.36194, "population": 9966}, {"name": "Oriental", "lat": 19.37614, "lng": -97.62051, "population": 9957}, {"name": "Anáhuac", "lat": 28.48396, "lng": -106.7472, "population": 9952}, {"name": "Boca del Rio", "lat": 19.10464, "lng": -96.10405, "population": 9947}, {"name": "Pedro Escobedo", "lat": 20.50232, "lng": -100.14469, "population": 9946}, {"name": "Villa Zaragoza", "lat": 22.03716, "lng": -100.73088, "population": 9915}, {"name": "Villa Hidalgo", "lat": 21.74185, "lng": -105.23096, "population": 9908}, {"name": "Miraflores", "lat": 19.2221, "lng": -98.80741, "population": 9904}, {"name": "General Zuazua", "lat": 25.89491, "lng": -100.108, "population": 9898}, {"name": "Jiquipilas", "lat": 16.66806, "lng": -93.64667, "population": 9894}, {"name": "San Marcos Tlacoyalco", "lat": 18.67388, "lng": -97.60354, "population": 9881}, {"name": "Santa Rosa", "lat": 25.82463, "lng": -100.22164, "population": 9880}, {"name": "Buenos Aires", "lat": 18.02444, "lng": -102.28583, "population": 9868}, {"name": "San Francisco Tetlanohcan", "lat": 19.2602, "lng": -98.1637, "population": 9858}, {"name": "Cuencamé de Ceniceros", "lat": 24.87116, "lng": -103.69731, "population": 9848}, {"name": "Chiautla", "lat": 19.54895, "lng": -98.88236, "population": 9839}, {"name": "Chahuite", "lat": 16.3, "lng": -94.18333, "population": 9837}, {"name": "Tekit", "lat": 20.53601, "lng": -89.33404, "population": 9834}, {"name": "Tetlanohcán", "lat": 19.2603, "lng": -98.16433, "population": 9832}, {"name": "General Ángel Flores (La Palma)", "lat": 24.81917, "lng": -107.65667, "population": 9812}, {"name": "Candelaria", "lat": 18.18574, "lng": -91.04534, "population": 9812}, {"name": "Petaquillas", "lat": 17.48636, "lng": -99.45633, "population": 9801}, {"name": "Santiago Cuautlalpan", "lat": 19.68417, "lng": -99.2887, "population": 9786}, {"name": "San Ignacio Cerro Gordo", "lat": 20.74322, "lng": -102.53658, "population": 9774}, {"name": "Brisas de Zicatela", "lat": 15.83694, "lng": -97.04194, "population": 9771}, {"name": "Heroica Ciudad de Ejutla de Crespo", "lat": 16.56516, "lng": -96.73185, "population": 9748}, {"name": "Ciudad Cuauhtémoc", "lat": 22.18439, "lng": -97.83472, "population": 9740}, {"name": "Tlatlauquitepec", "lat": 19.84765, "lng": -97.49718, "population": 9720}, {"name": "Etchojoa", "lat": 26.91065, "lng": -109.62549, "population": 9710}, {"name": "Mexicaltzingo", "lat": 19.2113, "lng": -99.58469, "population": 9693}, {"name": "Las Vigas de Ramírez", "lat": 19.63722, "lng": -97.09821, "population": 9684}, {"name": "Mazatecochco", "lat": 19.17865, "lng": -98.18677, "population": 9671}, {"name": "Parrilla", "lat": 17.91297, "lng": -92.91752, "population": 9664}, {"name": "Cocoyoc", "lat": 18.88417, "lng": -98.98194, "population": 9663}, {"name": "Texistepec", "lat": 17.89476, "lng": -94.81711, "population": 9655}, {"name": "San Fernando", "lat": 16.87131, "lng": -93.20699, "population": 9651}, {"name": "Tequisistlán Primero", "lat": 19.60002, "lng": -98.95689, "population": 9640}, {"name": "Zaragoza", "lat": 17.95783, "lng": -94.64231, "population": 9639}, {"name": "Prados de Santa Rosa", "lat": 25.79808, "lng": -100.22687, "population": 9626}, {"name": "San Juan de la Vega", "lat": 20.62521, "lng": -100.76141, "population": 9597}, {"name": "Rafael Delgado", "lat": 18.81014, "lng": -97.07172, "population": 9594}, {"name": "Xicoténcatl", "lat": 22.99799, "lng": -98.94063, "population": 9593}, {"name": "Escuintla", "lat": 15.31944, "lng": -92.65833, "population": 9570}, {"name": "Carmen", "lat": 25.9365, "lng": -100.36396, "population": 9568}, {"name": "Santiago Juxtlahuaca", "lat": 17.33462, "lng": -98.01147, "population": 9565}, {"name": "Santa Catarina Yecahuizotl", "lat": 19.31205, "lng": -98.96461, "population": 9563}, {"name": "Puerto Madero", "lat": 14.72076, "lng": -92.42146, "population": 9557}, {"name": "Higuera de Zaragoza", "lat": 25.96861, "lng": -109.30219, "population": 9555}, {"name": "Huixquilucan de Degollado", "lat": 19.36028, "lng": -99.3498, "population": 9554}, {"name": "Tanhuato de Guerrero", "lat": 20.28492, "lng": -102.32813, "population": 9546}, {"name": "San José de Gracia", "lat": 19.98959, "lng": -103.02148, "population": 9537}, {"name": "Tlahualilo de Zaragoza", "lat": 26.10743, "lng": -103.44259, "population": 9517}, {"name": "San Felipe Tlalmimilolpan", "lat": 19.23934, "lng": -99.64215, "population": 9512}, {"name": "Villa Guerrero", "lat": 18.96211, "lng": -99.64061, "population": 9509}, {"name": "Almoloya del Río", "lat": 19.16046, "lng": -99.4874, "population": 9507}, {"name": "Jorge Jiménez Cantú", "lat": 19.30972, "lng": -98.84667, "population": 9475}, {"name": "Comala", "lat": 19.32717, "lng": -103.75926, "population": 9442}, {"name": "Halachó", "lat": 20.4787, "lng": -90.08172, "population": 9412}, {"name": "La Huacana", "lat": 18.96222, "lng": -101.80786, "population": 9395}, {"name": "Cocotitlán", "lat": 19.23336, "lng": -98.86596, "population": 9365}, {"name": "Álamos", "lat": 27.0299, "lng": -108.93924, "population": 9345}, {"name": "Tlapehuala", "lat": 18.24101, "lng": -100.5379, "population": 9331}, {"name": "Choix", "lat": 26.70901, "lng": -108.32545, "population": 9306}, {"name": "Villa Zempoala", "lat": 19.44422, "lng": -96.40773, "population": 9249}, {"name": "Naolinco de Victoria", "lat": 19.65474, "lng": -96.8732, "population": 9233}, {"name": "Magdalena Cuayucatepec", "lat": 18.54972, "lng": -97.48472, "population": 9227}, {"name": "Altamirano", "lat": 16.73369, "lng": -92.03882, "population": 9200}, {"name": "Tecolotlán", "lat": 20.20144, "lng": -104.04834, "population": 9189}, {"name": "Santa María Ajoloapan", "lat": 19.97694, "lng": -99.04472, "population": 9185}, {"name": "Bermejillo", "lat": 25.88848, "lng": -103.62139, "population": 9149}, {"name": "Tekoh", "lat": 20.74361, "lng": -89.47406, "population": 9134}, {"name": "Juanacatlán", "lat": 20.50873, "lng": -103.16761, "population": 9133}, {"name": "Amatlán de los Reyes", "lat": 18.84658, "lng": -96.91595, "population": 9123}, {"name": "Tuxpan", "lat": 19.56787, "lng": -100.46406, "population": 9122}, {"name": "Amaxac de Guerrero", "lat": 19.34661, "lng": -98.17057, "population": 9114}, {"name": "Ex-hacienda de Xalpa", "lat": 19.8215, "lng": -99.18275, "population": 9105}, {"name": "Queréndaro", "lat": 19.81007, "lng": -100.88508, "population": 9105}, {"name": "La Peñita de Jaltomba", "lat": 21.03884, "lng": -105.24792, "population": 9102}, {"name": "Santa María Magdalena", "lat": 20.5979, "lng": -100.44739, "population": 9099}, {"name": "Coatetelco", "lat": 18.72963, "lng": -99.32605, "population": 9094}, {"name": "Cardonal", "lat": 20.05689, "lng": -99.23025, "population": 9090}, {"name": "Playa Vicente", "lat": 17.83107, "lng": -95.81189, "population": 9083}, {"name": "Galaxia Bonito Jalisco", "lat": 20.505, "lng": -103.20472, "population": 9082}, {"name": "La Resurrección", "lat": 19.10279, "lng": -98.13013, "population": 9065}, {"name": "Tobarito", "lat": 27.37057, "lng": -109.89603, "population": 9065}, {"name": "Huichapan", "lat": 20.37593, "lng": -99.64869, "population": 9051}, {"name": "Ciudad de Tlatlauquitepec", "lat": 19.85278, "lng": -97.49528, "population": 9047}, {"name": "Antúnez (Morelos)", "lat": 19.01278, "lng": -102.20389, "population": 9044}, {"name": "La Trinitaria", "lat": 16.11886, "lng": -92.05188, "population": 9042}, {"name": "Unión de Tula", "lat": 19.95646, "lng": -104.26805, "population": 9035}, {"name": "Las Juntas", "lat": 20.70033, "lng": -105.24326, "population": 9035}, {"name": "Tomatlán", "lat": 19.93664, "lng": -105.2501, "population": 9026}, {"name": "La Alameda", "lat": 20.49528, "lng": -103.24833, "population": 9013}, {"name": "San Hipólito", "lat": 18.94069, "lng": -97.87322, "population": 8999}, {"name": "El Niño", "lat": 32.5075, "lng": -116.79194, "population": 8999}, {"name": "China", "lat": 25.69997, "lng": -99.23454, "population": 8997}, {"name": "Santa María Jalapa del Marqués", "lat": 16.43993, "lng": -95.44374, "population": 8996}, {"name": "Calixtlahuaca", "lat": 19.33651, "lng": -99.68923, "population": 8993}, {"name": "Ixtapa", "lat": 17.66782, "lng": -101.64165, "population": 8992}, {"name": "Fraccionamiento Lomas de Ahuatlán", "lat": 18.95444, "lng": -99.25722, "population": 8990}, {"name": "Salinas Victoria", "lat": 25.96329, "lng": -100.29091, "population": 8979}, {"name": "San Mateo Xoloc", "lat": 19.7065, "lng": -99.24818, "population": 8958}, {"name": "San Francisco Chimalpa", "lat": 19.44279, "lng": -99.34398, "population": 8953}, {"name": "Atzacan", "lat": 18.90724, "lng": -97.08307, "population": 8947}, {"name": "San Pedro Cholula", "lat": 19.26444, "lng": -99.48639, "population": 8941}, {"name": "La Junta", "lat": 28.47921, "lng": -107.32972, "population": 8930}, {"name": "Lomas de Barrillas", "lat": 18.14806, "lng": -94.52639, "population": 8915}, {"name": "Tlacotepec", "lat": 18.68193, "lng": -97.65602, "population": 8908}, {"name": "Tlalixtac de Cabrera", "lat": 17.07066, "lng": -96.64657, "population": 8881}, {"name": "Xaltepec", "lat": 18.88163, "lng": -97.60825, "population": 8865}, {"name": "Tarecuato", "lat": 19.84365, "lng": -102.4652, "population": 8863}, {"name": "San Antonio del Coyote", "lat": 25.69682, "lng": -103.28436, "population": 8856}, {"name": "Coatepec", "lat": 19.38485, "lng": -98.84546, "population": 8841}, {"name": "Talpa de Allende", "lat": 20.38084, "lng": -104.82213, "population": 8839}, {"name": "Vicam", "lat": 27.64307, "lng": -110.29459, "population": 8837}, {"name": "El Sauzal de Rodríguez", "lat": 31.89491, "lng": -116.69323, "population": 8832}, {"name": "Tamulté de las Sabanas", "lat": 18.16047, "lng": -92.78367, "population": 8824}, {"name": "La Venta", "lat": 18.09798, "lng": -94.0452, "population": 8821}, {"name": "Álvaro Obregón", "lat": 19.82498, "lng": -101.03936, "population": 8807}, {"name": "Mascota", "lat": 20.52536, "lng": -104.78516, "population": 8801}, {"name": "Aguililla", "lat": 18.73696, "lng": -102.78853, "population": 8801}, {"name": "San Pedro Chochula", "lat": 19.26359, "lng": -99.4859, "population": 8798}, {"name": "San Pablo Huixtepec", "lat": 16.82154, "lng": -96.78147, "population": 8786}, {"name": "Villa Avila Camacho", "lat": 20.38593, "lng": -97.87989, "population": 8780}, {"name": "Villa del Carbón", "lat": 19.72875, "lng": -99.46362, "population": 8778}, {"name": "Adolfo López Mateos", "lat": 28.46667, "lng": -107.3, "population": 8770}, {"name": "San Isidro Buen Suceso", "lat": 19.15489, "lng": -98.10492, "population": 8769}, {"name": "Piedras Negras", "lat": 18.76937, "lng": -96.17321, "population": 8767}, {"name": "Santa Bárbara", "lat": 26.80257, "lng": -105.81961, "population": 8765}, {"name": "Santiaguito Tlalcilalcalli", "lat": 19.34032, "lng": -99.72717, "population": 8761}, {"name": "Ciudad Insurgentes", "lat": 25.26345, "lng": -111.77444, "population": 8741}, {"name": "Capulín", "lat": 20.47802, "lng": -103.26947, "population": 8724}, {"name": "Emiliano Zapata", "lat": 19.6549, "lng": -98.54497, "population": 8722}, {"name": "Seybaplaya", "lat": 19.63994, "lng": -90.68706, "population": 8711}, {"name": "Tetepango", "lat": 20.10168, "lng": -99.15108, "population": 8705}, {"name": "Lázaro Cárdenas", "lat": 28.39027, "lng": -105.62402, "population": 8704}, {"name": "Marte R. Gómez (Tobarito)", "lat": 27.36778, "lng": -109.88583, "population": 8700}, {"name": "El Cerrillo Vista Hermosa", "lat": 19.32337, "lng": -99.5425, "population": 8699}, {"name": "San José Ixtapa (Barrio Viejo)", "lat": 17.70222, "lng": -101.61944, "population": 8698}, {"name": "Pomuch", "lat": 20.13727, "lng": -90.17488, "population": 8694}, {"name": "Urireo", "lat": 20.21314, "lng": -100.84188, "population": 8679}, {"name": "Fraccionamiento Misión del Valle", "lat": 19.76556, "lng": -101.12167, "population": 8663}, {"name": "Santiago de la Peña", "lat": 20.94461, "lng": -97.40714, "population": 8657}, {"name": "Camalú", "lat": 30.84355, "lng": -116.0623, "population": 8621}, {"name": "Colonia Santa Bárbara", "lat": 19.50191, "lng": -96.87817, "population": 8617}, {"name": "Tacoaleche", "lat": 22.82012, "lng": -102.4034, "population": 8612}, {"name": "Quesería", "lat": 19.38708, "lng": -103.57243, "population": 8611}, {"name": "Cuauhtémoc", "lat": 19.32861, "lng": -103.60284, "population": 8602}, {"name": "Bosque de Saloya", "lat": 18.01611, "lng": -92.95806, "population": 8600}, {"name": "Antúnez", "lat": 19.01586, "lng": -102.20581, "population": 8591}, {"name": "Santa María Rayón", "lat": 19.14808, "lng": -99.57974, "population": 8590}, {"name": "Jesús Gómez Portugal", "lat": 21.99607, "lng": -102.29095, "population": 8579}, {"name": "Miguel Ahumada", "lat": 30.61861, "lng": -106.51222, "population": 8575}, {"name": "San Luis", "lat": 32.43167, "lng": -116.95361, "population": 8571}, {"name": "San Lucas el Grande", "lat": 19.30583, "lng": -98.47833, "population": 8546}, {"name": "Colonia Rincón Viejo", "lat": 16.88678, "lng": -95.04731, "population": 8540}, {"name": "Bacobampo", "lat": 26.98239, "lng": -109.6535, "population": 8539}, {"name": "Jilotzingo", "lat": 19.86889, "lng": -99.06194, "population": 8523}, {"name": "Cuacnopalan", "lat": 18.81758, "lng": -97.51116, "population": 8516}, {"name": "San Andrés Azumiatla", "lat": 18.90417, "lng": -98.25278, "population": 8509}, {"name": "Tlahuelilpan", "lat": 20.13076, "lng": -99.23145, "population": 8498}, {"name": "Acayuca", "lat": 20.02567, "lng": -98.8411, "population": 8470}, {"name": "Ario de Rayón", "lat": 20.02632, "lng": -102.34698, "population": 8464}, {"name": "El Higo", "lat": 21.76708, "lng": -98.45186, "population": 8459}, {"name": "San Gaspar Tlahuelilpan", "lat": 19.2429, "lng": -99.54568, "population": 8456}, {"name": "Arteaga", "lat": 25.44528, "lng": -100.84667, "population": 8446}, {"name": "Rancho Alegre [Fraccionamiento]", "lat": 20.47361, "lng": -103.25778, "population": 8441}, {"name": "Pajapan", "lat": 18.26267, "lng": -94.69172, "population": 8434}, {"name": "Mundo Nuevo", "lat": 18.08755, "lng": -94.38881, "population": 8420}, {"name": "San Juan Tilapa", "lat": 19.22021, "lng": -99.66012, "population": 8420}, {"name": "Coyutla", "lat": 20.2472, "lng": -97.65824, "population": 8413}, {"name": "Santa Rita Tlahuapan", "lat": 19.33211, "lng": -98.57688, "population": 8412}, {"name": "Yerbabuena", "lat": 20.96319, "lng": -101.27448, "population": 8399}, {"name": "Cuapiaxtla", "lat": 19.29588, "lng": -97.7688, "population": 8398}, {"name": "San Pedro Buenavista", "lat": 16.08333, "lng": -93.11667, "population": 8390}, {"name": "Zacapoaxtla", "lat": 19.87271, "lng": -97.58899, "population": 8384}, {"name": "Necaxa", "lat": 20.21271, "lng": -98.01188, "population": 8375}, {"name": "Ex-Rancho San Dimas", "lat": 19.17389, "lng": -99.56528, "population": 8371}, {"name": "Seyé", "lat": 20.83759, "lng": -89.37221, "population": 8369}, {"name": "Jacarandas", "lat": 19.49556, "lng": -96.85278, "population": 8351}, {"name": "El Pino", "lat": 19.35139, "lng": -98.94833, "population": 8332}, {"name": "Alpuyeca", "lat": 18.74006, "lng": -99.25937, "population": 8330}, {"name": "Concordia", "lat": 23.28694, "lng": -106.06389, "population": 8328}, {"name": "Cosolapa", "lat": 18.60074, "lng": -96.6836, "population": 8320}, {"name": "Tepetitla", "lat": 19.26531, "lng": -98.37645, "population": 8316}, {"name": "San Pedro Piedra Gorda", "lat": 22.45001, "lng": -102.34558, "population": 8297}, {"name": "San Pedro Atocpan", "lat": 19.2016, "lng": -99.04963, "population": 8283}, {"name": "Lerma", "lat": 19.80404, "lng": -90.60088, "population": 8281}, {"name": "San Luis Acatlán", "lat": 16.80901, "lng": -98.73331, "population": 8276}, {"name": "San Juan Xiutetelco", "lat": 19.79563, "lng": -97.32578, "population": 8251}, {"name": "Jesús María", "lat": 20.60744, "lng": -102.21974, "population": 8249}, {"name": "Jalapilla", "lat": 18.82555, "lng": -97.08878, "population": 8245}, {"name": "San Juan Tepulco", "lat": 19.11709, "lng": -97.98847, "population": 8232}, {"name": "San Miguel Totocuitlapilco", "lat": 19.22889, "lng": -99.59417, "population": 8207}, {"name": "Nuevo Necaxa", "lat": 20.21049, "lng": -98.00657, "population": 8203}, {"name": "San José las Palmas", "lat": 19.36724, "lng": -98.93368, "population": 8203}, {"name": "Vicente Guerrero", "lat": 18.38932, "lng": -92.89549, "population": 8188}, {"name": "Unión y Progreso", "lat": 18.87278, "lng": -97.11917, "population": 8181}, {"name": "Misión San Pablo", "lat": 25.74, "lng": -100.14417, "population": 8174}, {"name": "Rinconada", "lat": 19.3565, "lng": -96.56798, "population": 8173}, {"name": "San Pablo Villa de Mitla", "lat": 16.92168, "lng": -96.36288, "population": 8167}, {"name": "Ampliación Colonia Lázaro Cárdenas", "lat": 28.38333, "lng": -105.61667, "population": 8161}, {"name": "Copoya", "lat": 16.71191, "lng": -93.12089, "population": 8160}, {"name": "Tatahuicapan", "lat": 18.24621, "lng": -94.76124, "population": 8159}, {"name": "Atotonilco de Tula", "lat": 20.0077, "lng": -99.21804, "population": 8154}, {"name": "Jonacatepec", "lat": 18.68081, "lng": -98.80336, "population": 8123}, {"name": "Isla Soyaltepec", "lat": 18.20107, "lng": -96.48325, "population": 8116}, {"name": "La Negreta", "lat": 20.52744, "lng": -100.45109, "population": 8100}, {"name": "San Martín Hidalgo", "lat": 20.43538, "lng": -103.92878, "population": 8092}, {"name": "Tenextepango", "lat": 18.72889, "lng": -98.95778, "population": 8083}, {"name": "El Pueblito", "lat": 18.88639, "lng": -96.96946, "population": 8078}, {"name": "Tacotalpa", "lat": 17.59638, "lng": -92.82596, "population": 8071}, {"name": "Doctor Alberto Oviedo Mota", "lat": 32.22756, "lng": -115.16792, "population": 8064}, {"name": "Santa Cruz Atizapán", "lat": 19.17692, "lng": -99.48852, "population": 8062}, {"name": "Totolapa", "lat": 20.55587, "lng": -97.47641, "population": 8060}, {"name": "Malinalco", "lat": 18.94847, "lng": -99.49619, "population": 8045}, {"name": "Ejido San Lorenzo Cuauhtenco", "lat": 19.30139, "lng": -99.75028, "population": 8024}, {"name": "Miahuatlán", "lat": 18.29163, "lng": -97.28789, "population": 8016}, {"name": "Santo Domingo de Guzmán", "lat": 19.59306, "lng": -99.77972, "population": 8008}, {"name": "Santa Catarina Ayometla", "lat": 19.19833, "lng": -98.21361, "population": 7992}, {"name": "Tlayacapan", "lat": 18.95556, "lng": -98.98111, "population": 7989}, {"name": "Revolución Mexicana", "lat": 16.17156, "lng": -93.07666, "population": 7989}, {"name": "San Miguel Vindho", "lat": 19.99447, "lng": -99.31782, "population": 7988}, {"name": "Ciudad Camargo", "lat": 26.31481, "lng": -98.83313, "population": 7984}, {"name": "San Bartolo", "lat": 19.83292, "lng": -99.19272, "population": 7951}, {"name": "Atlatlahucan", "lat": 18.93413, "lng": -98.8982, "population": 7941}, {"name": "Altar", "lat": 30.71627, "lng": -111.83804, "population": 7927}, {"name": "La Huerta", "lat": 19.48438, "lng": -104.64237, "population": 7891}, {"name": "San Luis", "lat": 28.43333, "lng": -113.75, "population": 7872}, {"name": "Mazamitla", "lat": 19.91605, "lng": -103.01994, "population": 7865}, {"name": "Concordia", "lat": 25.78034, "lng": -103.11588, "population": 7858}, {"name": "Santo Tomás Chiconautla", "lat": 19.63894, "lng": -99.00755, "population": 7844}, {"name": "Minas de Barroterán", "lat": 27.65241, "lng": -101.28365, "population": 7842}, {"name": "Esperanza", "lat": 18.85853, "lng": -97.37641, "population": 7833}, {"name": "Medellín y Madero Segunda Sección", "lat": 18.11351, "lng": -92.854, "population": 7825}, {"name": "El Espinal", "lat": 16.48573, "lng": -95.04007, "population": 7823}, {"name": "La Ribera", "lat": 20.34782, "lng": -102.27947, "population": 7780}, {"name": "Tingambato", "lat": 19.50159, "lng": -101.85329, "population": 7771}, {"name": "Hacienda Blanca", "lat": 17.13994, "lng": -96.7759, "population": 7758}, {"name": "Huehuetán", "lat": 15.01929, "lng": -92.38309, "population": 7755}, {"name": "Cócorit", "lat": 27.5765, "lng": -109.95919, "population": 7752}, {"name": "Guerrero", "lat": 28.54795, "lng": -107.48648, "population": 7751}, {"name": "Jerécuaro", "lat": 20.15467, "lng": -100.5086, "population": 7748}, {"name": "Santiago Alseseca", "lat": 18.84511, "lng": -97.70716, "population": 7744}, {"name": "Arandas", "lat": 20.72468, "lng": -101.37296, "population": 7722},