[{"name": "Maputo", "lat": -25.96553, "lng": 32.58322, "population": 1254837}, {"name": "Matola", "lat": -25.96222, "lng": 32.45889, "population": 1198988}, {"name": "Nampula", "lat": -15.11646, "lng": 39.2666, "population": 770379}, {"name": "Beira", "lat": -19.84361, "lng": 34.83889, "population": 687764}, {"name": "Chimoio", "lat": -19.11639, "lng": 33.48333, "population": 422046}, {"name": "Tete", "lat": -16.15639, "lng": 33.58667, "population": 357000}, {"name": "Quelimane", "lat": -17.87861, "lng": 36.88833, "population": 349842}, {"name": "Lichinga", "lat": -13.31278, "lng": 35.24056, "population": 281341}, {"name": "Nacala", "lat": -14.56257, "lng": 40.68538, "population": 239808}, {"name": "Pemba", "lat": -12.97395, "lng": 40.51775, "population": 232932}, {"name": "Mocuba", "lat": -16.8375, "lng": 36.98556, "population": 196001}, {"name": "Gurúè", "lat": -15.46694, "lng": 36.97778, "population": 168971}, {"name": "Xai-Xai", "lat": -25.05194, "lng": 33.64417, "population": 154356}, {"name": "Maxixe", "lat": -23.85972, "lng": 35.34722, "population": 126408}, {"name": "Mandimba", "lat": -14.3525, "lng": 35.65056, "population": 118922}, {"name": "Ressano Garcia", "lat": -25.44278, "lng": 31.99528, "population": 110000}, {"name": "Angoche", "lat": -16.2325, "lng": 39.90861, "population": 104540}, {"name": "Inhambane", "lat": -23.865, "lng": 35.38333, "population": 95388}, {"name": "Cuamba", "lat": -14.80306, "lng": 36.53722, "population": 91780}, {"name": "Montepuez", "lat": -13.12556, "lng": 38.99972, "population": 88442}, {"name": "Dondo", "lat": -19.60944, "lng": 34.74306, "population": 82260}, {"name": "Chibuto", "lat": -24.68667, "lng": 33.53056, "population": 73393}, {"name": "Manhiça", "lat": -25.40222, "lng": 32.80722, "population": 65240}, {"name": "Chokwé", "lat": -24.53333, "lng": 32.98333, "population": 63695}, {"name": "Mozambique", "lat": -15.03466, "lng": 40.73447, "population": 55829}, {"name": "Nametil", "lat": -15.72028, "lng": 39.3425, "population": 52457}, {"name": "Monapo", "lat": -14.91694, "lng": 40.30222, "population": 50134}, {"name": "Alto Molocue", "lat": -15.63556, "lng": 37.68833, "population": 49019}, {"name": "Marromeu", "lat": -18.29083, "lng": 35.94528, "population": 45777}, {"name": "Mocímboa da Praia", "lat": -11.35172, "lng": 40.35158, "population": 45313}, {"name": "Moatize", "lat": -16.11528, "lng": 33.72944, "population": 45213}, {"name": "Vilankulo", "lat": -22.0, "lng": 35.31667, "population": 43183}, {"name": "Manica", "lat": -18.93444, "lng": 32.87556, "population": 41961}, {"name": "Gondola", "lat": -19.08833, "lng": 33.64861, "population": 39351}, {"name": "Chiúre", "lat": -13.3825, "lng": 39.78167, "population": 37871}, {"name": "Namialo", "lat": -14.92056, "lng": 39.98361, "population": 37226}, {"name": "Milange", "lat": -16.09861, "lng": 35.77, "population": 35146}, {"name": "Mutuáli", "lat": -14.87056, "lng": 37.00444, "population": 32921}, {"name": "Macia", "lat": -25.02694, "lng": 33.09889, "population": 32286}, {"name": "Songo", "lat": -15.59583, "lng": 32.76472, "population": 31101}, {"name": "Ribáuè", "lat": -14.94473, "lng": 38.32362, "population": 30241}, {"name": "Nhamatanda", "lat": -19.26917, "lng": 34.21278, "population": 30087}, {"name": "Micolene", "lat": -16.73333, "lng": 39.23333, "population": 29686}, {"name": "Mocímboa", "lat": -11.31667, "lng": 40.35, "population": 27909}, {"name": "Boane", "lat": -26.04236, "lng": 32.33027, "population": 27325}, {"name": "Mueda", "lat": -11.66278, "lng": 39.55056, "population": 27274}, {"name": "Namapa-erati", "lat": -13.71302, "lng": 39.83151, "population": 26383}, {"name": "Catandica", "lat": -18.0575, "lng": 33.17361, "population": 25869}, {"name": "Massinga", "lat": -23.32917, "lng": 35.38139, "population": 24312}, {"name": "Mossuril", "lat": -14.96778, "lng": 40.66389, "population": 24079}, {"name": "Morrumbala", "lat": -17.32694, "lng": 35.58417, "population": 24076}, {"name": "Xilembene", "lat": -24.68941, "lng": 33.25844, "population": 23742}, {"name": "Malema", "lat": -14.94747, "lng": 37.41591, "population": 23553}, {"name": "Macomia", "lat": -12.24667, "lng": 40.12083, "population": 23228}, {"name": "Namacurra", "lat": -17.49194, "lng": 37.02889, "population": 22647}, {"name": "Gorongosa", "lat": -18.67556, "lng": 34.07278, "population": 21792}, {"name": "Caia", "lat": -17.82028, "lng": 35.34417, "population": 21179}, {"name": "Iapala", "lat": -15.025, "lng": 38.0425, "population": 20146}, {"name": "Murrupula", "lat": -15.45694, "lng": 38.67722, "population": 19504}, {"name": "Maganja", "lat": -17.31197, "lng": 37.50784, "population": 17900}, {"name": "Chinde", "lat": -18.58111, "lng": 36.45861, "population": 17558}, {"name": "Pebane", "lat": -17.26417, "lng": 38.135, "population": 17167}, {"name": "Búzi", "lat": -19.86439, "lng": 34.46735, "population": 16369}, {"name": "Machipanda", "lat": -18.98604, "lng": 32.73553, "population": 15962}, {"name": "Messica", "lat": -18.99161, "lng": 33.08226, "population": 15907}, {"name": "Ulongué", "lat": -14.72278, "lng": 34.36083, "population": 15820}, {"name": "Moamba", "lat": -25.60268, "lng": 32.24607, "population": 14940}, {"name": "Metangula", "lat": -12.695, "lng": 34.81583, "population": 14835}, {"name": "Namaacha", "lat": -25.97502, "lng": 32.01897, "population": 14781}, {"name": "Inhassoro", "lat": -21.53472, "lng": 35.20222, "population": 13122}, {"name": "Marracuene", "lat": -25.73694, "lng": 32.67639, "population": 13051}, {"name": "Morrumbene", "lat": -23.65778, "lng": 35.345, "population": 12532}, {"name": "Magude", "lat": -25.02306, "lng": 32.64806, "population": 12419}, {"name": "Quissico", "lat": -24.72028, "lng": 34.7425, "population": 12070}, {"name": "Manjacaze", "lat": -24.72389, "lng": 33.85639, "population": 11984}, {"name": "Inhaminga", "lat": -18.41528, "lng": 35.0225, "population": 11564}, {"name": "Xinavane", "lat": -25.16047, "lng": 32.80038, "population": 11534}, {"name": "Meconta", "lat": -14.9925, "lng": 39.84667, "population": 10891}, {"name": "Nhamayabué", "lat": -17.42056, "lng": 35.06583, "population": 10088}, {"name": "Vila Eduardo Mondlane", "lat": -22.07917, "lng": 31.67861, "population": 9665}, {"name": "Marrupa", "lat": -13.18877, "lng": 37.50453, "population": 9565}, {"name": "Inharrime", "lat": -24.47694, "lng": 35.03028, "population": 9415}, {"name": "Bilene", "lat": -25.27264, "lng": 33.24205, "population": 9235}, {"name": "Homoíne", "lat": -23.88444, "lng": 35.15139, "population": 8447}, {"name": "Luabo", "lat": -18.39278, "lng": 36.10528, "population": 7099}, {"name": "Insaca", "lat": -15.19783, "lng": 35.87091, "population": 6668}, {"name": "Caniçado", "lat": -24.41703, "lng": 32.94287, "population": 6608}, {"name": "Ibo", "lat": -12.3426, "lng": 40.5859, "population": 5701}, {"name": "Sanga", "lat": -12.90597, "lng": 35.05008, "population": 4184}, {"name": "Bela Vista", "lat": -26.34065, "lng": 32.66746, "population": 3006}, {"name": "Nova Mambone", "lat": -20.98806, "lng": 35.02222, "population": 2482}, {"name": "Bairro 25 de Junho A", "lat": -25.90028, "lng": 32.55556, "population": 0}, {"name": "Bairro 25 de Junho B", "lat": -25.90111, "lng": 32.5775, "population": 0}]