[{"name": "Windhoek", "lat": -22.55941, "lng": 17.08323, "population": 386219}, {"name": "Rundu", "lat": -17.91796, "lng": 19.77314, "population": 75180}, {"name": "Walvis Bay", "lat": -22.9575, "lng": 14.50528, "population": 73598}, {"name": "Swakopmund", "lat": -22.67842, "lng": 14.52663, "population": 53009}, {"name": "Oshakati", "lat": -17.78833, "lng": 15.70436, "population": 43309}, {"name": "Rehoboth", "lat": -23.317, "lng": 17.09, "population": 34185}, {"name": "Katima Mulilo", "lat": -17.50467, "lng": 24.27574, "population": 33615}, {"name": "Otjiwarongo", "lat": -20.46369, "lng": 16.64772, "population": 33481}, {"name": "Ondangwa", "lat": -17.90824, "lng": 15.98037, "population": 27049}, {"name": "Okahandja", "lat": -21.98141, "lng": 16.9029, "population": 26832}, {"name": "Grootfontein", "lat": -19.57328, "lng": 18.1003, "population": 24099}, {"name": "Ongwediva", "lat": -17.77198, "lng": 15.76564, "population": 24012}, {"name": "Keetmanshoop", "lat": -26.57654, "lng": 18.13359, "population": 23049}, {"name": "Helao Nafidi", "lat": -17.39321, "lng": 15.89107, "population": 22963}, {"name": "Tsumeb", "lat": -19.24842, "lng": 17.71345, "population": 22845}, {"name": "Gobabis", "lat": -22.45338, "lng": 18.97159, "population": 22639}, {"name": "Katutura", "lat": -22.52306, "lng": 17.06028, "population": 21243}, {"name": "Ndiyona", "lat": -18.03892, "lng": 20.70058, "population": 20633}, {"name": "Lüderitz", "lat": -26.64807, "lng": 15.15383, "population": 15137}, {"name": "Mariental", "lat": -24.62705, "lng": 17.96471, "population": 14789}, {"name": "Khorixas", "lat": -20.37711, "lng": 14.96203, "population": 12021}, {"name": "Omaruru", "lat": -21.42403, "lng": 15.94611, "population": 11547}, {"name": "Bethanie", "lat": -26.49958, "lng": 17.1599, "population": 10363}, {"name": "Outjo", "lat": -20.10691, "lng": 16.15415, "population": 10009}, {"name": "Usakos", "lat": -22.00219, "lng": 15.58601, "population": 9147}, {"name": "Opuwo", "lat": -18.06068, "lng": 13.83998, "population": 9075}, {"name": "Oranjemund", "lat": -28.55153, "lng": 16.42728, "population": 8496}, {"name": "Otjimbingwe", "lat": -22.35536, "lng": 16.12883, "population": 7677}, {"name": "Outapi", "lat": -17.50375, "lng": 14.98383, "population": 7629}, {"name": "Okahao", "lat": -17.88758, "lng": 15.06677, "population": 7000}, {"name": "Karibib", "lat": -21.93554, "lng": 15.85654, "population": 6898}, {"name": "Warmbad", "lat": -28.44611, "lng": 18.73569, "population": 6700}, {"name": "Eenhana", "lat": -17.48535, "lng": 16.3294, "population": 6551}, {"name": "Rosh Pinah", "lat": -27.96605, "lng": 16.76136, "population": 6540}, {"name": "Otavi", "lat": -19.63805, "lng": 17.33986, "population": 6213}, {"name": "Arandis", "lat": -22.41749, "lng": 14.97385, "population": 6127}, {"name": "Karasburg", "lat": -28.01658, "lng": 18.74797, "population": 6054}, {"name": "Osire", "lat": -21.07391, "lng": 17.36599, "population": 5941}, {"name": "Ondangwa East", "lat": -17.93021, "lng": 16.0172, "population": 5742}, {"name": "Henties Bay", "lat": -22.11609, "lng": 14.28394, "population": 5594}, {"name": "Okakarara", "lat": -20.58755, "lng": 17.45942, "population": 5581}, {"name": "Aussenkehr", "lat": -28.36274, "lng": 17.41272, "population": 5359}, {"name": "Omuthiya", "lat": -18.36463, "lng": 16.58146, "population": 5000}, {"name": "Oniipa", "lat": -17.91667, "lng": 16.03333, "population": 4740}, {"name": "Aranos", "lat": -24.14126, "lng": 19.11754, "population": 4365}, {"name": "Tsintsabis", "lat": -18.76936, "lng": 17.9629, "population": 4000}, {"name": "Ruacana", "lat": -17.42817, "lng": 14.41504, "population": 3537}, {"name": "Groot Aub", "lat": -22.9385, "lng": 17.19534, "population": 3452}, {"name": "Oshikuku", "lat": -17.63584, "lng": 15.48173, "population": 3272}, {"name": "Gibeon", "lat": -25.12213, "lng": 17.76935, "population": 3118}, {"name": "Hoachanas", "lat": -23.92109, "lng": 18.05328, "population": 3000}, {"name": "Maltahöhe", "lat": -24.83923, "lng": 16.9859, "population": 2819}, {"name": "Ongandjera", "lat": -17.87847, "lng": 15.06961, "population": 2719}, {"name": "Oshikango", "lat": -17.40161, "lng": 15.89077, "population": 2658}, {"name": "Ekongo", "lat": -17.56667, "lng": 17.21667, "population": 2650}, {"name": "Otjinene", "lat": -21.13889, "lng": 18.7836, "population": 2491}, {"name": "Noordoewer", "lat": -28.71817, "lng": 17.62147, "population": 2401}, {"name": "Stampriet", "lat": -24.34494, "lng": 18.40464, "population": 2307}, {"name": "Oshivelo", "lat": -18.61972, "lng": 17.16743, "population": 2287}, {"name": "Kamanjab", "lat": -19.62882, "lng": 14.8452, "population": 2127}, {"name": "Witvlei", "lat": -22.41039, "lng": 18.49359, "population": 2095}, {"name": "Bagani", "lat": -18.11065, "lng": 21.61645, "population": 2000}, {"name": "Tses", "lat": -25.88489, "lng": 18.12469, "population": 2000}, {"name": "Aroab", "lat": -26.79744, "lng": 19.6527, "population": 1967}, {"name": "Koës", "lat": -25.93091, "lng": 19.12814, "population": 1813}, {"name": "Uis", "lat": -21.2177, "lng": 14.86569, "population": 1771}, {"name": "Tsumkwe", "lat": -19.59363, "lng": 20.50203, "population": 1664}, {"name": "Kalkfeld", "lat": -20.88719, "lng": 16.19038, "population": 1656}, {"name": "Kalkrand", "lat": -24.07367, "lng": 17.58635, "population": 1467}, {"name": "Leonardville", "lat": -23.50462, "lng": 18.7912, "population": 1411}, {"name": "Okondjatu", "lat": -20.98168, "lng": 18.22422, "population": 1386}, {"name": "Gochas", "lat": -24.85762, "lng": 18.80137, "population": 1378}, {"name": "Okalongo", "lat": -17.44006, "lng": 15.33234, "population": 1320}, {"name": "Okombahe", "lat": -21.358, "lng": 15.37748, "population": 1295}, {"name": "Aus", "lat": -26.66557, "lng": 16.26109, "population": 1263}, {"name": "Schlip", "lat": -24.04631, "lng": 17.12844, "population": 1141}, {"name": "Sesfontein", "lat": -19.12279, "lng": 13.6205, "population": 1088}, {"name": "Linyanti", "lat": -18.07229, "lng": 24.01566, "population": 1061}, {"name": "Tsandi", "lat": -17.74292, "lng": 14.88575, "population": 1056}, {"name": "Nkurenkuru", "lat": -17.64182, "lng": 18.61966, "population": 732}]