[{"name": "Nouméa", "lat": -22.27407, "lng": 166.44884, "population": 93060}, {"name": "Mont-Dore", "lat": -22.26257, "lng": 166.56621, "population": 24680}, {"name": "Dumbéa", "lat": -22.15757, "lng": 166.4572, "population": 19346}, {"name": "Païta", "lat": -22.13105, "lng": 166.35717, "population": 12617}, {"name": "Wé", "lat": -20.91687, "lng": 167.26461, "population": 10375}, {"name": "Vallée des Colons", "lat": -22.27727, "lng": 166.45803, "population": 8866}, {"name": "Tadine", "lat": -21.54751, "lng": 167.88019, "population": 7492}, {"name": "Magenta", "lat": -22.26867, "lng": 166.47122, "population": 7169}, {"name": "Rivière-Salée", "lat": -22.23144, "lng": 166.46421, "population": 6873}, {"name": "Bourail", "lat": -21.5669, "lng": 165.49736, "population": 5531}, {"name": "Poindimié", "lat": -20.93714, "lng": 165.33121, "population": 5006}, {"name": "Koné", "lat": -21.05951, "lng": 164.86582, "population": 4572}, {"name": "Houaïlou", "lat": -21.28333, "lng": 165.61667, "population": 4562}, {"name": "Portes de Fer", "lat": -22.25796, "lng": 166.46081, "population": 4093}, {"name": "Aérodrome", "lat": -22.25496, "lng": 166.47022, "population": 3951}, {"name": "Septième Kilomètre", "lat": -22.23135, "lng": 166.48082, "population": 3944}, {"name": "Anse-Vata", "lat": -22.30037, "lng": 166.44347, "population": 3729}, {"name": "Val Plaisance", "lat": -22.30048, "lng": 166.45469, "population": 3631}, {"name": "N'Géa", "lat": -22.28953, "lng": 166.45411, "population": 3624}, {"name": "Canala", "lat": -21.53333, "lng": 165.95, "population": 3538}, {"name": "Nouville", "lat": -22.26024, "lng": 166.40225, "population": 3481}, {"name": "Ouvéa", "lat": -20.65284, "lng": 166.53641, "population": 3401}, {"name": "Normandie", "lat": -22.2225, "lng": 166.48007, "population": 3316}, {"name": "Kaméré", "lat": -22.23, "lng": 166.43244, "population": 3127}, {"name": "Koumac", "lat": -20.56667, "lng": 164.28333, "population": 3060}, {"name": "Sixième Kilomètre", "lat": -22.24626, "lng": 166.47204, "population": 2949}, {"name": "La Foa", "lat": -21.71079, "lng": 165.82764, "population": 2947}, {"name": "Trianon", "lat": -22.2871, "lng": 166.44913, "population": 2944}, {"name": "Thio", "lat": -21.61667, "lng": 166.21667, "population": 2748}, {"name": "Ponérihouen", "lat": -21.08333, "lng": 165.4, "population": 2739}, {"name": "Faubourg Blanchot", "lat": -22.28186, "lng": 166.4541, "population": 2730}, {"name": "Vallée du Génie", "lat": -22.27065, "lng": 166.44113, "population": 2699}, {"name": "Hienghène", "lat": -20.68333, "lng": 164.93333, "population": 2668}, {"name": "Poya", "lat": -21.35, "lng": 165.15, "population": 2617}, {"name": "Receiving", "lat": -22.29227, "lng": 166.4427, "population": 2604}, {"name": "Pouébo", "lat": -20.4, "lng": 164.56667, "population": 2391}, {"name": "Touho", "lat": -20.79094, "lng": 165.24987, "population": 2283}, {"name": "Voh", "lat": -20.96667, "lng": 164.7, "population": 2272}, {"name": "Quartier Latin", "lat": -22.27538, "lng": 166.44651, "population": 2267}, {"name": "Quatrième Kilomètre", "lat": -22.24616, "lng": 166.46159, "population": 2267}, {"name": "Vallée du Tir", "lat": -22.2609, "lng": 166.44715, "population": 2190}, {"name": "Bouloupari", "lat": -21.86226, "lng": 166.05122, "population": 2146}, {"name": "Ouégoa", "lat": -20.35, "lng": 164.43333, "population": 2127}, {"name": "Baie Des Citrons", "lat": -22.29072, "lng": 166.43639, "population": 2097}, {"name": "Ducos", "lat": -22.2415, "lng": 166.4234, "population": 2082}, {"name": "Haut-Magenta", "lat": -22.2632, "lng": 166.45863, "population": 2010}, {"name": "Kaala-Gomén", "lat": -20.66667, "lng": 164.4, "population": 1897}, {"name": "Yaté-Barrage", "lat": -22.15, "lng": 166.88333, "population": 1871}, {"name": "Vao", "lat": -22.66645, "lng": 167.49627, "population": 1862}, {"name": "Montravel", "lat": -22.25165, "lng": 166.45467, "population": 1858}, {"name": "Ouémo", "lat": -22.27441, "lng": 166.4766, "population": 1636}, {"name": "Tina", "lat": -22.23437, "lng": 166.49631, "population": 1586}, {"name": "Pouembout", "lat": -21.13333, "lng": 164.9, "population": 1511}, {"name": "Orphelinat", "lat": -22.28238, "lng": 166.44437, "population": 1414}, {"name": "Poum", "lat": -20.23333, "lng": 164.01667, "population": 1405}, {"name": "Artillerie", "lat": -22.27972, "lng": 166.43897, "population": 1398}, {"name": "Tindu", "lat": -22.23119, "lng": 166.42004, "population": 1391}, {"name": "Logicoop", "lat": -22.23528, "lng": 166.43455, "population": 1208}, {"name": "Zone industriel Ducos", "lat": -22.2393, "lng": 166.44686, "population": 1151}, {"name": "Wala", "lat": -19.71161, "lng": 163.64702, "population": 890}]