[{"name": "Lagos", "lat": 6.45407, "lng": 3.39467, "population": 15388000}, {"name": "Kano", "lat": 12.00012, "lng": 8.51672, "population": 4910000}, {"name": "Ibadan", "lat": 7.37756, "lng": 3.90591, "population": 3649000}, {"name": "Abuja", "lat": 9.05785, "lng": 7.49508, "population": 2690000}, {"name": "Port Harcourt", "lat": 4.77742, "lng": 7.0134, "population": 2120000}, {"name": "Kaduna", "lat": 10.52641, "lng": 7.43879, "population": 1850000}, {"name": "Benin City", "lat": 6.33815, "lng": 5.62575, "population": 1782000}, {"name": "Onitsha", "lat": 6.14978, "lng": 6.78569, "population": 1553000}, {"name": "Aba", "lat": 5.10658, "lng": 7.36667, "population": 1160000}, {"name": "Maiduguri", "lat": 11.84692, "lng": 13.15712, "population": 1110000}, {"name": "Ilorin", "lat": 8.49664, "lng": 4.54214, "population": 1080000}, {"name": "Sokoto", "lat": 13.06269, "lng": 5.24322, "population": 1040000}, {"name": "Jos", "lat": 9.92849, "lng": 8.89212, "population": 1040000}, {"name": "Zaria", "lat": 11.11128, "lng": 7.7227, "population": 980000}, {"name": "Enugu", "lat": 6.44132, "lng": 7.49883, "population": 950000}, {"name": "Warri", "lat": 5.51737, "lng": 5.75006, "population": 910000}, {"name": "Oyo", "lat": 7.85367, "lng": 3.93235, "population": 736072}, {"name": "Abeokuta", "lat": 7.15571, "lng": 3.34509, "population": 735000}, {"name": "Akure", "lat": 7.25256, "lng": 5.19312, "population": 730000}, {"name": "Bauchi", "lat": 10.31032, "lng": 9.84388, "population": 693700}, {"name": "Katsina", "lat": 12.99082, "lng": 7.60177, "population": 670000}, {"name": "Osogbo", "lat": 7.77104, "lng": 4.55698, "population": 645000}, {"name": "Ile-Ife", "lat": 7.4824, "lng": 4.56032, "population": 560000}, {"name": "Gombe", "lat": 10.28969, "lng": 11.16729, "population": 560000}, {"name": "Ajegunle", "lat": 6.45197, "lng": 3.33115, "population": 550000}, {"name": "Owerri", "lat": 5.48363, "lng": 7.03325, "population": 545000}, {"name": "Calabar", "lat": 4.95893, "lng": 8.32695, "population": 540000}, {"name": "Ebute Ikorodu", "lat": 6.60086, "lng": 3.48818, "population": 535619}, {"name": "Okene", "lat": 7.55122, "lng": 6.23589, "population": 479178}, {"name": "Ikare", "lat": 7.52591, "lng": 5.75342, "population": 465000}, {"name": "Yola", "lat": 9.20839, "lng": 12.48146, "population": 460000}, {"name": "Uyo", "lat": 5.05127, "lng": 7.9335, "population": 436606}, {"name": "Ado-Ekiti", "lat": 7.62329, "lng": 5.22087, "population": 435000}, {"name": "Ogbomoso", "lat": 8.13373, "lng": 4.24014, "population": 433030}, {"name": "Minna", "lat": 9.61524, "lng": 6.54776, "population": 425000}, {"name": "Lekki", "lat": 6.41222, "lng": 4.0947, "population": 401272}, {"name": "Bida", "lat": 9.08044, "lng": 6.0099, "population": 400000}, {"name": "Makurdi", "lat": 7.73375, "lng": 8.52139, "population": 390000}, {"name": "Ondo", "lat": 7.09316, "lng": 4.83528, "population": 375000}, {"name": "Umuahia", "lat": 5.52491, "lng": 7.49461, "population": 370000}, {"name": "Iseyin", "lat": 7.97022, "lng": 3.59626, "population": 365300}, {"name": "Yenagoa", "lat": 4.92675, "lng": 6.26764, "population": 365000}, {"name": "Gboko", "lat": 7.32275, "lng": 9.00108, "population": 365000}, {"name": "Ijebu Ode", "lat": 6.81944, "lng": 3.91731, "population": 360000}, {"name": "Obalende", "lat": 6.44694, "lng": 3.41528, "population": 342000}, {"name": "Ilesa", "lat": 7.62789, "lng": 4.74161, "population": 325000}, {"name": "Ikeja", "lat": 6.59651, "lng": 3.34205, "population": 313196}, {"name": "Akowonjo", "lat": 6.61012, "lng": 3.30968, "population": 308900}, {"name": "Alimosho", "lat": 6.60656, "lng": 3.30235, "population": 308290}, {"name": "Sapele", "lat": 5.89405, "lng": 5.67666, "population": 305000}, {"name": "Efon-Alaaye", "lat": 7.65649, "lng": 4.92235, "population": 279319}, {"name": "Owo", "lat": 7.1962, "lng": 5.58681, "population": 276574}, {"name": "Ikot Ekpene", "lat": 5.18194, "lng": 7.71481, "population": 254806}, {"name": "Iwo", "lat": 7.63527, "lng": 4.18156, "population": 250443}, {"name": "Jimeta", "lat": 9.27949, "lng": 12.45819, "population": 248148}, {"name": "Atani", "lat": 6.01277, "lng": 6.74768, "population": 230000}, {"name": "Aliayabiagba", "lat": 6.45, "lng": 3.33333, "population": 228000}, {"name": "Gusau", "lat": 12.17024, "lng": 6.66412, "population": 226857}, {"name": "Mubi", "lat": 10.26858, "lng": 13.26701, "population": 225705}, {"name": "Ikire", "lat": 7.36983, "lng": 4.1863, "population": 222160}, {"name": "Shagamu", "lat": 6.8485, "lng": 3.64633, "population": 214558}, {"name": "Ugep", "lat": 5.80865, "lng": 8.08098, "population": 200276}, {"name": "Chakwama", "lat": 11.55965, "lng": 9.66407, "population": 200000}, {"name": "Mushin", "lat": 6.52799, "lng": 3.35411, "population": 199000}, {"name": "Nnewi", "lat": 6.01962, "lng": 6.91729, "population": 193987}, {"name": "Surulere", "lat": 6.50153, "lng": 3.35808, "population": 191920}, {"name": "Ise-Ekiti", "lat": 7.46478, "lng": 5.42333, "population": 190063}, {"name": "Ila Orangun", "lat": 8.01714, "lng": 4.90421, "population": 179192}, {"name": "Saki", "lat": 8.66762, "lng": 3.39393, "population": 178677}, {"name": "Oshodi", "lat": 6.55504, "lng": 3.34363, "population": 170870}, {"name": "Awka", "lat": 6.21269, "lng": 7.07199, "population": 167738}, {"name": "Ijero-Ekiti", "lat": 7.81514, "lng": 5.06716, "population": 167632}, {"name": "Inisa", "lat": 7.84855, "lng": 4.32981, "population": 164161}, {"name": "Suleja", "lat": 9.18059, "lng": 7.17939, "population": 162135}, {"name": "Ede", "lat": 7.73635, "lng": 4.43536, "population": 159866}, {"name": "Kisi", "lat": 9.08297, "lng": 3.85196, "population": 155510}, {"name": "Shomolu", "lat": 6.53891, "lng": 3.3742, "population": 154390}, {"name": "Irewe", "lat": 6.41692, "lng": 3.14058, "population": 139494}, {"name": "Gbongan", "lat": 7.47734, "lng": 4.35351, "population": 139485}, {"name": "Ejigbo", "lat": 7.90303, "lng": 4.31364, "population": 138357}, {"name": "Funtua", "lat": 11.52351, "lng": 7.31174, "population": 136811}, {"name": "Igboho", "lat": 8.83784, "lng": 3.75628, "population": 136764}, {"name": "Buguma", "lat": 4.73614, "lng": 6.86236, "population": 135404}, {"name": "Ikirun", "lat": 7.91283, "lng": 4.66741, "population": 134240}, {"name": "Abakaliki", "lat": 6.32485, "lng": 8.11368, "population": 134102}, {"name": "Okrika", "lat": 4.74215, "lng": 7.08368, "population": 133271}, {"name": "Amaigbo", "lat": 5.78917, "lng": 7.83829, "population": 127300}, {"name": "Lafia", "lat": 8.4939, "lng": 8.51532, "population": 127236}, {"name": "Gashua", "lat": 12.87398, "lng": 11.04057, "population": 125817}, {"name": "Modakeke", "lat": 7.38299, "lng": 4.26031, "population": 119529}, {"name": "Bama", "lat": 11.52134, "lng": 13.68952, "population": 118121}, {"name": "Ilobu", "lat": 7.83879, "lng": 4.48672, "population": 118089}, {"name": "Jalingo", "lat": 8.89367, "lng": 11.3596, "population": 117757}, {"name": "Okigwe", "lat": 5.82917, "lng": 7.35056, "population": 115499}, {"name": "Offa", "lat": 8.14911, "lng": 4.72074, "population": 113830}, {"name": "Esuk Oron", "lat": 4.80293, "lng": 8.25341, "population": 112033}, {"name": "Nsukka", "lat": 6.85783, "lng": 7.39577, "population": 111017}, {"name": "Nguru", "lat": 12.87695, "lng": 10.45536, "population": 111014}, {"name": "Hadejia", "lat": 12.45347, "lng": 10.04115, "population": 110753}, {"name": "Ijebu-Igbo", "lat": 6.97198, "lng": 3.99938, "population": 109261}, {"name": "Uromi", "lat": 6.7, "lng": 6.33333, "population": 108608}, {"name": "Birnin Kebbi", "lat": 12.45389, "lng": 4.1975, "population": 108164}, {"name": "Pindiga", "lat": 9.98433, "lng": 10.95229, "population": 106322}, {"name": "Azare", "lat": 11.67478, "lng": 10.19069, "population": 105687}, {"name": "Nkpor", "lat": 6.15038, "lng": 6.83042, "population": 103733}, {"name": "Ikere-Ekiti", "lat": 7.49748, "lng": 5.23041, "population": 103054}, {"name": "Lafiagi", "lat": 8.85299, "lng": 5.41641, "population": 102779}, {"name": "Kontagora", "lat": 10.40319, "lng": 5.4708, "population": 98754}, {"name": "Kuje", "lat": 8.87952, "lng": 7.22756, "population": 97367}, {"name": "Biu", "lat": 10.61285, "lng": 12.19458, "population": 95005}, {"name": "Olupona", "lat": 7.60039, "lng": 4.19264, "population": 95002}, {"name": "Lere", "lat": 10.38584, "lng": 8.57286, "population": 93290}, {"name": "Wukari", "lat": 7.87139, "lng": 9.77786, "population": 92933}, {"name": "Igbo-Ora", "lat": 7.43383, "lng": 3.28788, "population": 92719}, {"name": "Emure-Ekiti", "lat": 7.43636, "lng": 5.45925, "population": 90645}, {"name": "Isieke", "lat": 6.38186, "lng": 8.03736, "population": 89990}, {"name": "Ifo", "lat": 6.81491, "lng": 3.19518, "population": 88272}, {"name": "Igede-Ekiti", "lat": 7.6685, "lng": 5.12627, "population": 87282}, {"name": "Effium", "lat": 6.63105, "lng": 8.05814, "population": 86945}, {"name": "Idanre", "lat": 7.1127, "lng": 5.1159, "population": 86468}, {"name": "Potiskum", "lat": 11.71391, "lng": 11.08108, "population": 86002}, {"name": "Keffi", "lat": 8.84651, "lng": 7.87354, "population": 85911}, {"name": "Makoko", "lat": 6.49611, "lng": 3.38778, "population": 85840}, {"name": "Epe", "lat": 6.58412, "lng": 3.98336, "population": 84711}, {"name": "Gamboru", "lat": 12.37299, "lng": 14.2069, "population": 84672}, {"name": "Ogaminana", "lat": 7.59383, "lng": 6.21798, "population": 84373}, {"name": "Ihiala", "lat": 5.85475, "lng": 6.85944, "population": 83265}, {"name": "Ipoti", "lat": 7.87377, "lng": 5.07691, "population": 82113}, {"name": "Lalupon", "lat": 7.46791, "lng": 4.06594, "population": 81130}, {"name": "Ughelli", "lat": 5.48956, "lng": 6.00407, "population": 79986}, {"name": "Bende", "lat": 5.55874, "lng": 7.63359, "population": 79618}, {"name": "Oke Mesi", "lat": 7.81667, "lng": 4.91667, "population": 79563}, {"name": "Kafanchan", "lat": 9.58126, "lng": 8.2926, "population": 79522}, {"name": "Ikom", "lat": 5.96669, "lng": 8.70632, "population": 79103}, {"name": "Agulu", "lat": 6.10045, "lng": 7.061, "population": 79021}, {"name": "Daura", "lat": 11.5541, "lng": 11.406, "population": 78277}, {"name": "Numan", "lat": 9.46374, "lng": 12.03062, "population": 77617}, {"name": "Kagoro", "lat": 9.60776, "lng": 8.39043, "population": 77008}, {"name": "Ode", "lat": 7.7899, "lng": 5.7117, "population": 75463}, {"name": "Igbo-Ukwu", "lat": 6.01798, "lng": 7.02027, "population": 75224}, {"name": "Aramoko-Ekiti", "lat": 7.70483, "lng": 5.04054, "population": 74491}, {"name": "Igbara-Odo", "lat": 7.50251, "lng": 5.06258, "population": 74121}, {"name": "Ozubulu", "lat": 5.95753, "lng": 6.85305, "population": 73812}, {"name": "Aku", "lat": 6.70902, "lng": 7.31826, "population": 73742}, {"name": "Oyan", "lat": 8.05, "lng": 4.76667, "population": 73622}, {"name": "Jega", "lat": 12.22336, "lng": 4.37971, "population": 73495}, {"name": "Asaba", "lat": 6.19824, "lng": 6.73187, "population": 73374}, {"name": "Ohafia-Ifigh", "lat": 5.61455, "lng": 7.81191, "population": 73355}, {"name": "Afikpo", "lat": 5.89258, "lng": 7.93534, "population": 71866}, {"name": "Apomu", "lat": 7.35156, "lng": 4.18335, "population": 71656}, {"name": "Fiditi", "lat": 7.71393, "lng": 3.91665, "population": 71461}, {"name": "Orita-Eruwa", "lat": 7.55632, "lng": 3.44107, "population": 71027}, {"name": "Eha Amufu", "lat": 6.65915, "lng": 7.75961, "population": 70779}, {"name": "Malumfashi", "lat": 11.78935, "lng": 7.62061, "population": 70709}, {"name": "Kaura Namoda", "lat": 12.59371, "lng": 6.58648, "population": 69725}, {"name": "Enugu-Ukwu", "lat": 6.17146, "lng": 7.00525, "population": 68785}, {"name": "Idah", "lat": 7.11345, "lng": 6.73866, "population": 68703}, {"name": "Obonoma", "lat": 4.71131, "lng": 6.79084, "population": 68584}, {"name": "Agbor", "lat": 6.25375, "lng": 6.1942, "population": 67610}, {"name": "Ezza-Ohu", "lat": 6.44094, "lng": 8.08432, "population": 67414}, {"name": "Uga", "lat": 5.93576, "lng": 7.0793, "population": 64179}, {"name": "Nkwerre", "lat": 5.75917, "lng": 7.10384, "population": 62973}, {"name": "Auchi", "lat": 7.06756, "lng": 6.2636, "population": 62907}, {"name": "Lokoja", "lat": 7.79688, "lng": 6.74048, "population": 60579}, {"name": "Ekpoma", "lat": 6.743, "lng": 6.14029, "population": 59618}, {"name": "Ijebu-Jesa", "lat": 7.68287, "lng": 4.81769, "population": 51730}, {"name": "Kabba", "lat": 7.82719, "lng": 6.07502, "population": 49869}, {"name": "Ilaro", "lat": 6.88901, "lng": 3.01416, "population": 46999}, {"name": "Damaturu", "lat": 11.74697, "lng": 11.96083, "population": 46000}, {"name": "Argungu", "lat": 12.74482, "lng": 4.52514, "population": 45584}, {"name": "Gumel", "lat": 12.6269, "lng": 9.38807, "population": 42742}, {"name": "Geidam", "lat": 12.89439, "lng": 11.92649, "population": 41367}, {"name": "Talata Mafara", "lat": 12.56841, "lng": 6.06225, "population": 39045}, {"name": "Gummi", "lat": 12.14484, "lng": 5.11776, "population": 38744}, {"name": "Otan Ayegbaju", "lat": 7.94783, "lng": 4.78836, "population": 37783}, {"name": "Ogoja", "lat": 6.6584, "lng": 8.79923, "population": 37466}, {"name": "Katsina-Ala", "lat": 7.16938, "lng": 9.28465, "population": 36722}, {"name": "Igangan", "lat": 7.6807, "lng": 3.18413, "population": 36447}, {"name": "Itu", "lat": 5.20131, "lng": 7.98373, "population": 36358}, {"name": "Kumo", "lat": 10.04807, "lng": 11.21055, "population": 35712}, {"name": "Oke Ila", "lat": 7.95, "lng": 4.98333, "population": 35000}, {"name": "Eruwa", "lat": 7.53906, "lng": 3.42453, "population": 34802}, {"name": "Pankshin", "lat": 9.32541, "lng": 9.4352, "population": 31516}, {"name": "Nasarawa", "lat": 8.53895, "lng": 7.70821, "population": 30949}, {"name": "Kachia", "lat": 9.87342, "lng": 7.95407, "population": 30893}, {"name": "Dikwa", "lat": 12.03609, "lng": 13.91815, "population": 29026}, {"name": "Moriki", "lat": 12.87405, "lng": 6.48754, "population": 28735}, {"name": "Patigi", "lat": 8.72851, "lng": 5.75561, "population": 28285}, {"name": "Wamba", "lat": 8.94153, "lng": 8.60315, "population": 27137}, {"name": "Baro", "lat": 8.61565, "lng": 6.4185, "population": 26821}, {"name": "Okuta", "lat": 9.21866, "lng": 3.20117, "population": 26589}, {"name": "Birnin Kudu", "lat": 11.45207, "lng": 9.47856, "population": 26565}, {"name": "Badagry", "lat": 6.41502, "lng": 2.88132, "population": 26383}, {"name": "Ogwashi-Uku", "lat": 6.17811, "lng": 6.52461, "population": 26137}, {"name": "Eket", "lat": 4.64231, "lng": 7.92438, "population": 25569}, {"name": "Kamba", "lat": 11.85172, "lng": 3.65478, "population": 25568}, {"name": "Daura", "lat": 13.03299, "lng": 8.32351, "population": 25289}, {"name": "Takum", "lat": 7.26667, "lng": 9.98333, "population": 24822}, {"name": "Igbeti", "lat": 8.74921, "lng": 4.13113, "population": 24690}, {"name": "Zungeru", "lat": 9.80726, "lng": 6.15238, "population": 24447}, {"name": "Zuru", "lat": 11.43522, "lng": 5.23494, "population": 24338}, {"name": "Tegina", "lat": 10.0706, "lng": 6.1906, "population": 24037}, {"name": "Awgu", "lat": 6.07278, "lng": 7.47739, "population": 23175}, {"name": "Wudil", "lat": 11.80937, "lng": 8.84422, "population": 23066}, {"name": "Nafada", "lat": 11.09596, "lng": 11.33261, "population": 22920}, {"name": "Ibi", "lat": 8.18122, "lng": 9.74431, "population": 22757}, {"name": "Sofo-Birnin-Gwari", "lat": 11.01537, "lng": 6.78036, "population": 22380}, {"name": "Dutsen Wai", "lat": 10.85009, "lng": 8.199, "population": 22062}, {"name": "Kaiama", "lat": 9.6053, "lng": 3.94101, "population": 21897}, {"name": "Ubiaja", "lat": 6.65581, "lng": 6.38494, "population": 21782}, {"name": "Otukpa", "lat": 7.10168, "lng": 7.65945, "population": 21686}, {"name": "Oguta", "lat": 5.71044, "lng": 6.80936, "population": 21639}, {"name": "Damboa", "lat": 11.15534, "lng": 12.75638, "population": 21571}, {"name": "Jebba", "lat": 9.11972, "lng": 4.8236, "population": 21488}, {"name": "Garko", "lat": 10.17506, "lng": 11.16458, "population": 21141}, {"name": "Mokwa", "lat": 9.29482, "lng": 5.05412, "population": 21128}, {"name": "Gaya", "lat": 11.86064, "lng": 9.0027, "population": 20959}, {"name": "Tambuwal", "lat": 12.40592, "lng": 4.64605, "population": 20932}, {"name": "Elele", "lat": 5.1009, "lng": 6.81411, "population": 20620}, {"name": "Monguno", "lat": 12.67059, "lng": 13.61224, "population": 20297}, {"name": "Kwale", "lat": 5.70773, "lng": 6.43402, "population": 20226}, {"name": "Gembu", "lat": 6.72556, "lng": 11.25652, "population": 19881}, {"name": "Obudu", "lat": 6.66819, "lng": 9.16453, "population": 19668}, {"name": "Gombi", "lat": 10.16756, "lng": 12.73684, "population": 19616}, {"name": "Magumeri", "lat": 12.11451, "lng": 12.8262, "population": 19363}, {"name": "Degema Hulk", "lat": 4.76145, "lng": 6.74957, "population": 19223}, {"name": "Enugu-Ezike", "lat": 6.9827, "lng": 7.45534, "population": 18989}, {"name": "Kari", "lat": 11.2471, "lng": 10.561, "population": 18812}, {"name": "Darazo", "lat": 10.9992, "lng": 10.41062, "population": 18415}, {"name": "Rano", "lat": 11.55684, "lng": 8.58065, "population": 17972}, {"name": "Kiyawa", "lat": 11.78442, "lng": 9.6069, "population": 17704}, {"name": "Deba", "lat": 10.21187, "lng": 11.3871, "population": 17671}, {"name": "Igbor", "lat": 7.45123, "lng": 8.60805, "population": 17666}, {"name": "Babana", "lat": 10.42949, "lng": 3.81495, "population": 17617}, {"name": "Egbe", "lat": 8.21896, "lng": 5.50757, "population": 17612}, {"name": "Gwadabawa", "lat": 13.35819, "lng": 5.23812, "population": 17486}, {"name": "Beli", "lat": 7.85868, "lng": 10.97187, "population": 17467}, {"name": "Illela", "lat": 13.73064, "lng": 5.29777, "population": 17461}, {"name": "Dutse", "lat": 11.75618, "lng": 9.33896, "population": 17129}, {"name": "Dukku", "lat": 10.82379, "lng": 10.77221, "population": 16961}, {"name": "Bonny", "lat": 4.4516, "lng": 7.17074, "population": 16868}, {"name": "Bode Saadu", "lat": 8.939, "lng": 4.78227, "population": 16619}, {"name": "Rijau", "lat": 11.10389, "lng": 5.25556, "population": 16613}, {"name": "Kumagunnam", "lat": 13.15498, "lng": 10.63468, "population": 16557}, {"name": "Lapai", "lat": 9.04439, "lng": 6.57089, "population": 16442}, {"name": "Burutu", "lat": 5.35328, "lng": 5.50826, "population": 16410}, {"name": "Gwarzo", "lat": 11.91597, "lng": 7.9337, "population": 16303}, {"name": "Kukawa", "lat": 12.92475, "lng": 13.56617, "population": 16077}, {"name": "Akwanga", "lat": 8.91077, "lng": 8.40655, "population": 15985}, {"name": "Biliri", "lat": 9.86709, "lng": 11.22594, "population": 15976}, {"name": "Iperu", "lat": 6.91002, "lng": 3.66557, "population": 15935}, {"name": "Gwaram", "lat": 11.27727, "lng": 9.88385, "population": 15806}, {"name": "Soba", "lat": 10.98133, "lng": 8.05749, "population": 15715}, {"name": "Marte", "lat": 12.36532, "lng": 13.8293, "population": 15707}, {"name": "Ibeto", "lat": 10.48536, "lng": 5.14501, "population": 15565}, {"name": "Bukuru", "lat": 9.79399, "lng": 8.86397, "population": 15540}, {"name": "Anchau", "lat": 10.96245, "lng": 8.39233, "population": 15538}, {"name": "Ado-Odo", "lat": 6.59546, "lng": 2.94176, "population": 15442}, {"name": "Ganye", "lat": 8.43497, "lng": 12.05107, "population": 15178}, {"name": "Gwoza", "lat": 11.08313, "lng": 13.69595, "population": 15176}, {"name": "Ajaokuta", "lat": 7.56229, "lng": 6.65497, "population": 15144}, {"name": "Doma", "lat": 8.39307, "lng": 8.35544, "population": 15097}, {"name": "Isanlu-Itedoijowa", "lat": 8.27338, "lng": 5.83526, "population": 15087}, {"name": "Udi", "lat": 6.31592, "lng": 7.42086, "population": 14998}, {"name": "Icheu", "lat": 7.7067, "lng": 6.7718, "population": 14704}, {"name": "Igarra", "lat": 7.29366, "lng": 6.10432, "population": 14647}, {"name": "Ankpa", "lat": 7.40249, "lng": 7.63196, "population": 14630}, {"name": "Lere", "lat": 9.71052, "lng": 9.34029, "population": 14620}, {"name": "Omu-Aran", "lat": 8.13385, "lng": 5.10029, "population": 14477}, {"name": "Ringim", "lat": 12.15143, "lng": 9.16216, "population": 14463}, {"name": "Yashikira", "lat": 9.76794, "lng": 3.398, "population": 14454}, {"name": "Jibia", "lat": 13.09378, "lng": 7.22624, "population": 14424}, {"name": "Kajuru", "lat": 10.32281, "lng": 7.68462, "population": 14389}, {"name": "Gassol", "lat": 8.53535, "lng": 10.44615, "population": 14326}, {"name": "Shani", "lat": 10.21824, "lng": 12.06059, "population": 14305}, {"name": "Ugbokpo", "lat": 7.65321, "lng": 7.8841, "population": 14218}, {"name": "Dapchi", "lat": 12.49536, "lng": 11.49977, "population": 14077}, {"name": "Ngala", "lat": 12.34053, "lng": 14.1867, "population": 14031}, {"name": "Misau", "lat": 11.3137, "lng": 10.46664, "population": 13957}, {"name": "Gandi", "lat": 12.96358, "lng": 5.74337, "population": 13940}, {"name": "Ago-Are", "lat": 8.50498, "lng": 3.42125, "population": 13919}, {"name": "Ore", "lat": 6.74716, "lng": 4.8761, "population": 13905}, {"name": "Uruobo-Okija", "lat": 5.90016, "lng": 6.84312, "population": 13898}, {"name": "Damasak", "lat": 13.10518, "lng": 12.50854, "population": 13874}, {"name": "Gamawa", "lat": 12.13379, "lng": 10.53785, "population": 13549}, {"name": "Sauri", "lat": 11.72655, "lng": 6.78374, "population": 13445}, {"name": "Konduga", "lat": 11.65331, "lng": 13.41787, "population": 13400}, {"name": "Dindima", "lat": 10.22629, "lng": 10.15132, "population": 13356}, {"name": "Ikang", "lat": 4.78978, "lng": 8.5316, "population": 13305}, {"name": "Yelwa", "lat": 8.83333, "lng": 9.63333, "population": 13234}, {"name": "Langtang", "lat": 9.14164, "lng": 9.79101, "population": 13172}, {"name": "Kazaure", "lat": 12.64846, "lng": 8.41178, "population": 13169}, {"name": "Wurno", "lat": 13.29048, "lng": 5.42373, "population": 13087}, {"name": "Kujama", "lat": 10.45767, "lng": 7.63808, "population": 12967}, {"name": "Okeho", "lat": 8.03453, "lng": 3.34759, "population": 12964}, {"name": "Madagali", "lat": 10.88942, "lng": 13.62832, "population": 12919}, {"name": "Obubra", "lat": 6.07672, "lng": 8.33241, "population": 12885}, {"name": "Ahoada", "lat": 5.0828, "lng": 6.64981, "population": 12848}, {"name": "Boju", "lat": 7.35572, "lng": 7.89303, "population": 12814}, {"name": "Agenebode", "lat": 7.10512, "lng": 6.69381, "population": 12730}, {"name": "Ajasse Ipo", "lat": 8.23333, "lng": 4.81667, "population": 12718}, {"name": "Runka", "lat": 12.44788, "lng": 7.30918, "population": 12665}, {"name": "Lau", "lat": 9.20827, "lng": 11.27541, "population": 12657}, {"name": "Kafin Hausa", "lat": 12.23933, "lng": 9.91105, "population": 12609}, {"name": "Bakori", "lat": 11.55559, "lng": 7.42419, "population": 12604}, {"name": "Dutsin-Ma", "lat": 12.45392, "lng": 7.49723, "population": 12595}, {"name": "Abak", "lat": 4.98236, "lng": 7.78922, "population": 12562}, {"name": "Dakingari", "lat": 11.64809, "lng": 4.06177, "population": 12558}, {"name": "Bokkos", "lat": 9.29921, "lng": 8.99467, "population": 12538}, {"name": "Gorgoram", "lat": 12.63958, "lng": 10.70422, "population": 12470}, {"name": "Zango", "lat": 13.05313, "lng": 8.48574, "population": 12371}, {"name": "Dange", "lat": 12.85313, "lng": 5.34572, "population": 12369}, {"name": "Kaltungo", "lat": 9.81998, "lng": 11.30871, "population": 12357}, {"name": "Amper", "lat": 9.35509, "lng": 9.70121, "population": 12212}, {"name": "Miringa", "lat": 10.73115, "lng": 12.14626, "population": 12117}, {"name": "Zalanga", "lat": 10.61432, "lng": 10.17647, "population": 12070}, {"name": "Vom", "lat": 9.7291, "lng": 8.79138, "population": 12000}, {"name": "Obiaruku", "lat": 5.84672, "lng": 6.1529, "population": 11936}, {"name": "Madala", "lat": 9.10444, "lng": 7.21333, "population": 11771}, {"name": "Toungo", "lat": 8.11733, "lng": 12.04611, "population": 11759}, {"name": "Agaie", "lat": 9.0085, "lng": 6.31821, "population": 11742}, {"name": "Machina", "lat": 13.13639, "lng": 10.04924, "population": 11707}, {"name": "Mutum Biyu", "lat": 8.64138, "lng": 10.77355, "population": 11702}, {"name": "Kangiwa", "lat": 12.55339, "lng": 3.81814, "population": 11701}, {"name": "Bori", "lat": 4.67629, "lng": 7.36519, "population": 11693}, {"name": "Burumburum", "lat": 11.39106, "lng": 8.72341, "population": 11689}, {"name": "Goniri", "lat": 11.48451, "lng": 12.31264, "population": 11673}, {"name": "Bara", "lat": 10.37444, "lng": 10.72884, "population": 11673}, {"name": "Uba", "lat": 10.45509, "lng": 13.22233, "population": 11648}, {"name": "Anka", "lat": 12.11347, "lng": 5.92681, "population": 11641}, {"name": "Omoku", "lat": 5.34388, "lng": 6.65684, "population": 11625}, {"name": "Kafarati", "lat": 10.38304, "lng": 11.09567, "population": 11535}, {"name": "Bin Yauri", "lat": 10.7823, "lng": 4.81135, "population": 11501}, {"name": "Maru", "lat": 12.3336, "lng": 6.40372, "population": 11496}, {"name": "Gagarawa", "lat": 12.40848, "lng": 9.52881, "population": 11450}, {"name": "Gujba", "lat": 11.49959, "lng": 11.93396, "population": 11359}, {"name": "Opi", "lat": 6.78223, "lng": 7.43319, "population": 11237}, {"name": "Mallammaduri", "lat": 12.56427, "lng": 9.95727, "population": 11156}, {"name": "Twon-Brass", "lat": 4.31231, "lng": 6.24091, "population": 11122}, {"name": "Dekina", "lat": 7.68967, "lng": 7.0438, "population": 11067}, {"name": "Bebeji", "lat": 11.66768, "lng": 8.262, "population": 10987}, {"name": "Arochukwu", "lat": 5.38941, "lng": 7.91235, "population": 10776}, {"name": "Takai", "lat": 11.57569, "lng": 9.1088, "population": 10748}, {"name": "Panyam", "lat": 9.40756, "lng": 9.21481, "population": 10715}, {"name": "Koton-Karfe", "lat": 8.08834, "lng": 6.79876, "population": 10709}, {"name": "Katagum", "lat": 12.28507, "lng": 10.35027, "population": 10602}, {"name": "Zaki Biam", "lat": 7.50671, "lng": 9.6104, "population": 10470}, {"name": "Goronyo", "lat": 13.44226, "lng": 5.67234, "population": 10460}, {"name": "Etinan", "lat": 4.84262, "lng": 7.85252, "population": 10318}, {"name": "Aliade", "lat": 7.29627, "lng": 8.48278, "population": 10292}, {"name": "Wawa", "lat": 9.90347, "lng": 4.40816, "population": 10200}, {"name": "Gabarin", "lat": 11.1093, "lng": 10.4441, "population": 10160}, {"name": "Gwandu", "lat": 12.50204, "lng": 4.64295, "population": 10018}, {"name": "Madara", "lat": 11.7798, "lng": 10.4479, "population": 10015}, {"name": "Maiyama", "lat": 12.08225, "lng": 4.36907, "population": 10014}, {"name": "Wagini", "lat": 12.68781, "lng": 7.19579, "population": 9986}, {"name": "Buga", "lat": 8.4834, "lng": 7.32612, "population": 9913}, {"name": "Benisheikh", "lat": 11.80919, "lng": 12.49151, "population": 9825}, {"name": "Ete", "lat": 7.08956, "lng": 7.45341, "population": 9805}, {"name": "Bugana", "lat": 7.99917, "lng": 7.58361, "population": 9737}, {"name": "Danja", "lat": 11.3771, "lng": 7.56097, "population": 9736}, {"name": "Kankara", "lat": 11.93114, "lng": 7.41115, "population": 9609}, {"name": "Amagunze", "lat": 6.33063, "lng": 7.65247, "population": 9598}, {"name": "Alapa", "lat": 8.61667, "lng": 4.38333, "population": 9584}, {"name": "Yuli", "lat": 9.69707, "lng": 10.2735, "population": 9549}, {"name": "Kura", "lat": 11.77232, "lng": 8.42631, "population": 9537}, {"name": "Tsafe", "lat": 11.95775, "lng": 6.92083, "population": 9367}, {"name": "Orlu", "lat": 5.79565, "lng": 7.03513, "population": 9351}, {"name": "Birniwa", "lat": 12.7907, "lng": 10.23614, "population": 9334}, {"name": "Shinkafi", "lat": 13.07296, "lng": 6.50574, "population": 9324}, {"name": "Ejirin", "lat": 6.61423, "lng": 3.90019, "population": 9204}, {"name": "Holma", "lat": 9.89863, "lng": 13.0545, "population": 9199}, {"name": "Wuyo", "lat": 10.38522, "lng": 11.69678, "population": 9189}, {"name": "Ifaki", "lat": 7.78942, "lng": 5.24852, "population": 9185}, {"name": "Ogurugu", "lat": 6.78636, "lng": 6.95017, "population": 9135}, {"name": "Kwatarkwashi", "lat": 12.14082, "lng": 6.82196, "population": 9084}, {"name": "Mahuta", "lat": 11.55338, "lng": 4.98138, "population": 9047}, {"name": "Dambatta", "lat": 12.435, "lng": 8.51531, "population": 8940}, {"name": "Baissa", "lat": 7.23087, "lng": 10.62444, "population": 8911}, {"name": "Musawa", "lat": 12.12949, "lng": 7.67023, "population": 8904}, {"name": "Mberubu", "lat": 6.1731, "lng": 7.63017, "population": 8904}, {"name": "Ruma", "lat": 12.8626, "lng": 7.23469, "population": 8857}, {"name": "Igabi", "lat": 10.80603, "lng": 7.71443, "population": 8840}, {"name": "Rabah", "lat": 13.12257, "lng": 5.50762, "population": 8707}, {"name": "Imeko", "lat": 7.44888, "lng": 2.84289, "population": 8627}, {"name": "Bokani", "lat": 9.43333, "lng": 5.2, "population": 8624}, {"name": "Agbabu", "lat": 6.58862, "lng": 4.8343, "population": 8611}, {"name": "Auna", "lat": 10.18805, "lng": 4.72318, "population": 8590}, {"name": "Ochobo", "lat": 7.18045, "lng": 7.9824, "population": 8567}, {"name": "Orodo", "lat": 5.61667, "lng": 7.03333, "population": 8527}, {"name": "Owode", "lat": 6.94851, "lng": 3.50561, "population": 8513}, {"name": "Kibiya", "lat": 11.528, "lng": 8.66108, "population": 8500}, {"name": "Hunkuyi", "lat": 11.2668, "lng": 7.64916, "population": 8465}, {"name": "Bomadi", "lat": 5.16073, "lng": 5.92375, "population": 8402}, {"name": "Bena", "lat": 11.28444, "lng": 5.93472, "population": 8361}, {"name": "Umunede", "lat": 6.26549, "lng": 6.30962, "population": 8331}, {"name": "Badeggi", "lat": 9.0563, "lng": 6.143, "population": 8283}, {"name": "Sade", "lat": 11.3595, "lng": 10.6732, "population": 8223}, {"name": "Isara", "lat": 6.98896, "lng": 3.68244, "population": 8205}, {"name": "Adoru", "lat": 6.97694, "lng": 7.16262, "population": 8203}, {"name": "Kwolla", "lat": 8.90361, "lng": 9.29086, "population": 8200}, {"name": "Wasagu", "lat": 11.3764, "lng": 5.79536, "population": 8157}, {"name": "Ngurore", "lat": 9.28871, "lng": 12.24026, "population": 8139}, {"name": "Samamiya", "lat": 11.34873, "lng": 9.63989, "population": 8087}, {"name": "Duku", "lat": 11.2361, "lng": 4.90727, "population": 8014}, {"name": "Suya", "lat": 9.4688, "lng": 3.18333, "population": 7936}, {"name": "Siluko", "lat": 6.53589, "lng": 5.16005, "population": 7920}, {"name": "Dan Gora", "lat": 11.53485, "lng": 8.15224, "population": 7907}, {"name": "Mashi", "lat": 12.98044, "lng": 7.94703, "population": 7845}, {"name": "Hinna", "lat": 10.30426, "lng": 11.49905, "population": 7826}, {"name": "Iho", "lat": 5.58225, "lng": 7.09896, "population": 7776}, {"name": "Yandev", "lat": 7.36308, "lng": 9.04235, "population": 7750}, {"name": "Konkwesso", "lat": 10.84686, "lng": 4.09835, "population": 7687}, {"name": "Ilare", "lat": 7.35067, "lng": 5.11333, "population": 7685}, {"name": "Ifon", "lat": 6.92973, "lng": 5.77368, "population": 7623}, {"name": "Dan Sadau", "lat": 11.29621, "lng": 6.4952, "population": 7568}, {"name": "Kuta", "lat": 9.86864, "lng": 6.71042, "population": 7528}, {"name": "Mando", "lat": 10.71667, "lng": 6.56667, "population": 7500}, {"name": "Zadawa", "lat": 11.4496, "lng": 10.3672, "population": 7495}, {"name": "Idiroko", "lat": 6.63187, "lng": 2.7472, "population": 7487}, {"name": "Shanga", "lat": 11.21374, "lng": 4.57941, "population": 7471}, {"name": "Batsari", "lat": 12.75551, "lng": 7.24809, "population": 7445}, {"name": "Dass", "lat": 10.00065, "lng": 9.51596, "population": 7417}, {"name": "Kende", "lat": 11.51966, "lng": 4.2603, "population": 7395}, {"name": "Lajere", "lat": 11.98022, "lng": 11.44002, "population": 7356}, {"name": "New Shagunnu", "lat": 10.33957, "lng": 4.4688, "population": 7349}, {"name": "Illushi", "lat": 6.67033, "lng": 6.62907, "population": 7340}, {"name": "Patani", "lat": 5.22885, "lng": 6.19139, "population": 7327}, {"name": "Ikem", "lat": 6.77993, "lng": 7.71484, "population": 7282}, {"name": "Babura", "lat": 12.77256, "lng": 9.01525, "population": 7267}, {"name": "Gwasoro", "lat": 9.48733, "lng": 3.50771, "population": 7263}, {"name": "Saminaka", "lat": 10.41227, "lng": 8.68748, "population": 7165}, {"name": "Dadiya", "lat": 9.61947, "lng": 11.44118, "population": 7152}, {"name": "Yamrat", "lat": 10.11161, "lng": 9.82604, "population": 7098}, {"name": "Tokombere", "lat": 11.22135, "lng": 13.48783, "population": 7092}, {"name": "Gwio Kura", "lat": 12.67479, "lng": 11.0669, "population": 7091}, {"name": "Akankpa", "lat": 5.1264, "lng": 8.1898, "population": 7000}, {"name": "Amassoma", "lat": 4.97032, "lng": 6.10915, "population": 6970}, {"name": "Kusheriki", "lat": 10.53708, "lng": 6.43657, "population": 6941}, {"name": "Abraka", "lat": 5.79023, "lng": 6.10473, "population": 6940}, {"name": "Bagudo", "lat": 11.40351, "lng": 4.22571, "population": 6924}, {"name": "Jikamshi", "lat": 12.17328, "lng": 7.77424, "population": 6923}, {"name": "Yajiwa", "lat": 11.38623, "lng": 12.71992, "population": 6880}, {"name": "Riti", "lat": 7.90844, "lng": 9.61688, "population": 6875}, {"name": "Abocho", "lat": 7.5677, "lng": 6.9863, "population": 6801}, {"name": "Gulma", "lat": 12.64231, "lng": 4.35545, "population": 6719}, {"name": "Binji", "lat": 13.22294, "lng": 4.90888, "population": 6717}, {"name": "Lame", "lat": 10.44154, "lng": 9.23955, "population": 6705}, {"name": "Gwaram", "lat": 10.23295, "lng": 10.28572, "population": 6700}, {"name": "Ake-Eze", "lat": 5.91677, "lng": 7.67615, "population": 6537}, {"name": "Dankama", "lat": 13.29782, "lng": 7.79492, "population": 6531}, {"name": "Shaffa", "lat": 10.50673, "lng": 12.33315, "population": 6508}, {"name": "Omuo-Ekiti", "lat": 7.75833, "lng": 5.72227, "population": 6317}, {"name": "Mayo-Belwa", "lat": 9.05421, "lng": 12.05794, "population": 6304}, {"name": "Dengi", "lat": 9.36872, "lng": 9.96223, "population": 6276}, {"name": "Kwali", "lat": 8.88346, "lng": 7.01858, "population": 6229}, {"name": "Ukata", "lat": 10.83122, "lng": 5.82494, "population": 6188}, {"name": "Adani", "lat": 6.73971, "lng": 7.01117, "population": 6161}, {"name": "Akko", "lat": 10.28899, "lng": 10.9732, "population": 6129}, {"name": "Bununu", "lat": 9.88224, "lng": 9.68058, "population": 6123}, {"name": "Boi", "lat": 9.56109, "lng": 9.50154, "population": 6033}, {"name": "Dabai", "lat": 11.47651, "lng": 5.20625, "population": 6012}, {"name": "Yanda Bayo", "lat": 11.5071, "lng": 10.7459, "population": 5927}, {"name": "Orerokpe", "lat": 5.63747, "lng": 5.89013, "population": 5893}, {"name": "Gora", "lat": 11.91294, "lng": 7.66531, "population": 5867}, {"name": "Gakem", "lat": 6.76963, "lng": 8.9912, "population": 5865}, {"name": "Obolo-Eke (1)", "lat": 6.88333, "lng": 7.63333, "population": 5842}, {"name": "Disina", "lat": 11.48135, "lng": 9.91903, "population": 5833}, {"name": "Bornu Yassu", "lat": 12.27503, "lng": 12.56856, "population": 5811}, {"name": "Ijebu-Ife", "lat": 6.77837, "lng": 4.03386, "population": 5733}, {"name": "Dankalwa", "lat": 11.74449, "lng": 12.18545, "population": 5730}, {"name": "Aiyetoro", "lat": 6.45917, "lng": 3.3425, "population": 5430}, {"name": "Imota", "lat": 6.66362, "lng": 3.66945, "population": 5240}, {"name": "Banki", "lat": 11.66207, "lng": 14.02014, "population": 5000}, {"name": "Zurmi", "lat": 12.77675, "lng": 6.78404, "population": 0}, {"name": "Zonkwa", "lat": 9.78453, "lng": 8.29056, "population": 0}, {"name": "Zing", "lat": 8.99064, "lng": 11.74763, "population": 0}, {"name": "Zakirai", "lat": 12.10033, "lng": 8.88524, "population": 0}, {"name": "Yelwa", "lat": 10.83505, "lng": 4.74244, "population": 0}, {"name": "Yabo", "lat": 12.72217, "lng": 5.01329, "population": 0}, {"name": "Wushishi", "lat": 9.73035, "lng": 6.07305, "population": 0}, {"name": "Wase", "lat": 9.09424, "lng": 9.95605, "population": 0}, {"name": "Wannune", "lat": 7.56384, "lng": 8.88534, "population": 0}, {"name": "Wamako", "lat": 13.03054, "lng": 5.10433, "population": 0}, {"name": "Vandeikya", "lat": 6.78481, "lng": 9.06799, "population": 0}, {"name": "Utu Etim Ekpo", "lat": 5.00485, "lng": 7.61028, "population": 0}, {"name": "Ozoro", "lat": 5.54692, "lng": 6.22649, "population": 0}, {"name": "Uselu", "lat": 6.38429, "lng": 5.60984, "population": 0}, {"name": "Urualla", "lat": 5.85397, "lng": 7.09906, "population": 0}, {"name": "Uquo", "lat": 4.65832, "lng": 8.05868, "population": 0}, {"name": "Ukpor", "lat": 5.94211, "lng": 6.92931, "population": 0}, {"name": "Ungogo", "lat": 12.09171, "lng": 8.49531, "population": 0}, {"name": "Umuneke-Ngor", "lat": 5.33558, "lng": 7.15187, "population": 0}, {"name": "Umulona", "lat": 6.50789, "lng": 7.09743, "population": 0}, {"name": "Umuelemai", "lat": 5.68786, "lng": 7.24334, "population": 0}, {"name": "Ukpo", "lat": 6.21407, "lng": 6.96657, "population": 0}, {"name": "Ugba", "lat": 7.507, "lng": 9.34804, "population": 0}, {"name": "Tureta", "lat": 12.59367, "lng": 5.54391, "population": 0}, {"name": "Tudun Wada", "lat": 11.24848, "lng": 8.40109, "population": 0}, {"name": "Tsanyawa", "lat": 12.29559, "lng": 7.98654, "population": 0}, {"name": "Toto", "lat": 8.3876, "lng": 7.07751, "population": 0}, {"name": "Toro", "lat": 10.05889, "lng": 9.0691, "population": 0}, {"name": "Tofa", "lat": 12.05789, "lng": 8.27309, "population": 0}, {"name": "Tede", "lat": 8.55336, "lng": 3.44654, "population": 0}, {"name": "Taura", "lat": 12.22712, "lng": 9.28306, "population": 0}, {"name": "Talasse", "lat": 9.96843, "lng": 11.67945, "population": 0}, {"name": "Bunza", "lat": 12.08821, "lng": 4.0152, "population": 0}, {"name": "Tafawa Balewa", "lat": 9.76017, "lng": 9.55172, "population": 0}, {"name": "Sumaila", "lat": 11.53011, "lng": 8.95593, "population": 0}, {"name": "Sule Tankarkar", "lat": 12.66686, "lng": 9.22828, "population": 0}, {"name": "Song", "lat": 9.82675, "lng": 12.6238, "population": 0}, {"name": "Silame", "lat": 13.03921, "lng": 4.84593, "population": 0}, {"name": "Shendam", "lat": 8.87866, "lng": 9.53464, "population": 0}, {"name": "Shelleng", "lat": 9.89647, "lng": 12.00572, "population": 0}, {"name": "Share", "lat": 8.82329, "lng": 4.97637, "population": 0}, {"name": "Shanono", "lat": 12.05154, "lng": 7.992, "population": 0}, {"name": "Shagari", "lat": 12.62727, "lng": 4.99295, "population": 0}, {"name": "Serti", "lat": 7.50574, "lng": 11.3631, "population": 0}, {"name": "Sarkin Pawa", "lat": 10.02094, "lng": 7.11244, "population": 0}, {"name": "Sankwala", "lat": 6.54753, "lng": 9.22258, "population": 0}, {"name": "Sankera", "lat": 7.5353, "lng": 9.65223, "population": 0}, {"name": "Sandamu", "lat": 12.96163, "lng": 8.36017, "population": 0}, {"name": "Sakaba", "lat": 11.06513, "lng": 5.5961, "population": 0}, {"name": "Sagbama", "lat": 5.15915, "lng": 6.19666, "population": 0}, {"name": "Safana", "lat": 12.41075, "lng": 7.41456, "population": 0}, {"name": "Sabuwa", "lat": 11.17372, "lng": 7.12113, "population": 0}, {"name": "Sabongida-Ora", "lat": 6.90231, "lng": 5.93117, "population": 0}, {"name": "Sabon Birni", "lat": 13.56387, "lng": 6.32355, "population": 0}, {"name": "Roni", "lat": 12.65862, "lng": 8.26505, "population": 0}, {"name": "Rogo", "lat": 11.55237, "lng": 7.82253, "population": 0}, {"name": "Riyom", "lat": 9.63681, "lng": 8.75694, "population": 0}, {"name": "Ririwai", "lat": 10.74025, "lng": 8.74128, "population": 0}, {"name": "Rimin Gado", "lat": 11.9672, "lng": 8.2476, "population": 0}, {"name": "Rimi", "lat": 12.8503, "lng": 7.70974, "population": 0}, {"name": "Ribah", "lat": 11.39637, "lng": 5.48631, "population": 0}, {"name": "Rann", "lat": 12.26938, "lng": 14.46552, "population": 0}, {"name": "Pantisawa", "lat": 8.94504, "lng": 11.51176, "population": 0}, {"name": "Paiko", "lat": 9.43685, "lng": 6.63357, "population": 0}, {"name": "Oye-Ekiti", "lat": 7.79976, "lng": 5.33242, "population": 0}, {"name": "Owu-Isin", "lat": 8.2809, "lng": 5.0194, "population": 0}, {"name": "Owa-Oyibu", "lat": 6.18267, "lng": 6.19902, "population": 0}, {"name": "Otuocha", "lat": 6.33908, "lng": 6.84636, "population": 0}, {"name": "Otun-Ekiti", "lat": 7.98858, "lng": 5.12291, "population": 0}, {"name": "Otu-Jeremi", "lat": 5.43818, "lng": 5.87829, "population": 0}, {"name": "Otor-Udu", "lat": 5.45341, "lng": 5.8693, "population": 0}, {"name": "Otu", "lat": 8.20639, "lng": 3.40786, "population": 0}, {"name": "Ota", "lat": 6.68867, "lng": 3.23202, "population": 0}, {"name": "Osu", "lat": 7.58538, "lng": 4.62263, "population": 0}, {"name": "Afor-Oru", "lat": 5.5411, "lng": 7.26845, "population": 0}, {"name": "Oron", "lat": 4.82171, "lng": 8.23504, "population": 0}, {"name": "Oporoma", "lat": 4.80604, "lng": 6.08016, "population": 0}, {"name": "Opobo", "lat": 4.51388, "lng": 7.53794, "population": 0}, {"name": "Ikot Abasi", "lat": 4.56851, "lng": 7.55262, "population": 0}, {"name": "Onyedega", "lat": 6.88209, "lng": 6.67585, "population": 0}, {"name": "Oleh", "lat": 5.46186, "lng": 6.20624, "population": 0}, {"name": "Okpoga", "lat": 7.03911, "lng": 7.81225, "population": 0}, {"name": "Okwe", "lat": 5.77743, "lng": 7.21794, "population": 0}, {"name": "Okpoma", "lat": 6.59679, "lng": 8.63728, "population": 0}, {"name": "Okpo", "lat": 7.21626, "lng": 7.56022, "population": 0}, {"name": "Okoroete", "lat": 4.54077, "lng": 7.74858, "population": 0}, {"name": "Okopedi", "lat": 4.84918, "lng": 8.12564, "population": 0}, {"name": "Oko Ita", "lat": 5.192, "lng": 7.89531, "population": 0}, {"name": "Oke-Oyi", "lat": 8.58263, "lng": 4.71622, "population": 0}, {"name": "Okehi", "lat": 5.13895, "lng": 7.13915, "population": 0}, {"name": "Oke-Agbe", "lat": 7.64314, "lng": 5.75943, "population": 0}, {"name": "Okada", "lat": 6.73488, "lng": 5.39447, "population": 0}, {"name": "Oka", "lat": 7.46012, "lng": 5.80174, "population": 0}, {"name": "Oju", "lat": 6.84526, "lng": 8.41914, "population": 0}, {"name": "Ojoto", "lat": 6.05842, "lng": 6.86124, "population": 0}, {"name": "Oji River", "lat": 6.25563, "lng": 7.27025, "population": 0}, {"name": "Oguma", "lat": 7.89635, "lng": 7.06229, "population": 0}, {"name": "Ogu", "lat": 4.72247, "lng": 7.19859, "population": 0}, {"name": "Ogidi", "lat": 6.15209, "lng": 6.86343, "population": 0}, {"name": "Ogbere", "lat": 6.73948, "lng": 4.16102, "population": 0}, {"name": "Ogbede", "lat": 6.67295, "lng": 7.37441, "population": 0}, {"name": "Odukpani", "lat": 5.13375, "lng": 8.33814, "population": 0}, {"name": "Odot", "lat": 4.83095, "lng": 8.03839, "population": 0}, {"name": "Odoro Ikpe", "lat": 5.35835, "lng": 7.75184, "population": 0}, {"name": "Odogbolu", "lat": 6.84035, "lng": 3.76285, "population": 0}, {"name": "Odo-Ere", "lat": 8.25091, "lng": 5.55122, "population": 0}, {"name": "Odeda", "lat": 7.2313, "lng": 3.5246, "population": 0}, {"name": "Ode-Ekiti", "lat": 7.64813, "lng": 5.54948, "population": 0}, {"name": "Obollo-Afor", "lat": 6.91624, "lng": 7.51849, "population": 0}, {"name": "Obi", "lat": 8.36922, "lng": 8.77383, "population": 0}, {"name": "Nzam", "lat": 6.45296, "lng": 6.72882, "population": 0}, {"name": "Nung Udoe", "lat": 4.91657, "lng": 7.96314, "population": 0}, {"name": "Nto Edino", "lat": 5.25704, "lng": 7.57569, "population": 0}, {"name": "Nteje", "lat": 6.2681, "lng": 6.92062, "population": 0}, {"name": "Isiokpo", "lat": 5.00243, "lng": 6.87262, "population": 0}, {"name": "Mkpat Enin", "lat": 4.73478, "lng": 7.74897, "population": 0}, {"name": "Ningi", "lat": 11.07837, "lng": 9.56886, "population": 0}, {"name": "Nguzu Edda", "lat": 5.75543, "lng": 7.81721, "population": 0}, {"name": "Ngo", "lat": 4.48388, "lng": 7.41446, "population": 0}, {"name": "Wara", "lat": 10.22884, "lng": 4.62363, "population": 0}, {"name": "New Bussa", "lat": 9.88644, "lng": 4.50854, "population": 0}, {"name": "Neni", "lat": 6.09511, "lng": 7.02426, "population": 0}, {"name": "Nembe", "lat": 4.53673, "lng": 6.40332, "population": 0}, {"name": "Ndeaboh", "lat": 6.03405, "lng": 7.56843, "population": 0}, {"name": "Nasarawa Egon", "lat": 8.71226, "lng": 8.5406, "population": 0}, {"name": "Mopa", "lat": 8.10076, "lng": 5.89314, "population": 0}, {"name": "Moniya", "lat": 7.5283, "lng": 3.91156, "population": 0}, {"name": "Mangu", "lat": 9.5206, "lng": 9.09769, "population": 0}, {"name": "Bolorunduro", "lat": 7.16586, "lng": 4.9637, "population": 0}, {"name": "Minjibir", "lat": 12.17765, "lng": 8.65782, "population": 0}, {"name": "Miga", "lat": 12.2388, "lng": 9.71362, "population": 0}, {"name": "Michika", "lat": 10.62042, "lng": 13.38928, "population": 0}, {"name": "Mgbidi", "lat": 5.73236, "lng": 6.88869, "population": 0}, {"name": "Mbalano", "lat": 5.73432, "lng": 7.50238, "population": 0}, {"name": "Matazu", "lat": 12.23549, "lng": 7.67426, "population": 0}, {"name": "Maradun", "lat": 12.56704, "lng": 6.24407, "population": 0}, {"name": "Mani", "lat": 12.85426, "lng": 7.87526, "population": 0}, {"name": "Mallam Sidi", "lat": 10.4683, "lng": 11.29294, "population": 0}, {"name": "Makera", "lat": 10.4714, "lng": 7.41026, "population": 0}, {"name": "Makarfi", "lat": 11.37734, "lng": 7.88098, "population": 0}, {"name": "Maikunkele", "lat": 9.6843, "lng": 6.47889, "population": 0}, {"name": "Maiha", "lat": 9.99672, "lng": 13.21665, "population": 0}, {"name": "Maigatari", "lat": 12.80783, "lng": 9.44516, "population": 0}, {"name": "Maigana", "lat": 11.02707, "lng": 7.93844, "population": 0}, {"name": "Mai’Adua", "lat": 13.17986, "lng": 8.2304, "population": 0}, {"name": "Mafa", "lat": 11.92417, "lng": 13.60066, "population": 0}, {"name": "Madobi", "lat": 11.77725, "lng": 8.28801, "population": 0}, {"name": "Lemu", "lat": 9.39637, "lng": 6.02791, "population": 0}, {"name": "Lamurde", "lat": 9.60816, "lng": 11.79315, "population": 0}, {"name": "Kwoi", "lat": 9.45745, "lng": 8.00684, "population": 0}, {"name": "Kwaya Kusar", "lat": 10.50296, "lng": 11.84331, "population": 0}, {"name": "Kware", "lat": 13.21969, "lng": 5.26596, "population": 0}, {"name": "Kutigi", "lat": 9.20103, "lng": 5.59498, "population": 0}, {"name": "Kusada", "lat": 12.4656, "lng": 7.97848, "population": 0}, {"name": "Kurfi", "lat": 12.6663, "lng": 7.48478, "population": 0}, {"name": "Kunchi", "lat": 12.5026, "lng": 8.27092, "population": 0}, {"name": "Kumbotso", "lat": 11.89002, "lng": 8.503, "population": 0}, {"name": "Kpor", "lat": 4.65265, "lng": 7.28397, "population": 0}, {"name": "Kosubosu", "lat": 9.55107, "lng": 3.22841, "population": 0}, {"name": "Koko", "lat": 6.00084, "lng": 5.45523, "population": 0}, {"name": "Kiru", "lat": 11.7021, "lng": 8.13481, "population": 0}, {"name": "Karkarna", "lat": 12.76653, "lng": 8.50981, "population": 0}, {"name": "Kiri Kasamma", "lat": 12.69273, "lng": 10.25456, "population": 0}, {"name": "Kirfi", "lat": 10.40556, "lng": 10.40451, "population": 0}, {"name": "Auyo", "lat": 12.33338, "lng": 9.93891, "population": 0}, {"name": "Kebbe", "lat": 12.12861, "lng": 4.73433, "population": 0}, {"name": "Keana", "lat": 8.14724, "lng": 8.79601, "population": 0}, {"name": "Kauru", "lat": 10.57601, "lng": 8.15096, "population": 0}, {"name": "Kaugama", "lat": 12.47431, "lng": 9.73671, "population": 0}, {"name": "Katcha", "lat": 8.76076, "lng": 6.312, "population": 0}, {"name": "Warji", "lat": 11.17756, "lng": 9.75241, "population": 0}, {"name": "Karim Lamido", "lat": 9.3143, "lng": 11.18731, "population": 0}, {"name": "Karaye", "lat": 11.7836, "lng": 8.01504, "population": 0}, {"name": "Kankia", "lat": 12.54637, "lng": 7.82254, "population": 0}, {"name": "Kalgo", "lat": 12.32666, "lng": 4.2004, "population": 0}, {"name": "Kaita", "lat": 13.08346, "lng": 7.74092, "population": 0}, {"name": "Kaiama", "lat": 5.1197, "lng": 6.30101, "population": 0}, {"name": "Kagarko", "lat": 9.4911, "lng": 7.69771, "population": 0}, {"name": "Kagara", "lat": 10.18662, "lng": 6.25485, "population": 0}, {"name": "Kafur", "lat": 11.64589, "lng": 7.69068, "population": 0}, {"name": "Kafin Madaki", "lat": 10.68856, "lng": 9.76051, "population": 0}, {"name": "Lissam", "lat": 7.1961, "lng": 10.0462, "population": 0}, {"name": "Kabo", "lat": 11.85606, "lng": 8.1702, "population": 0}, {"name": "Jobele", "lat": 7.76373, "lng": 3.91985, "population": 0}, {"name": "Angware", "lat": 9.99105, "lng": 9.10811, "population": 0}, {"name": "Jama’are", "lat": 11.6698, "lng": 9.928, "population": 0}, {"name": "Jakusko", "lat": 12.37093, "lng": 10.77373, "population": 0}, {"name": "Jajimaji", "lat": 12.8985, "lng": 10.80688, "population": 0}, {"name": "Jahun", "lat": 12.07629, "lng": 9.62757, "population": 0}, {"name": "Jada", "lat": 8.75682, "lng": 12.15537, "population": 0}, {"name": "Iye-Ekiti", "lat": 7.95457, "lng": 5.23314, "population": 0}, {"name": "Iyara", "lat": 7.84325, "lng": 5.97061, "population": 0}, {"name": "Iwere-Ile", "lat": 7.99925, "lng": 3.08877, "population": 0}, {"name": "Itu", "lat": 5.46395, "lng": 7.33078, "population": 0}, {"name": "Itori", "lat": 6.93123, "lng": 3.22147, "population": 0}, {"name": "Obarike-Ito", "lat": 7.0245, "lng": 8.32358, "population": 0}, {"name": "Itigidi", "lat": 5.89147, "lng": 8.02187, "population": 0}, {"name": "Itas", "lat": 11.8575, "lng": 9.96394, "population": 0}, {"name": "Ita-Ogbolu", "lat": 7.36838, "lng": 5.24684, "population": 0}, {"name": "Isu", "lat": 6.15002, "lng": 7.80131, "population": 0}, {"name": "Issele-Uku", "lat": 6.31584, "lng": 6.47599, "population": 0}, {"name": "Isiokolo", "lat": 5.59586, "lng": 6.00028, "population": 0}, {"name": "Isua", "lat": 7.45361, "lng": 5.91047, "population": 0}, {"name": "Isanlu", "lat": 8.28823, "lng": 5.81837, "population": 0}, {"name": "Isa", "lat": 13.20066, "lng": 6.40487, "population": 0}, {"name": "Iresa-Adu", "lat": 8.08747, "lng": 4.39264, "population": 0}, {"name": "Ode-Irele", "lat": 6.49418, "lng": 4.87036, "population": 0}, {"name": "Iragbiji", "lat": 7.904, "lng": 4.68705, "population": 0}, {"name": "Ipokia", "lat": 6.52499, "lng": 2.84246, "population": 0}, {"name": "Ipetumodu", "lat": 7.52152, "lng": 4.44477, "population": 0}, {"name": "Iperindo", "lat": 7.50212, "lng": 4.82582, "population": 0}, {"name": "Ingawa", "lat": 12.64138, "lng": 8.05162, "population": 0}, {"name": "Iloffa", "lat": 8.09321, "lng": 5.14258, "population": 0}, {"name": "Ile-Oluji", "lat": 7.21309, "lng": 4.86902, "population": 0}, {"name": "Ilemona", "lat": 8.10992, "lng": 4.66059, "population": 0}, {"name": "Ile-Ogbo", "lat": 7.62129, "lng": 4.24531, "population": 0}, {"name": "Ilawe-Ekiti", "lat": 7.59881, "lng": 5.1047, "population": 0}, {"name": "Ikoyi-Ile", "lat": 8.2444, "lng": 4.17181, "population": 0}, {"name": "Ikoyi", "lat": 6.45254, "lng": 3.43584, "population": 0}, {"name": "Ikotun", "lat": 6.54433, "lng": 3.26379, "population": 0}, {"name": "Ikot Nakanda", "lat": 4.88426, "lng": 8.48379, "population": 0}, {"name": "Ikot Ibritam", "lat": 4.81171, "lng": 7.61401, "population": 0}, {"name": "Afaha Ikot Ebak", "lat": 5.12504, "lng": 7.65716, "population": 0}, {"name": "Ikorodu", "lat": 6.61526, "lng": 3.5069, "population": 0}, {"name": "Ikole-Ekiti", "lat": 7.79148, "lng": 5.50865, "population": 0}, {"name": "Ikenne", "lat": 6.86579, "lng": 3.71518, "population": 0}, {"name": "Ikara", "lat": 11.17511, "lng": 8.22466, "population": 0}, {"name": "Iguobazuwa", "lat": 6.56585, "lng": 5.35455, "population": 0}, {"name": "Igumale", "lat": 6.79792, "lng": 7.96794, "population": 0}, {"name": "Igbokoda", "lat": 6.34842, "lng": 4.81135, "population": 0}, {"name": "Igbekebo", "lat": 6.35894, "lng": 4.8652, "population": 0}, {"name": "Igbara-Oke", "lat": 7.41172, "lng": 5.05805, "population": 0}, {"name": "Ifon", "lat": 7.86079, "lng": 4.4795, "population": 0}, {"name": "Ifetedo", "lat": 7.18419, "lng": 4.70046, "population": 0}, {"name": "Idu", "lat": 5.03005, "lng": 8.01716, "population": 0}, {"name": "Idogbo", "lat": 6.26812, "lng": 5.71296, "population": 0}, {"name": "Idi-Ayunre", "lat": 7.23292, "lng": 3.86152, "population": 0}, {"name": "Ido-Ekiti", "lat": 7.84598, "lng": 5.18314, "population": 0}, {"name": "Ido", "lat": 7.47103, "lng": 3.7574, "population": 0}, {"name": "Ibokun", "lat": 7.78737, "lng": 4.72958, "population": 0}, {"name": "Iboko", "lat": 6.40655, "lng": 8.23329, "population": 0}, {"name": "Ibagwa-Aka", "lat": 6.91854, "lng": 7.39895, "population": 0}, {"name": "Hong", "lat": 10.23305, "lng": 12.92805, "population": 0}, {"name": "Ugwolawo", "lat": 7.23672, "lng": 6.92302, "population": 0}, {"name": "Gwiwa", "lat": 12.78169, "lng": 8.33722, "population": 0}, {"name": "Gwantu", "lat": 9.22899, "lng": 8.45807, "population": 0}, {"name": "Gwagwalada", "lat": 8.94342, "lng": 7.08165, "population": 0}, {"name": "Guyuk", "lat": 9.90663, "lng": 11.92753, "population": 0}, {"name": "Guri", "lat": 12.7281, "lng": 10.41989, "population": 0}, {"name": "Gulak", "lat": 10.8053, "lng": 13.45824, "population": 0}, {"name": "Gudumbali", "lat": 12.94284, "lng": 13.17831, "population": 0}, {"name": "Gubio", "lat": 12.49749, "lng": 12.78089, "population": 0}, {"name": "Giwa", "lat": 11.31568, "lng": 7.44957, "population": 0}, {"name": "Girei", "lat": 9.36526, "lng": 12.54621, "population": 0}, {"name": "Gidan Madi", "lat": 13.29575, "lng": 4.97467, "population": 0}, {"name": "Giade", "lat": 11.39083, "lng": 10.19987, "population": 0}, {"name": "Gezawa", "lat": 12.10157, "lng": 8.75029, "population": 0}, {"name": "Gella", "lat": 10.15738, "lng": 13.30004, "population": 0}, {"name": "Buruku", "lat": 7.45961, "lng": 9.20455, "population": 0}, {"name": "Gbajimba", "lat": 7.8204, "lng": 8.85955, "population": 0}, {"name": "Garun Malam", "lat": 11.68566, "lng": 8.36986, "population": 0}, {"name": "Garko", "lat": 11.64974, "lng": 8.80328, "population": 0}, {"name": "Garki", "lat": 12.43456, "lng": 9.19028, "population": 0}, {"name": "Garaku", "lat": 8.84717, "lng": 8.13021, "population": 0}, {"name": "Gantsa", "lat": 11.66312, "lng": 9.72639, "population": 0}, {"name": "Gajiram", "lat": 12.49149, "lng": 13.21191, "population": 0}, {"name": "Gada", "lat": 13.7543, "lng": 5.65723, "population": 0}, {"name": "Fugar", "lat": 7.09076, "lng": 6.49828, "population": 0}, {"name": "Fufu", "lat": 8.44838, "lng": 4.72077, "population": 0}, {"name": "Fufore", "lat": 9.22175, "lng": 12.64975, "population": 0}, {"name": "Fika", "lat": 11.28674, "lng": 11.30772, "population": 0}, {"name": "Faskari", "lat": 11.72108, "lng": 7.02991, "population": 0}, {"name": "Ezzamgbo", "lat": 6.39895, "lng": 7.96155, "population": 0}, {"name": "Enwang", "lat": 4.65643, "lng": 8.25206, "population": 0}, {"name": "Umunze", "lat": 5.96694, "lng": 7.23664, "population": 0}, {"name": "Enagi", "lat": 9.12734, "lng": 5.54387, "population": 0}, {"name": "Emuoha", "lat": 4.884, "lng": 6.8601, "population": 0}, {"name": "Ekeremor", "lat": 5.05805, "lng": 5.78048, "population": 0}, {"name": "Ehor", "lat": 6.6155, "lng": 5.98238, "population": 0}, {"name": "Egbeda", "lat": 7.3772, "lng": 4.04975, "population": 0}, {"name": "Effurun", "lat": 5.55629, "lng": 5.78459, "population": 0}, {"name": "Effraya", "lat": 5.85926, "lng": 8.72301, "population": 0}, {"name": "Ebute-Metta", "lat": 6.48799, "lng": 3.38166, "population": 0}, {"name": "Eberi", "lat": 5.09117, "lng": 7.2337, "population": 0}, {"name": "Ebem Ohafia", "lat": 5.63108, "lng": 7.83024, "population": 0}, {"name": "Dutsi", "lat": 12.82862, "lng": 8.1398, "population": 0}, {"name": "Malam Madori", "lat": 12.56473, "lng": 9.88084, "population": 0}, {"name": "Donga", "lat": 7.72175, "lng": 10.04526, "population": 0}, {"name": "Dikenafai", "lat": 5.77015, "lng": 7.15473, "population": 0}, {"name": "Demsa", "lat": 9.45566, "lng": 12.15249, "population": 0}, {"name": "Degema", "lat": 4.74807, "lng": 6.76618, "population": 0}, {"name": "Dawakin Tofa", "lat": 12.10452, "lng": 8.32999, "population": 0}, {"name": "Dawakin Kudu", "lat": 11.83727, "lng": 8.59699, "population": 0}, {"name": "Dan Musa", "lat": 12.26157, "lng": 7.33409, "population": 0}, {"name": "Dandume", "lat": 11.4588, "lng": 7.12602, "population": 0}, {"name": "Dambam", "lat": 11.67893, "lng": 10.70792, "population": 0}, {"name": "Damagum", "lat": 11.67824, "lng": 11.33517, "population": 0}, {"name": "Chibok", "lat": 10.86949, "lng": 12.84657, "population": 0}, {"name": "Charanchi", "lat": 12.67155, "lng": 7.72929, "population": 0}, {"name": "Bwari", "lat": 9.27995, "lng": 7.38045, "population": 0}, {"name": "Bunkure", "lat": 11.69924, "lng": 8.54127, "population": 0}, {"name": "Bungudu", "lat": 12.26848, "lng": 6.55288, "population": 0}, {"name": "Bukkuyum", "lat": 12.1372, "lng": 5.46821, "population": 0}, {"name": "Briyel", "lat": 10.34764, "lng": 11.6099, "population": 0}, {"name": "Boje", "lat": 6.28428, "lng": 8.92062, "population": 0}, {"name": "Bogoro", "lat": 9.66904, "lng": 9.60528, "population": 0}, {"name": "Bodinga", "lat": 12.84413, "lng": 5.15001, "population": 0}, {"name": "Bode Osi", "lat": 7.74874, "lng": 4.22833, "population": 0}, {"name": "Mallam Fatori", "lat": 13.6746, "lng": 13.33952, "population": 0}, {"name": "Birnin Gwari", "lat": 10.66374, "lng": 6.54003, "population": 0}, {"name": "Bindawa", "lat": 12.66987, "lng": 7.80865, "population": 0}, {"name": "Billiri", "lat": 9.89024, "lng": 11.21794, "population": 0}, {"name": "Bichi", "lat": 12.23385, "lng": 8.24063, "population": 0}, {"name": "Besse", "lat": 11.26676, "lng": 4.43114, "population": 0}, {"name": "Baure", "lat": 12.83772, "lng": 8.74513, "population": 0}, {"name": "Batagarawa", "lat": 12.90611, "lng": 7.60586, "population": 0}, {"name": "Bassa", "lat": 9.94249, "lng": 8.74042, "population": 0}, {"name": "Barkin Ladi", "lat": 9.53812, "lng": 8.8927, "population": 0}, {"name": "Bara", "lat": 10.93605, "lng": 11.68242, "population": 0}, {"name": "Balle", "lat": 13.47029, "lng": 4.68119, "population": 0}, {"name": "Bakura", "lat": 12.71141, "lng": 5.87367, "population": 0}, {"name": "Bajoga", "lat": 10.85152, "lng": 11.43169, "population": 0}, {"name": "Bagwai", "lat": 12.1577, "lng": 8.1358, "population": 0}, {"name": "Obagaji", "lat": 7.89169, "lng": 7.90938, "population": 0}, {"name": "Babban Gida", "lat": 12.15482, "lng": 11.7709, "population": 0}, {"name": "Awo-Idemili", "lat": 5.82648, "lng": 6.93374, "population": 0}, {"name": "Awo", "lat": 7.76767, "lng": 4.39528, "population": 0}, {"name": "Awe", "lat": 8.10445, "lng": 9.14011, "population": 0}, {"name": "Augie", "lat": 12.89027, "lng": 4.59965, "population": 0}, {"name": "Askira", "lat": 10.65086, "lng": 12.90883, "population": 0}, {"name": "Azare", "lat": 10.52583, "lng": 12.29115, "population": 0}, {"name": "Araromi-Opin", "lat": 8.0652, "lng": 5.25575, "population": 0}, {"name": "Apapa", "lat": 6.4488, "lng": 3.35901, "population": 0}, {"name": "Anaku", "lat": 6.46875, "lng": 6.92893, "population": 0}, {"name": "Amaigbo", "lat": 5.73016, "lng": 7.1151, "population": 0}, {"name": "Umundugba", "lat": 5.67597, "lng": 7.07184, "population": 0}, {"name": "Alkaleri", "lat": 10.26688, "lng": 10.33238, "population": 0}, {"name": "Aliero", "lat": 12.28835, "lng": 4.47139, "population": 0}, {"name": "Albasu", "lat": 11.67403, "lng": 9.14059, "population": 0}, {"name": "Akwukwu-Igbo", "lat": 6.35753, "lng": 6.59066, "population": 0}, {"name": "Akwete", "lat": 4.88688, "lng": 7.35686, "population": 0}, {"name": "Akodo", "lat": 6.43787, "lng": 3.9309, "population": 0}, {"name": "Akanran", "lat": 7.28075, "lng": 4.02557, "population": 0}, {"name": "Akamkpa", "lat": 5.31246, "lng": 8.35515, "population": 0}, {"name": "Ajingi", "lat": 11.96826, "lng": 9.03679, "population": 0}, {"name": "Ajaawa", "lat": 7.93118, "lng": 4.12654, "population": 0}, {"name": "Ajalli", "lat": 6.04427, "lng": 7.20864, "population": 0}, {"name": "Ajaka", "lat": 7.17416, "lng": 6.82535, "population": 0}, {"name": "Ayetoro", "lat": 7.24281, "lng": 3.02639, "population": 0}, {"name": "Ayete", "lat": 7.54363, "lng": 3.22304, "population": 0}, {"name": "Agwara", "lat": 10.70611, "lng": 4.58125, "population": 0}, {"name": "Aguata", "lat": 6.01634, "lng": 7.08782, "population": 0}, {"name": "Akpet Central", "lat": 5.62105, "lng": 8.10163, "population": 0}, {"name": "Ago-Amodu", "lat": 8.62314, "lng": 3.61419, "population": 0}, {"name": "Agege", "lat": 6.61563, "lng": 3.33337, "population": 0}, {"name": "Tse-Agberagba", "lat": 7.07668, "lng": 8.66551, "population": 0}, {"name": "Agbani", "lat": 6.30669, "lng": 7.54862, "population": 0}, {"name": "Afuze", "lat": 6.96945, "lng": 6.04254, "population": 0}, {"name": "Afon", "lat": 8.31313, "lng": 4.52738, "population": 0}, {"name": "Afam", "lat": 4.79004, "lng": 7.31187, "population": 0}, {"name": "Afaha Offiong", "lat": 4.86226, "lng": 7.90626, "population": 0}, {"name": "Adogo", "lat": 7.51004, "lng": 6.4798, "population": 0}, {"name": "Adikpo", "lat": 6.89002, "lng": 9.23351, "population": 0}, {"name": "Achalla", "lat": 6.33465, "lng": 6.98863, "population": 0}, {"name": "Abuochiche", "lat": 6.69132, "lng": 8.94337, "population": 0}, {"name": "Abudu", "lat": 6.29489, "lng": 6.02995, "population": 0}, {"name": "Abua", "lat": 4.85763, "lng": 6.64519, "population": 0}, {"name": "Abonnema", "lat": 4.73171, "lng": 6.77223, "population": 0}, {"name": "Aboh", "lat": 5.54781, "lng": 6.52588, "population": 0}, {"name": "Abigi", "lat": 6.48676, "lng": 4.39531, "population": 0}, {"name": "Abejukolo", "lat": 7.86808, "lng": 7.50907, "population": 0}, {"name": "Abaji", "lat": 8.47581, "lng": 6.94321, "population": 0}, {"name": "Abagana", "lat": 6.19031, "lng": 6.99357, "population": 0}, {"name": "Ojota", "lat": 6.57806, "lng": 3.38686, "population": 0}, {"name": "Ifako", "lat": 6.64423, "lng": 3.32488, "population": 0}, {"name": "Yana", "lat": 11.40724, "lng": 10.01345, "population": 0}, {"name": "Buni Yadi", "lat": 11.27441, "lng": 12.00852, "population": 0}, {"name": "Obangede", "lat": 7.62066, "lng": 6.19928, "population": 0}, {"name": "Naka", "lat": 7.58331, "lng": 8.2044, "population": 0}, {"name": "Ezillo", "lat": 6.4293, "lng": 7.81787, "population": 0}, {"name": "Koguna", "lat": 12.38137, "lng": 8.45733, "population": 0}, {"name": "Nasko", "lat": 10.49539, "lng": 4.89904, "population": 0}, {"name": "Oghara", "lat": 5.93554, "lng": 5.6661, "population": 0}, {"name": "Abat", "lat": 4.61712, "lng": 7.86639, "population": 0}, {"name": "Urua Inyang", "lat": 5.02309, "lng": 7.53895, "population": 0}, {"name": "Ibiaku Ntok Okpo", "lat": 5.30857, "lng": 7.71106, "population": 0}, {"name": "Irrua", "lat": 6.73634, "lng": 6.21984, "population": 0}, {"name": "Igueben", "lat": 6.60183, "lng": 6.24276, "population": 0}, {"name": "Umumma", "lat": 5.7569, "lng": 6.94613, "population": 0}, {"name": "Akinima", "lat": 5.08536, "lng": 6.46633, "population": 0}, {"name": "Umuguma", "lat": 5.46783, "lng": 6.96594, "population": 0}, {"name": "Sabon Garin Nangere", "lat": 11.84945, "lng": 11.0733, "population": 0}, {"name": "Aguobu-Owa", "lat": 6.37229, "lng": 7.27178, "population": 0}, {"name": "Ugbodo", "lat": 6.51155, "lng": 8.12984, "population": 0}, {"name": "Onueke", "lat": 6.15537, "lng": 8.03735, "population": 0}, {"name": "Lessel", "lat": 7.12729, "lng": 9.01981, "population": 0}, {"name": "Festac Town", "lat": 6.4697, "lng": 3.28299, "population": 0}, {"name": "Atan", "lat": 6.89456, "lng": 4.00715, "population": 0}, {"name": "Okuku", "lat": 8.01807, "lng": 4.67253, "population": 0}, {"name": "Iyana-Ofa", "lat": 7.50174, "lng": 4.08164, "population": 0}, {"name": "Mashegu", "lat": 9.97213, "lng": 5.77886, "population": 0}, {"name": "Bangi", "lat": 10.83368, "lng": 5.82688, "population": 0}, {"name": "Gawu Babangida", "lat": 9.27827, "lng": 6.99335, "population": 0}, {"name": "Sabon Wuse", "lat": 9.33424, "lng": 7.26114, "population": 0}, {"name": "Birnin Magaji", "lat": 12.5592, "lng": 6.89459, "population": 0}, {"name": "Kaura", "lat": 9.66812, "lng": 8.45825, "population": 0}, {"name": "Karu", "lat": 9.00943, "lng": 7.66147, "population": 0}, {"name": "Akpafa", "lat": 7.47192, "lng": 6.14979, "population": 0}, {"name": "Nkwo Nike", "lat": 6.50921, "lng": 7.51006, "population": 0}, {"name": "Isiaka", "lat": 5.86265, "lng": 7.54622, "population": 0}, {"name": "Obiozara", "lat": 6.04644, "lng": 7.77273, "population": 0}, {"name": "Onuebonyi Echara", "lat": 6.0954, "lng": 8.15157, "population": 0}, {"name": "Nwaorieubi", "lat": 5.58182, "lng": 7.01651, "population": 0}, {"name": "Aboh", "lat": 5.47569, "lng": 7.27161, "population": 0}, {"name": "Egbema", "lat": 5.54435, "lng": 6.7609, "population": 0}, {"name": "Isinweke", "lat": 5.62048, "lng": 7.34985, "population": 0}, {"name": "Nnenasa", "lat": 5.73262, "lng": 7.01364, "population": 0}, {"name": "Oke-Ikpe", "lat": 4.91301, "lng": 7.31936, "population": 0}, {"name": "Osisioma", "lat": 5.15979, "lng": 7.32235, "population": 0}, {"name": "Omoba", "lat": 5.24268, "lng": 7.40623, "population": 0}, {"name": "Okpuala-Ngwa", "lat": 5.3571, "lng": 7.38765, "population": 0}, {"name": "Nkwoagu Isuochi", "lat": 5.99125, "lng": 7.39445, "population": 0}, {"name": "Isiala Oboro", "lat": 5.40632, "lng": 7.56816, "population": 0}, {"name": "Ogbia", "lat": 4.68836, "lng": 6.31525, "population": 0}, {"name": "Upenekang", "lat": 4.57064, "lng": 7.97955, "population": 0}, {"name": "Ikot Edibon", "lat": 4.77022, "lng": 7.931, "population": 0}, {"name": "Ikot Akpa Nkuk", "lat": 4.87231, "lng": 7.56459, "population": 0}, {"name": "Eyofin", "lat": 4.7516, "lng": 8.23056, "population": 0}, {"name": "Urue Offong", "lat": 4.75275, "lng": 8.1677, "population": 0}, {"name": "Mabudi", "lat": 8.73037, "lng": 9.78512, "population": 0}, {"name": "Tunkus", "lat": 9.02167, "lng": 9.61384, "population": 0}, {"name": "Baap", "lat": 8.94321, "lng": 9.24126, "population": 0}, {"name": "Kwal", "lat": 9.37128, "lng": 9.6192, "population": 0}, {"name": "Boh", "lat": 9.78187, "lng": 11.27882, "population": 0}, {"name": "Kanamma", "lat": 13.09969, "lng": 12.1079, "population": 0}, {"name": "Khaddamari", "lat": 11.92589, "lng": 13.23062, "population": 0}, {"name": "Sunkani", "lat": 8.70298, "lng": 11.25757, "population": 0}, {"name": "Saakpenwa", "lat": 4.71677, "lng": 7.263, "population": 0}, {"name": "Nchia", "lat": 4.79309, "lng": 7.12061, "population": 0}, {"name": "Rumuodomaya", "lat": 4.89333, "lng": 7.00228, "population": 0}, {"name": "Lagos Island", "lat": 6.46614, "lng": 3.41838, "population": 0}, {"name": "Eti-Osa", "lat": 6.53094, "lng": 3.32648, "population": 0}, {"name": "Apumiri", "lat": 5.51398, "lng": 7.44758, "population": 0}]