[{"name": "Oslo", "lat": 59.91273, "lng": 10.74609, "population": 1082575}, {"name": "Bergen", "lat": 60.39299, "lng": 5.32415, "population": 294029}, {"name": "Trondheim", "lat": 63.43049, "lng": 10.39506, "population": 216518}, {"name": "Stavanger", "lat": 58.97005, "lng": 5.73332, "population": 148682}, {"name": "Kristiansand", "lat": 58.14671, "lng": 7.9956, "population": 117237}, {"name": "Drammen", "lat": 59.74389, "lng": 10.20449, "population": 105042}, {"name": "Lillestrøm", "lat": 59.95597, "lng": 11.04918, "population": 89684}, {"name": "Sandnes", "lat": 58.85244, "lng": 5.73521, "population": 85386}, {"name": "Fredrikstad", "lat": 59.2181, "lng": 10.9298, "population": 83761}, {"name": "Sandefjord", "lat": 59.13118, "lng": 10.21665, "population": 64345}, {"name": "Asker", "lat": 59.83333, "lng": 10.43721, "population": 61906}, {"name": "Sarpsborg", "lat": 59.28391, "lng": 11.10962, "population": 59038}, {"name": "Tønsberg", "lat": 59.26754, "lng": 10.40762, "population": 55387}, {"name": "Ålesund", "lat": 62.47225, "lng": 6.15492, "population": 52626}, {"name": "Skien", "lat": 59.20962, "lng": 9.60897, "population": 50595}, {"name": "Moss", "lat": 59.43403, "lng": 10.65771, "population": 49668}, {"name": "Tromsø", "lat": 69.6489, "lng": 18.95508, "population": 41915}, {"name": "Haugesund", "lat": 59.41378, "lng": 5.268, "population": 40321}, {"name": "Nesttun", "lat": 60.31821, "lng": 5.35317, "population": 35638}, {"name": "Porsgrunn", "lat": 59.14054, "lng": 9.6561, "population": 34377}, {"name": "Bodø", "lat": 67.28267, "lng": 14.37513, "population": 34073}, {"name": "Arendal", "lat": 58.46151, "lng": 8.77253, "population": 30916}, {"name": "Hamar", "lat": 60.7945, "lng": 11.06798, "population": 29479}, {"name": "Lillehammer", "lat": 61.11514, "lng": 10.46628, "population": 29011}, {"name": "Horten", "lat": 59.41721, "lng": 10.48343, "population": 27178}, {"name": "Ytrebygda", "lat": 60.30504, "lng": 5.28236, "population": 24044}, {"name": "Grimstad", "lat": 58.3405, "lng": 8.59343, "population": 24017}, {"name": "Kristiansund", "lat": 63.11045, "lng": 7.72795, "population": 24013}, {"name": "Larvik", "lat": 59.05328, "lng": 10.03517, "population": 23113}, {"name": "Molde", "lat": 62.73752, "lng": 7.15912, "population": 22410}, {"name": "Halden", "lat": 59.12478, "lng": 11.38754, "population": 21970}, {"name": "Harstad", "lat": 68.79833, "lng": 16.54165, "population": 20953}, {"name": "Levanger", "lat": 63.74644, "lng": 11.29963, "population": 20171}, {"name": "Time", "lat": 58.73333, "lng": 5.7, "population": 19781}, {"name": "Mo i Rana", "lat": 66.31278, "lng": 14.14278, "population": 18866}, {"name": "Tromsdalen", "lat": 69.65, "lng": 19.01667, "population": 18291}, {"name": "Kongsberg", "lat": 59.66858, "lng": 9.65017, "population": 17667}, {"name": "Gjøvik", "lat": 60.79574, "lng": 10.69155, "population": 17596}, {"name": "Stjørdalshalsen", "lat": 63.4681, "lng": 10.92618, "population": 15693}, {"name": "Alta", "lat": 69.96887, "lng": 23.27165, "population": 15094}, {"name": "Narvik", "lat": 68.43838, "lng": 17.4272, "population": 14141}, {"name": "Leirvik", "lat": 59.77977, "lng": 5.50051, "population": 14126}, {"name": "Hønefoss", "lat": 60.16804, "lng": 10.25647, "population": 13678}, {"name": "Strand", "lat": 59.05, "lng": 5.93333, "population": 13474}, {"name": "Steinkjer", "lat": 64.01487, "lng": 11.49537, "population": 13060}, {"name": "Stjørdal", "lat": 63.46803, "lng": 10.91776, "population": 13032}, {"name": "Vennesla", "lat": 58.26856, "lng": 7.97314, "population": 12816}, {"name": "Ski", "lat": 59.71949, "lng": 10.83576, "population": 12513}, {"name": "Elverum", "lat": 60.88191, "lng": 11.56231, "population": 12490}, {"name": "Askim", "lat": 59.58326, "lng": 11.16286, "population": 12482}, {"name": "Bryne", "lat": 58.73536, "lng": 5.64766, "population": 12465}, {"name": "Jessheim", "lat": 60.14151, "lng": 11.17515, "population": 12365}, {"name": "Notodden", "lat": 59.55936, "lng": 9.25853, "population": 12359}, {"name": "Kongsvinger", "lat": 60.19049, "lng": 11.99772, "population": 12338}, {"name": "Lenvik", "lat": 69.44318, "lng": 18.15643, "population": 11679}, {"name": "Stokke", "lat": 59.22255, "lng": 10.30055, "population": 11657}, {"name": "Kopervik", "lat": 59.28354, "lng": 5.30669, "population": 11561}, {"name": "Hammerfest", "lat": 70.66313, "lng": 23.68092, "population": 11448}, {"name": "Egersund", "lat": 58.45133, "lng": 5.9997, "population": 11433}, {"name": "Strømmen", "lat": 59.95063, "lng": 11.01009, "population": 11410}, {"name": "Drøbak", "lat": 59.66239, "lng": 10.62801, "population": 11363}, {"name": "Mandal", "lat": 58.0274, "lng": 7.45342, "population": 11053}, {"name": "Brumunddal", "lat": 60.88095, "lng": 10.93948, "population": 11019}, {"name": "Nesoddtangen", "lat": 59.86244, "lng": 10.66308, "population": 10911}, {"name": "Volda", "lat": 62.146, "lng": 6.07108, "population": 10809}, {"name": "Sortland", "lat": 68.69569, "lng": 15.40498, "population": 10468}, {"name": "Førde", "lat": 61.45217, "lng": 5.85717, "population": 10339}, {"name": "Ensjø", "lat": 59.91427, "lng": 10.78746, "population": 10000}, {"name": "Mosjøen", "lat": 65.83599, "lng": 13.19076, "population": 9636}, {"name": "Haram", "lat": 62.65781, "lng": 6.24094, "population": 9357}, {"name": "Flekkefjord", "lat": 58.29705, "lng": 6.66069, "population": 9048}, {"name": "Florø", "lat": 61.59957, "lng": 5.0328, "population": 9024}, {"name": "Søgne", "lat": 58.09328, "lng": 7.78294, "population": 9000}, {"name": "Råholt", "lat": 60.27513, "lng": 11.17901, "population": 8593}, {"name": "Namsos", "lat": 64.46624, "lng": 11.49572, "population": 8413}, {"name": "Verdal", "lat": 63.79332, "lng": 11.4817, "population": 8308}, {"name": "Orkanger", "lat": 63.30668, "lng": 9.85025, "population": 8204}, {"name": "Lillesand", "lat": 58.24879, "lng": 8.3778, "population": 7966}, {"name": "Ås", "lat": 59.66472, "lng": 10.79465, "population": 7961}, {"name": "Sæveland", "lat": 59.26667, "lng": 5.2, "population": 7873}, {"name": "Raufoss", "lat": 60.72604, "lng": 10.6133, "population": 7839}, {"name": "Nærbø", "lat": 58.66546, "lng": 5.63788, "population": 7269}, {"name": "Jørpeland", "lat": 59.02251, "lng": 6.04078, "population": 7230}, {"name": "Stryn", "lat": 61.90259, "lng": 6.7179, "population": 7207}, {"name": "Ask", "lat": 60.07131, "lng": 11.0362, "population": 6890}, {"name": "Indre Arna", "lat": 60.41768, "lng": 5.47087, "population": 6536}, {"name": "Fetsund", "lat": 59.92463, "lng": 11.15711, "population": 6441}, {"name": "Malvik", "lat": 63.43333, "lng": 10.68333, "population": 6419}, {"name": "Melhus", "lat": 63.28555, "lng": 10.27806, "population": 6393}, {"name": "Tananger", "lat": 58.93618, "lng": 5.5741, "population": 6377}, {"name": "Ørsta", "lat": 62.19983, "lng": 6.12904, "population": 6337}, {"name": "Holmestrand", "lat": 59.48761, "lng": 10.31761, "population": 6135}, {"name": "Tvedestrand", "lat": 58.62203, "lng": 8.93147, "population": 6115}, {"name": "Kvinesdal", "lat": 58.31215, "lng": 6.96187, "population": 6024}, {"name": "Fauske", "lat": 67.25883, "lng": 15.39181, "population": 5953}, {"name": "Kløfta", "lat": 60.07407, "lng": 11.13805, "population": 5942}, {"name": "Stavern", "lat": 59.0, "lng": 10.03333, "population": 5902}, {"name": "Sørumsand", "lat": 59.98621, "lng": 11.24154, "population": 5878}, {"name": "Knarvik", "lat": 60.5453, "lng": 5.28208, "population": 5875}, {"name": "Ulsteinvik", "lat": 62.34317, "lng": 5.84869, "population": 5788}, {"name": "Sandnessjøen", "lat": 66.02166, "lng": 12.63158, "population": 5778}, {"name": "Hommersåk", "lat": 58.92556, "lng": 5.85104, "population": 5692}, {"name": "Røros", "lat": 62.57468, "lng": 11.3842, "population": 5572}, {"name": "Voss", "lat": 60.62869, "lng": 6.41474, "population": 5571}, {"name": "Mysen", "lat": 59.55354, "lng": 11.32578, "population": 5516}, {"name": "Hommelvik", "lat": 63.41083, "lng": 10.79424, "population": 5418}, {"name": "Vestby", "lat": 59.60511, "lng": 10.75233, "population": 5330}, {"name": "Tranby", "lat": 59.8085, "lng": 10.26114, "population": 5322}, {"name": "Luster", "lat": 61.44322, "lng": 7.45992, "population": 5302}, {"name": "Austevoll", "lat": 60.10952, "lng": 5.16246, "population": 5297}, {"name": "Kragerø", "lat": 58.8693, "lng": 9.41494, "population": 5158}, {"name": "Brønnøysund", "lat": 65.47487, "lng": 12.21285, "population": 5045}, {"name": "Åkrehamn", "lat": 59.26053, "lng": 5.18689, "population": 5018}, {"name": "Fevik", "lat": 58.3782, "lng": 8.67601, "population": 4989}, {"name": "Tjøme", "lat": 59.1109, "lng": 10.3933, "population": 4928}, {"name": "Odda", "lat": 60.06912, "lng": 6.54565, "population": 4876}, {"name": "Jaren", "lat": 60.39273, "lng": 10.56155, "population": 4848}, {"name": "Svolvær", "lat": 68.23417, "lng": 14.56834, "population": 4720}, {"name": "Rotnes", "lat": 60.05707, "lng": 10.86135, "population": 4705}, {"name": "Vadsø", "lat": 70.07348, "lng": 29.74943, "population": 4654}, {"name": "Risør", "lat": 58.72057, "lng": 9.23422, "population": 4609}, {"name": "Moelv", "lat": 60.93333, "lng": 10.7, "population": 4547}, {"name": "Greverud", "lat": 59.77276, "lng": 10.80413, "population": 4500}, {"name": "Norheimsund", "lat": 60.37089, "lng": 6.14562, "population": 4399}, {"name": "Oppdal", "lat": 62.59431, "lng": 9.6912, "population": 4310}, {"name": "Jevnaker", "lat": 60.23979, "lng": 10.38709, "population": 4308}, {"name": "Maura", "lat": 60.2583, "lng": 11.03192, "population": 4224}, {"name": "Sauda", "lat": 59.65059, "lng": 6.35415, "population": 4174}, {"name": "Sunndalsøra", "lat": 62.67519, "lng": 8.56327, "population": 4054}, {"name": "Sogndal", "lat": 61.22908, "lng": 7.09674, "population": 3995}, {"name": "Svelvik", "lat": 59.6137, "lng": 10.40872, "population": 3926}, {"name": "Finnsnes", "lat": 69.22959, "lng": 17.98114, "population": 3907}, {"name": "Ågotnes", "lat": 60.40306, "lng": 5.01927, "population": 3821}, {"name": "Rakkestad", "lat": 59.42513, "lng": 11.34535, "population": 3779}, {"name": "Nordstranda", "lat": 62.51384, "lng": 6.13166, "population": 3700}, {"name": "Lyngdal", "lat": 58.1376, "lng": 7.07002, "population": 3671}, {"name": "Hareid", "lat": 62.37041, "lng": 6.02902, "population": 3626}, {"name": "Rjukan", "lat": 59.87891, "lng": 8.59411, "population": 3568}, {"name": "Leknes", "lat": 68.14746, "lng": 13.61151, "population": 3556}, {"name": "Kirkenes", "lat": 69.72706, "lng": 30.04578, "population": 3529}, {"name": "Skui", "lat": 59.92746, "lng": 10.4475, "population": 3487}, {"name": "Farnes", "lat": 61.3085, "lng": 7.79694, "population": 3465}, {"name": "Lysaker", "lat": 59.90994, "lng": 10.63545, "population": 3439}, {"name": "Sagvåg", "lat": 59.78139, "lng": 5.38996, "population": 3419}, {"name": "Aure", "lat": 63.2679, "lng": 8.52913, "population": 3384}, {"name": "Farsund", "lat": 58.09479, "lng": 6.80468, "population": 3377}, {"name": "Stokmarknes", "lat": 68.56462, "lng": 14.91075, "population": 3367}, {"name": "Måløy", "lat": 61.93535, "lng": 5.11362, "population": 3343}, {"name": "Skudeneshavn", "lat": 59.14945, "lng": 5.25913, "population": 3334}, {"name": "Varhaug", "lat": 58.6181, "lng": 5.65702, "population": 3314}, {"name": "Flateby", "lat": 59.82951, "lng": 11.15345, "population": 3298}, {"name": "Årnes", "lat": 60.12237, "lng": 11.47005, "population": 3289}, {"name": "Vikersund", "lat": 59.96838, "lng": 9.99107, "population": 3232}, {"name": "Tau", "lat": 59.06481, "lng": 5.9225, "population": 3212}, {"name": "Spydeberg", "lat": 59.61709, "lng": 11.08559, "population": 3166}, {"name": "Tofte", "lat": 59.54275, "lng": 10.56138, "population": 3109}, {"name": "Sætre", "lat": 59.68129, "lng": 10.52749, "population": 3009}, {"name": "Nordfjordeid", "lat": 61.9122, "lng": 5.98557, "population": 2974}, {"name": "Stranda", "lat": 62.30864, "lng": 6.93717, "population": 2969}, {"name": "Birkeland", "lat": 58.33091, "lng": 8.23229, "population": 2962}, {"name": "Åsgårdstrand", "lat": 59.34938, "lng": 10.46948, "population": 2959}, {"name": "Svortland", "lat": 59.79284, "lng": 5.17226, "population": 2932}, {"name": "Dokka", "lat": 60.835, "lng": 10.07362, "population": 2924}, {"name": "Vik", "lat": 61.05712, "lng": 6.57806, "population": 2899}, {"name": "Løding", "lat": 67.30055, "lng": 14.73852, "population": 2835}, {"name": "Tynset", "lat": 62.27594, "lng": 10.78241, "population": 2779}, {"name": "Røyken", "lat": 59.74724, "lng": 10.38832, "population": 2775}, {"name": "Vormedal", "lat": 59.35607, "lng": 5.31962, "population": 2774}, {"name": "Justvik", "lat": 58.19691, "lng": 8.03107, "population": 2770}, {"name": "Løten", "lat": 60.81941, "lng": 11.34209, "population": 2754}, {"name": "Vedavågen", "lat": 59.29483, "lng": 5.21874, "population": 2728}, {"name": "Ulefoss", "lat": 59.28245, "lng": 9.26548, "population": 2697}, {"name": "Andenes", "lat": 69.31428, "lng": 16.11939, "population": 2694}, {"name": "Vinstra", "lat": 61.59496, "lng": 9.75134, "population": 2678}, {"name": "Auli", "lat": 60.0345, "lng": 11.36046, "population": 2638}, {"name": "Ytre Arna", "lat": 60.46175, "lng": 5.43265, "population": 2626}, {"name": "Rørvik", "lat": 64.86201, "lng": 11.23734, "population": 2615}, {"name": "Gullhaug", "lat": 59.5013, "lng": 10.25224, "population": 2604}, {"name": "Skålevik", "lat": 58.07955, "lng": 8.01602, "population": 2599}, {"name": "Rognan", "lat": 67.10021, "lng": 15.39086, "population": 2584}, {"name": "Rygge", "lat": 59.37762, "lng": 10.75034, "population": 2567}, {"name": "Skarnes", "lat": 60.25391, "lng": 11.68485, "population": 2557}, {"name": "Skodje", "lat": 62.50468, "lng": 6.69322, "population": 2544}, {"name": "Bjørnevatn", "lat": 69.66745, "lng": 29.98722, "population": 2536}, {"name": "Gol", "lat": 60.7014, "lng": 8.94572, "population": 2530}, {"name": "Bø", "lat": 59.41299, "lng": 9.0693, "population": 2522}, {"name": "Geilo", "lat": 60.53369, "lng": 8.20539, "population": 2500}, {"name": "Frosta", "lat": 63.5891, "lng": 10.7423, "population": 2495}, {"name": "Honningsvåg", "lat": 70.98209, "lng": 25.97037, "population": 2484}, {"name": "Kyrksæterøra", "lat": 63.29057, "lng": 9.08909, "population": 2471}, {"name": "Setermoen", "lat": 68.86099, "lng": 18.34857, "population": 2464}, {"name": "Skjervøy", "lat": 70.03114, "lng": 20.97141, "population": 2460}, {"name": "Sandane", "lat": 61.77277, "lng": 6.21496, "population": 2447}, {"name": "Alvdal", "lat": 62.10766, "lng": 10.63073, "population": 2445}, {"name": "Vatne", "lat": 62.55826, "lng": 6.61708, "population": 2439}, {"name": "Innbygda", "lat": 61.31484, "lng": 12.26374, "population": 2433}, {"name": "Stange", "lat": 60.71803, "lng": 11.19417, "population": 2416}, {"name": "Ryggebyen", "lat": 59.375, "lng": 10.75, "population": 2416}, {"name": "Åndalsnes", "lat": 62.56749, "lng": 7.68709, "population": 2403}, {"name": "Elnesvågen", "lat": 62.85426, "lng": 7.13769, "population": 2362}, {"name": "Billingstad", "lat": 59.87548, "lng": 10.4823, "population": 2349}, {"name": "Bjørkelangen", "lat": 59.88357, "lng": 11.56396, "population": 2346}, {"name": "Lervik", "lat": 59.27119, "lng": 10.7461, "population": 2331}, {"name": "Løpsmarka", "lat": 67.31343, "lng": 14.44934, "population": 2308}, {"name": "Kabelvåg", "lat": 68.21066, "lng": 14.47554, "population": 2291}, {"name": "Lakselv", "lat": 70.05133, "lng": 24.97182, "population": 2283}, {"name": "Otta", "lat": 61.7712, "lng": 9.53529, "population": 2283}, {"name": "Ål", "lat": 60.63024, "lng": 8.56071, "population": 2278}, {"name": "Hylkje", "lat": 60.51028, "lng": 5.35444, "population": 2277}, {"name": "Melbu", "lat": 68.50246, "lng": 14.79962, "population": 2257}, {"name": "Rena", "lat": 61.13222, "lng": 11.37156, "population": 2216}, {"name": "Fossbergom", "lat": 61.83772, "lng": 8.56842, "population": 2211}, {"name": "Tomter", "lat": 59.6591, "lng": 10.99487, "population": 2209}, {"name": "Nodeland", "lat": 58.15517, "lng": 7.83576, "population": 2208}, {"name": "Lyefjell", "lat": 58.73539, "lng": 5.73615, "population": 2200}, {"name": "Aursmoen", "lat": 59.92763, "lng": 11.44275, "population": 2173}, {"name": "Båtsfjord", "lat": 70.63428, "lng": 29.7175, "population": 2166}, {"name": "Hauge i Dalane", "lat": 58.34361, "lng": 6.28121, "population": 2148}, {"name": "Brattvåg", "lat": 62.59991, "lng": 6.44426, "population": 2146}, {"name": "Hermansverk", "lat": 61.18461, "lng": 6.85016, "population": 2144}, {"name": "Liknes", "lat": 58.31216, "lng": 6.9618, "population": 2141}, {"name": "Evjen", "lat": 68.26667, "lng": 13.73333, "population": 2127}, {"name": "Rensvik", "lat": 63.09843, "lng": 7.82026, "population": 2121}, {"name": "Hauknes", "lat": 66.28333, "lng": 14.06667, "population": 2110}, {"name": "Vigrestad", "lat": 58.57103, "lng": 5.68182, "population": 2090}, {"name": "Vestnes", "lat": 62.62544, "lng": 7.08696, "population": 2088}, {"name": "Nesbyen", "lat": 60.56809, "lng": 9.10274, "population": 2086}, {"name": "Myre", "lat": 68.914, "lng": 15.07843, "population": 2086}, {"name": "Melsomvik", "lat": 59.22394, "lng": 10.33616, "population": 2067}, {"name": "Hov", "lat": 60.6987, "lng": 10.35193, "population": 2054}, {"name": "Årøysund", "lat": 59.18321, "lng": 10.45743, "population": 2052}, {"name": "Høyanger", "lat": 61.22348, "lng": 6.08471, "population": 2051}, {"name": "Vanse", "lat": 58.09812, "lng": 6.69184, "population": 2016}, {"name": "Kautokeino", "lat": 69.01247, "lng": 23.04116, "population": 2000}, {"name": "Myre", "lat": 69.10588, "lng": 15.96308, "population": 1995}, {"name": "Fagerstrand", "lat": 59.73746, "lng": 10.59404, "population": 1990}, {"name": "Lødingen", "lat": 68.41373, "lng": 15.99626, "population": 1976}, {"name": "Spetalen", "lat": 60.18333, "lng": 11.9, "population": 1969}, {"name": "Fagernes", "lat": 60.98584, "lng": 9.23236, "population": 1951}, {"name": "Skogn", "lat": 63.70374, "lng": 11.19262, "population": 1935}, {"name": "Moi", "lat": 58.45674, "lng": 6.55184, "population": 1926}, {"name": "Hell", "lat": 63.44582, "lng": 10.90093, "population": 1921}, {"name": "Blakstad", "lat": 59.8191, "lng": 10.4645, "population": 1898}, {"name": "Hemsedal", "lat": 60.86293, "lng": 8.55337, "population": 1876}, {"name": "Vardø", "lat": 70.37048, "lng": 31.11066, "population": 1875}, {"name": "Skjeberg", "lat": 59.21148, "lng": 11.19025, "population": 1862}, {"name": "Kárášjohka", "lat": 69.47187, "lng": 25.51122, "population": 1844}, {"name": "Brekstad", "lat": 63.68697, "lng": 9.66541, "population": 1835}, {"name": "Selvik", "lat": 59.56645, "lng": 10.26004, "population": 1829}, {"name": "Sem", "lat": 59.2823, "lng": 10.33004, "population": 1827}, {"name": "Karlshus", "lat": 59.35195, "lng": 10.87226, "population": 1801}, {"name": "Espeland", "lat": 60.38249, "lng": 5.4657, "population": 1793}, {"name": "Fitjar", "lat": 59.91803, "lng": 5.31674, "population": 1751}, {"name": "Rypefjord", "lat": 70.64126, "lng": 23.67213, "population": 1731}, {"name": "Ørje", "lat": 59.48023, "lng": 11.66016, "population": 1722}, {"name": "Skoppum", "lat": 59.38613, "lng": 10.41077, "population": 1713}, {"name": "Skaun", "lat": 63.25149, "lng": 10.05236, "population": 1682}, {"name": "Straumen", "lat": 63.87163, "lng": 11.29617, "population": 1670}, {"name": "Gravdal", "lat": 68.11832, "lng": 13.55339, "population": 1662}, {"name": "Knappskog", "lat": 60.37906, "lng": 5.05602, "population": 1640}, {"name": "Øystese", "lat": 60.38825, "lng": 6.19251, "population": 1634}, {"name": "Ørnes", "lat": 66.86878, "lng": 13.70579, "population": 1624}, {"name": "Frekhaug", "lat": 60.51321, "lng": 5.24252, "population": 1610}, {"name": "Storebø", "lat": 60.09485, "lng": 5.22705, "population": 1588}, {"name": "Grua", "lat": 60.25701, "lng": 10.66222, "population": 1587}, {"name": "Vang", "lat": 61.12529, "lng": 8.5729, "population": 1587}, {"name": "Sjøholt", "lat": 62.48263, "lng": 6.81376, "population": 1586}, {"name": "Sveio", "lat": 59.5419, "lng": 5.35178, "population": 1529}, {"name": "Borkenes", "lat": 68.77261, "lng": 16.17115, "population": 1508}, {"name": "Sjølyststranda", "lat": 59.92105, "lng": 10.68017, "population": 1500}, {"name": "Frydenberg", "lat": 59.92879, "lng": 10.78875, "population": 1500}, {"name": "Vågåmo", "lat": 61.87505, "lng": 9.09671, "population": 1487}, {"name": "Vigeland", "lat": 58.08437, "lng": 7.30497, "population": 1471}, {"name": "Kolvereid", "lat": 64.86549, "lng": 11.60465, "population": 1467}, {"name": "Storslett", "lat": 69.76783, "lng": 21.02466, "population": 1455}, {"name": "Lunde", "lat": 59.29832, "lng": 9.10268, "population": 1422}, {"name": "Eike", "lat": 59.39833, "lng": 5.36389, "population": 1408}, {"name": "Tveit", "lat": 58.23366, "lng": 8.12199, "population": 1397}, {"name": "Sande", "lat": 59.58679, "lng": 10.20809, "population": 1389}, {"name": "Lindås", "lat": 60.73639, "lng": 5.16102, "population": 1383}, {"name": "Årdalstangen", "lat": 61.23581, "lng": 7.7037, "population": 1375}, {"name": "Larkollen", "lat": 59.33196, "lng": 10.66687, "population": 1373}, {"name": "Åneby", "lat": 60.08926, "lng": 10.86998, "population": 1373}, {"name": "Skotterud", "lat": 59.98281, "lng": 12.12825, "population": 1360}, {"name": "Hemnesberget", "lat": 66.22489, "lng": 13.61643, "population": 1335}, {"name": "Hagavik", "lat": 60.18076, "lng": 5.40146, "population": 1305}, {"name": "Etne", "lat": 59.66528, "lng": 5.93708, "population": 1283}, {"name": "Herre", "lat": 59.10351, "lng": 9.56195, "population": 1281}, {"name": "Malm", "lat": 64.07534, "lng": 11.22398, "population": 1268}, {"name": "Strai", "lat": 58.1893, "lng": 7.92826, "population": 1266}, {"name": "Rubbestadneset", "lat": 59.81559, "lng": 5.26822, "population": 1264}, {"name": "Gaupne", "lat": 61.40472, "lng": 7.29458, "population": 1257}, {"name": "Lena", "lat": 60.67391, "lng": 10.81317, "population": 1245}, {"name": "Barkåker", "lat": 59.31859, "lng": 10.38963, "population": 1238}, {"name": "Kirkenær", "lat": 60.4579, "lng": 12.05855, "population": 1231}, {"name": "Prestestranda", "lat": 59.09773, "lng": 9.05866, "population": 1215}, {"name": "Nesna", "lat": 66.19817, "lng": 13.01844, "population": 1211}, {"name": "Svelgen", "lat": 61.76976, "lng": 5.29544, "population": 1207}, {"name": "Skoger", "lat": 59.71327, "lng": 10.25356, "population": 1206}, {"name": "Fyresdal", "lat": 59.18343, "lng": 8.0921, "population": 1198}, {"name": "Dale", "lat": 60.58639, "lng": 5.81888, "population": 1193}, {"name": "Dale", "lat": 61.36353, "lng": 5.40036, "population": 1186}, {"name": "Seljord", "lat": 59.48477, "lng": 8.63017, "population": 1185}, {"name": "Leirsund", "lat": 59.99682, "lng": 11.08746, "population": 1177}, {"name": "Frogner", "lat": 60.02463, "lng": 11.10284, "population": 1174}, {"name": "Syfteland", "lat": 60.23803, "lng": 5.45285, "population": 1170}, {"name": "Tomra", "lat": 62.58118, "lng": 6.93106, "population": 1167}, {"name": "Mosterhamn", "lat": 59.69919, "lng": 5.38585, "population": 1167}, {"name": "Dombås", "lat": 62.07554, "lng": 9.12785, "population": 1163}, {"name": "Neskollen", "lat": 60.12159, "lng": 11.33926, "population": 1157}, {"name": "Eide", "lat": 62.91735, "lng": 7.44669, "population": 1155}, {"name": "Våler", "lat": 60.67122, "lng": 11.83477, "population": 1145}, {"name": "Å i Åfjord", "lat": 63.96068, "lng": 10.22468, "population": 1145}, {"name": "Botngård", "lat": 63.76484, "lng": 9.80863, "population": 1144}, {"name": "Åros", "lat": 59.7061, "lng": 10.51092, "population": 1142}, {"name": "Ávanuorri", "lat": 70.99634, "lng": 24.66217, "population": 1138}, {"name": "Lærdalsøyri", "lat": 61.10001, "lng": 7.47374, "population": 1135}, {"name": "Knappstad", "lat": 59.62424, "lng": 11.03274, "population": 1133}, {"name": "Berger", "lat": 59.54994, "lng": 10.38641, "population": 1125}, {"name": "Vestbygd", "lat": 58.09991, "lng": 6.58696, "population": 1123}, {"name": "Koppang", "lat": 61.57219, "lng": 11.04659, "population": 1101}, {"name": "Glomfjord", "lat": 66.81663, "lng": 13.94404, "population": 1089}, {"name": "Bjerkvik", "lat": 68.54917, "lng": 17.55709, "population": 1088}, {"name": "Reinsvoll", "lat": 60.67977, "lng": 10.62175, "population": 1083}, {"name": "Tysvær", "lat": 59.33204, "lng": 5.48981, "population": 1077}, {"name": "Storsteinnes", "lat": 69.24081, "lng": 19.23437, "population": 1076}, {"name": "Naustdal", "lat": 61.51108, "lng": 5.71694, "population": 1071}, {"name": "Sandsli", "lat": 60.30323, "lng": 5.28554, "population": 1070}, {"name": "Ulvik", "lat": 60.56791, "lng": 6.91645, "population": 1067}, {"name": "Grong", "lat": 64.46459, "lng": 12.31601, "population": 1065}, {"name": "Lundamo", "lat": 63.15216, "lng": 10.28555, "population": 1063}, {"name": "Skreia", "lat": 60.65257, "lng": 10.93564, "population": 1036}, {"name": "Fjellfoten", "lat": 60.08967, "lng": 11.47222, "population": 1029}, {"name": "Vikeså", "lat": 58.63759, "lng": 6.09133, "population": 1017}, {"name": "Hvittingfoss", "lat": 59.48572, "lng": 10.01173, "population": 1016}, {"name": "Tingvoll", "lat": 62.91318, "lng": 8.20526, "population": 1005}, {"name": "Hjelset", "lat": 62.7805, "lng": 7.49277, "population": 1001}, {"name": "Meråker", "lat": 63.41406, "lng": 11.74298, "population": 961}, {"name": "Sand", "lat": 60.3922, "lng": 11.5403, "population": 946}, {"name": "Kjøllefjord", "lat": 70.94574, "lng": 27.3465, "population": 945}, {"name": "Berkåk", "lat": 62.82496, "lng": 10.01177, "population": 914}, {"name": "Berlevåg", "lat": 70.85778, "lng": 29.08636, "population": 906}, {"name": "Straumen", "lat": 67.34769, "lng": 15.60493, "population": 892}, {"name": "Siljan", "lat": 59.28843, "lng": 9.71, "population": 891}, {"name": "Ølen", "lat": 59.60437, "lng": 5.80799, "population": 891}, {"name": "Eidsvåg", "lat": 62.77656, "lng": 8.0655, "population": 891}, {"name": "Korgen", "lat": 66.07662, "lng": 13.8216, "population": 878}, {"name": "Tonstad", "lat": 58.66263, "lng": 6.71694, "population": 874}, {"name": "Lonevåg", "lat": 60.52556, "lng": 5.49563, "population": 874}, {"name": "Gvarv", "lat": 59.38767, "lng": 9.1724, "population": 871}, {"name": "Tretten", "lat": 61.31423, "lng": 10.30066, "population": 859}, {"name": "Moen", "lat": 69.13043, "lng": 18.61226, "population": 847}, {"name": "Trofors", "lat": 65.53335, "lng": 13.40631, "population": 835}, {"name": "Lyngseidet", "lat": 69.57629, "lng": 20.21887, "population": 821}, {"name": "Manger", "lat": 60.64145, "lng": 5.04136, "population": 814}, {"name": "Rosendal", "lat": 59.98589, "lng": 6.01157, "population": 804}, {"name": "Myra", "lat": 58.74921, "lng": 8.86254, "population": 781}, {"name": "Sjøvegan", "lat": 68.87363, "lng": 17.84706, "population": 780}, {"name": "Mehamn", "lat": 71.04137, "lng": 27.85133, "population": 779}, {"name": "Balestrand", "lat": 61.20962, "lng": 6.53608, "population": 769}, {"name": "Leland", "lat": 66.06406, "lng": 12.94325, "population": 718}, {"name": "Sistranda", "lat": 63.72523, "lng": 8.83318, "population": 685}, {"name": "Os", "lat": 62.49647, "lng": 11.22326, "population": 672}, {"name": "Snåase", "lat": 64.2457, "lng": 12.37779, "population": 659}, {"name": "Rindal", "lat": 63.05547, "lng": 9.21151, "population": 649}, {"name": "Inndyr", "lat": 67.03353, "lng": 14.02663, "population": 649}, {"name": "Tolga", "lat": 62.40898, "lng": 10.99883, "population": 646}, {"name": "Skjærhalden", "lat": 59.02526, "lng": 11.03685, "population": 642}, {"name": "Sørland", "lat": 67.66564, "lng": 12.69784, "population": 640}, {"name": "Kviteseid", "lat": 59.40223, "lng": 8.49267, "population": 640}, {"name": "Larsnes", "lat": 62.20282, "lng": 5.57729, "population": 626}, {"name": "Hundorp", "lat": 61.55523, "lng": 9.94069, "population": 615}, {"name": "Bagn", "lat": 60.82249, "lng": 9.55207, "population": 607}, {"name": "Evenskjer", "lat": 68.58283, "lng": 16.57203, "population": 601}, {"name": "Åmli", "lat": 58.76566, "lng": 8.48392, "population": 572}, {"name": "Eidfjord", "lat": 60.4675, "lng": 7.07193, "population": 569}, {"name": "Judaberg", "lat": 59.17204, "lng": 5.87617, "population": 560}, {"name": "Oppeid", "lat": 68.08522, "lng": 15.60942, "population": 551}, {"name": "Terråk", "lat": 65.087, "lng": 12.37148, "population": 540}, {"name": "Dalen", "lat": 59.44499, "lng": 8.00492, "population": 532}, {"name": "Øksfjord", "lat": 70.23936, "lng": 22.3507, "population": 515}, {"name": "Ranemsletta", "lat": 64.49447, "lng": 11.94912, "population": 510}, {"name": "Fillan", "lat": 63.60638, "lng": 8.96961, "population": 510}, {"name": "Folldal", "lat": 62.13246, "lng": 9.9968, "population": 497}, {"name": "Hansnes", "lat": 69.96701, "lng": 19.62752, "population": 493}, {"name": "Fedje", "lat": 60.7789, "lng": 4.71485, "population": 480}, {"name": "Hamnvik", "lat": 68.77927, "lng": 17.17179, "population": 474}, {"name": "Midsund", "lat": 62.67387, "lng": 6.67412, "population": 468}, {"name": "Lauvsnes", "lat": 64.50061, "lng": 10.89396, "population": 467}, {"name": "Prestfoss", "lat": 60.04343, "lng": 9.6352, "population": 465}, {"name": "Granvin", "lat": 60.52408, "lng": 6.7194, "population": 460}, {"name": "Kinsarvik", "lat": 60.37567, "lng": 6.71948, "population": 459}, {"name": "Dovre", "lat": 61.9875, "lng": 9.25556, "population": 439}, {"name": "Hovden", "lat": 59.56045, "lng": 7.3567, "population": 413}, {"name": "Burfjord", "lat": 69.93804, "lng": 22.05205, "population": 405}, {"name": "Bogen", "lat": 68.52647, "lng": 16.9928, "population": 395}, {"name": "Batnfjordsøra", "lat": 62.89463, "lng": 7.67251, "population": 387}, {"name": "Vik", "lat": 65.31254, "lng": 12.16734, "population": 381}, {"name": "Hardbakke", "lat": 61.07562, "lng": 4.84111, "population": 334}, {"name": "Straume", "lat": 68.6888, "lng": 14.47205, "population": 333}, {"name": "Noresund", "lat": 60.17985, "lng": 9.62411, "population": 330}, {"name": "Olderdalen", "lat": 69.60407, "lng": 20.53272, "population": 322}, {"name": "Fossby", "lat": 59.22218, "lng": 11.69928, "population": 318}, {"name": "Reine", "lat": 67.93249, "lng": 13.08955, "population": 314}, {"name": "Uggdal", "lat": 60.00402, "lng": 5.52876, "population": 313}, {"name": "Gladstad", "lat": 65.67683, "lng": 11.96218, "population": 300}, {"name": "Valle", "lat": 59.21259, "lng": 7.53559, "population": 289}, {"name": "Gjerstad", "lat": 58.88083, "lng": 9.01861, "population": 289}, {"name": "Solfjellsjøen", "lat": 66.11667, "lng": 12.48333, "population": 281}, {"name": "Røyrvik", "lat": 64.88394, "lng": 13.56256, "population": 254}, {"name": "Bruflat", "lat": 60.88781, "lng": 9.64143, "population": 235}, {"name": "Utsira", "lat": 59.3057, "lng": 4.8862, "population": 188}, {"name": "Vuonnabahta", "lat": 70.17278, "lng": 28.55598, "population": 0}, {"name": "Vikøyri", "lat": 61.08707, "lng": 6.57914, "population": 0}, {"name": "Vevelstad", "lat": 65.6978, "lng": 12.43706, "population": 0}, {"name": "Tysse", "lat": 60.37404, "lng": 5.75952, "population": 0}, {"name": "Treungen", "lat": 59.02064, "lng": 8.5202, "population": 0}, {"name": "Tingvatn", "lat": 58.3757, "lng": 7.2197, "population": 0}, {"name": "Tangvall", "lat": 58.09781, "lng": 7.81529, "population": 0}, {"name": "Sola", "lat": 58.88854, "lng": 5.65285, "population": 0}, {"name": "Sogndalsfjøra", "lat": 61.22575, "lng": 7.10178, "population": 0}, {"name": "Skjønhaug", "lat": 59.64069, "lng": 11.31591, "population": 0}, {"name": "Sandvika", "lat": 64.46377, "lng": 13.59125, "population": 0}, {"name": "Sandvika", "lat": 59.89073, "lng": 10.52774, "population": 0}, {"name": "Røst", "lat": 67.51754, "lng": 12.1176, "population": 0}, {"name": "Rollag", "lat": 59.98431, "lng": 9.29644, "population": 0}, {"name": "Roa", "lat": 60.29093, "lng": 10.61585, "population": 0}, {"name": "Randaberg", "lat": 58.99955, "lng": 5.61871, "population": 0}, {"name": "Ramberg", "lat": 68.08991, "lng": 13.22989, "population": 0}, {"name": "Osøyro", "lat": 60.18385, "lng": 5.4638, "population": 0}, {"name": "Namsskogan", "lat": 64.92886, "lng": 13.15954, "population": 0}, {"name": "Moldjord", "lat": 67.00601, "lng": 14.5743, "population": 0}, {"name": "Mo", "lat": 60.81625, "lng": 5.80575, "population": 0}, {"name": "Mjøndalen", "lat": 59.75075, "lng": 10.02477, "population": 0}, {"name": "Masfjorden", "lat": 60.79887, "lng": 5.30418, "population": 0}, {"name": "Leknes", "lat": 65.1, "lng": 11.7, "population": 0}, {"name": "Langevåg", "lat": 62.44085, "lng": 6.19137, "population": 0}, {"name": "Langesund", "lat": 59.00071, "lng": 9.74876, "population": 0}, {"name": "Krokstadøra", "lat": 63.40099, "lng": 9.50062, "population": 0}, {"name": "Kolbotn", "lat": 59.81056, "lng": 10.80389, "population": 0}, {"name": "Kleppestø", "lat": 60.40844, "lng": 5.2276, "population": 0}, {"name": "Jondal", "lat": 60.27561, "lng": 6.25229, "population": 0}, {"name": "Isdalstø", "lat": 60.55519, "lng": 5.26942, "population": 0}, {"name": "Hyllestad", "lat": 61.17109, "lng": 5.29603, "population": 0}, {"name": "Hopen", "lat": 63.46539, "lng": 8.01437, "population": 0}, {"name": "Hokksund", "lat": 59.77077, "lng": 9.90987, "population": 0}, {"name": "Heggenes", "lat": 61.14383, "lng": 9.06942, "population": 0}, {"name": "Gratangen", "lat": 68.65, "lng": 17.68333, "population": 0}, {"name": "Fosnavåg", "lat": 62.34194, "lng": 5.63396, "population": 0}, {"name": "Flå", "lat": 60.43021, "lng": 9.46197, "population": 0}, {"name": "Evje", "lat": 58.58569, "lng": 7.80363, "population": 0}, {"name": "Eivindvik", "lat": 60.98133, "lng": 5.07497, "population": 0}, {"name": "Eidsvoll", "lat": 60.3311, "lng": 11.26264, "population": 0}, {"name": "Bygland", "lat": 58.8285, "lng": 7.79616, "population": 0}, {"name": "Austrheim", "lat": 60.7774, "lng": 4.9323, "population": 0}, {"name": "Aas", "lat": 63.05, "lng": 11.65, "population": 0}, {"name": "Årnes", "lat": 63.96114, "lng": 10.22601, "population": 0}, {"name": "Åmot", "lat": 59.56974, "lng": 7.98871, "population": 0}, {"name": "Ålgård", "lat": 58.76417, "lng": 5.85253, "population": 0}, {"name": "Ålen", "lat": 62.84185, "lng": 11.3013, "population": 0}, {"name": "Meieribyen", "lat": 59.47453, "lng": 11.16083, "population": 0}, {"name": "Kirkebygda", "lat": 59.4921, "lng": 10.87432, "population": 0}, {"name": "Elvestad", "lat": 59.62401, "lng": 10.9508, "population": 0}, {"name": "Fjerdingby", "lat": 59.92626, "lng": 11.06527, "population": 0}, {"name": "Kirkebygda", "lat": 59.76452, "lng": 11.14492, "population": 0}, {"name": "Kjenn", "lat": 59.93098, "lng": 10.95373, "population": 0}, {"name": "Teigebyen", "lat": 60.22069, "lng": 11.0176, "population": 0}, {"name": "Hurdal", "lat": 60.43518, "lng": 11.06707, "population": 0}, {"name": "Flisa", "lat": 60.61318, "lng": 12.01088, "population": 0}, {"name": "Bergset", "lat": 61.89126, "lng": 11.07769, "population": 0}, {"name": "Engerdal", "lat": 61.75904, "lng": 11.95937, "population": 0}, {"name": "Lesja", "lat": 62.11837, "lng": 8.86424, "population": 0}, {"name": "Bismo", "lat": 61.88406, "lng": 8.26665, "population": 0}, {"name": "Ringebu", "lat": 61.52965, "lng": 10.13889, "population": 0}, {"name": "Segalstad bru", "lat": 61.22819, "lng": 10.22255, "population": 0}, {"name": "Slidre", "lat": 61.08802, "lng": 8.98141, "population": 0}, {"name": "Vik", "lat": 60.07706, "lng": 10.27908, "population": 0}, {"name": "Trøim", "lat": 60.86114, "lng": 8.56537, "population": 0}, {"name": "Hol", "lat": 60.61511, "lng": 8.29398, "population": 0}, {"name": "Lierbyen", "lat": 59.78651, "lng": 10.24447, "population": 0}, {"name": "Lampeland", "lat": 59.83486, "lng": 9.57912, "population": 0}, {"name": "Rødberg", "lat": 60.26722, "lng": 8.94721, "population": 0}, {"name": "Revetal", "lat": 59.3724, "lng": 10.26308, "population": 0}, {"name": "Borgheim", "lat": 59.22629, "lng": 10.40745, "population": 0}, {"name": "Sauland", "lat": 59.6161, "lng": 8.93755, "population": 0}, {"name": "Blakstad", "lat": 58.5046, "lng": 8.64648, "population": 0}, {"name": "Birketveit", "lat": 58.45909, "lng": 7.91692, "population": 0}, {"name": "Kyrkjebygda", "lat": 58.61523, "lng": 7.41391, "population": 0}, {"name": "Kleppe", "lat": 58.77423, "lng": 5.62936, "population": 0}, {"name": "Hjelmelandsvågen", "lat": 59.23692, "lng": 6.17907, "population": 0}, {"name": "Sand", "lat": 59.48468, "lng": 6.25109, "population": 0}, {"name": "Ydstebøhamn", "lat": 59.06227, "lng": 5.40249, "population": 0}, {"name": "Bokn", "lat": 59.23062, "lng": 5.43524, "population": 0}, {"name": "Aksdal", "lat": 59.42408, "lng": 5.44553, "population": 0}, {"name": "Straume", "lat": 60.36131, "lng": 5.12199, "population": 0}, {"name": "Aurlandsvangen", "lat": 60.90578, "lng": 7.18706, "population": 0}, {"name": "Askvoll", "lat": 61.34673, "lng": 5.06224, "population": 0}, {"name": "Hornindal", "lat": 61.96921, "lng": 6.52418, "population": 0}, {"name": "Fiskå", "lat": 62.10059, "lng": 5.55788, "population": 0}, {"name": "Stordal", "lat": 62.38203, "lng": 6.98629, "population": 0}, {"name": "Sykkylven", "lat": 62.39594, "lng": 6.5875, "population": 0}, {"name": "Valderøy", "lat": 62.5007, "lng": 6.13472, "population": 0}, {"name": "Falkhytta", "lat": 62.805, "lng": 6.88722, "population": 0}, {"name": "Bruhagen", "lat": 63.05259, "lng": 7.63416, "population": 0}, {"name": "Surnadal", "lat": 62.97397, "lng": 8.72472, "population": 0}, {"name": "Rissa", "lat": 63.58368, "lng": 9.95989, "population": 0}, {"name": "Steinsdalen", "lat": 64.29875, "lng": 10.51284, "population": 0}, {"name": "Støren", "lat": 63.0391, "lng": 10.28501, "population": 0}, {"name": "Børsa", "lat": 63.32672, "lng": 10.0692, "population": 0}, {"name": "Klæbu", "lat": 63.29762, "lng": 10.48261, "population": 0}, {"name": "Mebonden", "lat": 63.23034, "lng": 11.03099, "population": 0}, {"name": "Høylandet", "lat": 64.62887, "lng": 12.30206, "population": 0}, {"name": "Silvalen", "lat": 65.9832, "lng": 12.28856, "population": 0}, {"name": "Hattfjelldal", "lat": 65.59736, "lng": 13.98791, "population": 0}, {"name": "Lurøy", "lat": 66.41887, "lng": 12.84248, "population": 0}, {"name": "Husøya", "lat": 66.50159, "lng": 12.09645, "population": 0}, {"name": "Vågaholmen", "lat": 66.71367, "lng": 13.28711, "population": 0}, {"name": "Leinesfjorden", "lat": 67.77548, "lng": 15.01545, "population": 0}, {"name": "Tennevoll", "lat": 68.7471, "lng": 17.80621, "population": 0}, {"name": "Sørreisa", "lat": 69.14527, "lng": 18.15292, "population": 0}, {"name": "Brøstadbotn", "lat": 69.08873, "lng": 17.69489, "population": 0}, {"name": "Hatteng", "lat": 69.27072, "lng": 19.95944, "population": 0}, {"name": "Breivikbotn", "lat": 70.58877, "lng": 22.28712, "population": 0}, {"name": "Tana bru", "lat": 70.19909, "lng": 28.19039, "population": 0}]