[{"name": "Auckland", "lat": -36.84853, "lng": 174.76349, "population": 1530500}, {"name": "Christchurch", "lat": -43.53333, "lng": 172.63333, "population": 412000}, {"name": "Wellington", "lat": -41.28664, "lng": 174.77557, "population": 381900}, {"name": "Manukau City", "lat": -36.99282, "lng": 174.87986, "population": 362000}, {"name": "North Shore", "lat": -36.8, "lng": 174.75, "population": 258697}, {"name": "Hamilton", "lat": -37.78333, "lng": 175.28333, "population": 189700}, {"name": "Tauranga", "lat": -37.68611, "lng": 176.16667, "population": 155200}, {"name": "Dunedin", "lat": -45.87416, "lng": 170.50361, "population": 131800}, {"name": "Lower Hutt", "lat": -41.21667, "lng": 174.91667, "population": 113400}, {"name": "Palmerston North", "lat": -40.35636, "lng": 175.61113, "population": 91300}, {"name": "New Plymouth", "lat": -39.06667, "lng": 174.08333, "population": 90300}, {"name": "Hastings", "lat": -39.6381, "lng": 176.84918, "population": 89200}, {"name": "Napier", "lat": -39.4926, "lng": 176.91233, "population": 66800}, {"name": "Rotorua", "lat": -38.13874, "lng": 176.24516, "population": 65901}, {"name": "Porirua", "lat": -41.13333, "lng": 174.85, "population": 61800}, {"name": "Invercargill", "lat": -46.4, "lng": 168.35, "population": 57600}, {"name": "Papatoetoe", "lat": -36.9682, "lng": 174.84019, "population": 54780}, {"name": "Nelson", "lat": -41.27078, "lng": 173.28404, "population": 54400}, {"name": "Whangarei", "lat": -35.73167, "lng": 174.32391, "population": 50900}, {"name": "Whanganui", "lat": -39.93333, "lng": 175.05, "population": 48900}, {"name": "Upper Hutt", "lat": -41.13827, "lng": 175.0502, "population": 47500}, {"name": "Manurewa", "lat": -37.0182, "lng": 174.88019, "population": 40480}, {"name": "Gisborne", "lat": -38.65333, "lng": 178.00417, "population": 38300}, {"name": "Papakura", "lat": -37.0646, "lng": 174.94212, "population": 35580}, {"name": "Rolleston", "lat": -43.58333, "lng": 172.38333, "population": 33200}, {"name": "Blenheim", "lat": -41.51603, "lng": 173.9528, "population": 30300}, {"name": "Paraparaumu", "lat": -40.91667, "lng": 175.01667, "population": 29900}, {"name": "Timaru", "lat": -44.39672, "lng": 171.25364, "population": 29400}, {"name": "Masterton", "lat": -40.95972, "lng": 175.6575, "population": 28700}, {"name": "Mangere East", "lat": -36.96587, "lng": 174.82389, "population": 28540}, {"name": "Remuera", "lat": -36.88041, "lng": 174.79819, "population": 27600}, {"name": "Avondale", "lat": -36.88333, "lng": 174.7, "population": 26930}, {"name": "Taupo", "lat": -38.68333, "lng": 176.08333, "population": 26600}, {"name": "Otara", "lat": -36.9482, "lng": 174.87019, "population": 24420}, {"name": "New Lynn", "lat": -36.90694, "lng": 174.68704, "population": 23910}, {"name": "Mangere", "lat": -36.96807, "lng": 174.79875, "population": 23790}, {"name": "Massey East", "lat": -36.8282, "lng": 174.62019, "population": 22210}, {"name": "Massey", "lat": -36.8382, "lng": 174.61019, "population": 22210}, {"name": "Pukekohe East", "lat": -37.2, "lng": 174.95, "population": 21438}, {"name": "Ashburton", "lat": -43.89834, "lng": 171.73011, "population": 21300}, {"name": "Wainuiomata", "lat": -41.26667, "lng": 174.95, "population": 20250}, {"name": "Epsom", "lat": -36.88745, "lng": 174.77059, "population": 20200}, {"name": "Stoke", "lat": -41.31667, "lng": 173.23333, "population": 19850}, {"name": "Levin", "lat": -40.63333, "lng": 175.275, "population": 19789}, {"name": "Richmond", "lat": -41.33333, "lng": 173.18333, "population": 19700}, {"name": "Rangiora", "lat": -43.30437, "lng": 172.58356, "population": 19150}, {"name": "Henderson", "lat": -36.88012, "lng": 174.61975, "population": 18770}, {"name": "Whakatane", "lat": -37.95855, "lng": 176.98545, "population": 18602}, {"name": "Otahuhu", "lat": -36.9382, "lng": 174.84019, "population": 17780}, {"name": "Te Atatu South", "lat": -36.86472, "lng": 174.64768, "population": 17240}, {"name": "Lincoln", "lat": -36.8582, "lng": 174.62019, "population": 17240}, {"name": "Takanini", "lat": -37.0393, "lng": 174.92815, "population": 17060}, {"name": "Mount Eden", "lat": -36.88158, "lng": 174.76204, "population": 15650}, {"name": "Titirangi", "lat": -36.93754, "lng": 174.65584, "population": 15490}, {"name": "Karori", "lat": -41.28374, "lng": 174.74141, "population": 15380}, {"name": "Hamilton East", "lat": -37.78821, "lng": 175.2902, "population": 15300}, {"name": "Te Atatu Peninsula", "lat": -36.84103, "lng": 174.65223, "population": 15200}, {"name": "Cambridge", "lat": -37.87822, "lng": 175.4402, "population": 15192}, {"name": "Homai", "lat": -37.01667, "lng": 174.88333, "population": 15000}, {"name": "Havelock North", "lat": -39.66667, "lng": 176.88333, "population": 14900}, {"name": "Mosgiel", "lat": -45.875, "lng": 170.34722, "population": 14800}, {"name": "Te Aro", "lat": -41.294, "lng": 174.77727, "population": 14600}, {"name": "Tokoroa", "lat": -38.23333, "lng": 175.86667, "population": 14500}, {"name": "Blockhouse Bay", "lat": -36.9182, "lng": 174.70019, "population": 14500}, {"name": "Te Awamutu", "lat": -38.00822, "lng": 175.3302, "population": 14000}, {"name": "Kaiapoi", "lat": -43.37832, "lng": 172.64013, "population": 13550}, {"name": "Waikanae", "lat": -40.88333, "lng": 175.06667, "population": 13300}, {"name": "Hillsborough", "lat": -36.9182, "lng": 174.75019, "population": 13260}, {"name": "Halswell", "lat": -43.58333, "lng": 172.56667, "population": 13200}, {"name": "Wanaka", "lat": -44.7, "lng": 169.15, "population": 13100}, {"name": "Gore", "lat": -46.10282, "lng": 168.94357, "population": 13050}, {"name": "Oamaru", "lat": -45.09758, "lng": 170.97087, "population": 13000}, {"name": "Taradale", "lat": -39.53333, "lng": 176.85, "population": 12940}, {"name": "Sandringham", "lat": -36.8882, "lng": 174.73019, "population": 12930}, {"name": "Onehunga", "lat": -36.9182, "lng": 174.78019, "population": 12910}, {"name": "Orewa", "lat": -36.581, "lng": 174.679, "population": 12630}, {"name": "Takapuna", "lat": -36.79167, "lng": 174.77583, "population": 12470}, {"name": "Albany", "lat": -36.71667, "lng": 174.7, "population": 12450}, {"name": "Whitby", "lat": -41.10827, "lng": 174.8902, "population": 12230}, {"name": "Johnsonville", "lat": -41.22132, "lng": 174.80295, "population": 12110}, {"name": "West Harbour", "lat": -36.8182, "lng": 174.61019, "population": 12060}, {"name": "Howick", "lat": -36.89359, "lng": 174.93174, "population": 11980}, {"name": "Wigram", "lat": -43.55, "lng": 172.55, "population": 11900}, {"name": "Grey Lynn", "lat": -36.86489, "lng": 174.73695, "population": 11880}, {"name": "Hokowhitu", "lat": -40.3626, "lng": 175.63379, "population": 11730}, {"name": "Riccarton", "lat": -43.52833, "lng": 172.59013, "population": 11650}, {"name": "Hillcrest", "lat": -36.7882, "lng": 174.73019, "population": 11490}, {"name": "Redwoodtown", "lat": -41.52828, "lng": 173.95018, "population": 11210}, {"name": "Flaxmere", "lat": -39.61824, "lng": 176.78021, "population": 11142}, {"name": "Favona", "lat": -36.93333, "lng": 174.8, "population": 11110}, {"name": "Beach Haven", "lat": -36.7882, "lng": 174.68019, "population": 11000}, {"name": "Stokes Valley", "lat": -41.17827, "lng": 174.9802, "population": 10770}, {"name": "Parklands", "lat": -43.47833, "lng": 172.69013, "population": 10760}, {"name": "Browns Bay", "lat": -36.71926, "lng": 174.73666, "population": 10760}, {"name": "Forrest Hill", "lat": -36.76447, "lng": 174.74773, "population": 10750}, {"name": "Birkenhead", "lat": -36.8082, "lng": 174.72019, "population": 10720}, {"name": "Te Puke", "lat": -37.77822, "lng": 176.33021, "population": 10500}, {"name": "Queenstown", "lat": -45.03023, "lng": 168.66271, "population": 10442}, {"name": "Balmoral", "lat": -36.8882, "lng": 174.74019, "population": 10390}, {"name": "Hawera", "lat": -39.59167, "lng": 174.28333, "population": 10350}, {"name": "Carterton", "lat": -41.01827, "lng": 175.5302, "population": 10300}, {"name": "Avonhead", "lat": -43.50833, "lng": 172.55013, "population": 10240}, {"name": "Spreydon", "lat": -43.5567, "lng": 172.61689, "population": 10210}, {"name": "Newtown", "lat": -41.31115, "lng": 174.77935, "population": 10130}, {"name": "Ilam", "lat": -43.51833, "lng": 172.57013, "population": 10100}, {"name": "Pakuranga", "lat": -36.88333, "lng": 174.91667, "population": 10040}, {"name": "Western Heights", "lat": -36.8782, "lng": 174.61019, "population": 9940}, {"name": "Pakuranga Heights", "lat": -36.9082, "lng": 174.88019, "population": 9930}, {"name": "Waiuku", "lat": -37.24806, "lng": 174.73489, "population": 9860}, {"name": "Bishopdale", "lat": -43.47833, "lng": 172.58013, "population": 9850}, {"name": "Wattle Downs", "lat": -37.0382, "lng": 174.89019, "population": 9840}, {"name": "North East Valley", "lat": -45.85, "lng": 170.53333, "population": 9830}, {"name": "Ellerslie", "lat": -36.8982, "lng": 174.81019, "population": 9820}, {"name": "Burnside", "lat": -43.49833, "lng": 172.56013, "population": 9810}, {"name": "Bryndwr", "lat": -43.49833, "lng": 172.59013, "population": 9760}, {"name": "Glen Innes", "lat": -36.8682, "lng": 174.86019, "population": 9730}, {"name": "Naenae", "lat": -41.19827, "lng": 174.94019, "population": 9720}, {"name": "Birkdale", "lat": -36.79718, "lng": 174.70459, "population": 9710}, {"name": "Morrinsville", "lat": -37.64821, "lng": 175.5202, "population": 9710}, {"name": "Tawa", "lat": -41.17038, "lng": 174.82613, "population": 9670}, {"name": "Hoon Hay", "lat": -43.56444, "lng": 172.60766, "population": 9510}, {"name": "Bucklands Beach", "lat": -36.8582, "lng": 174.90019, "population": 9460}, {"name": "Greymouth", "lat": -42.46667, "lng": 171.2, "population": 9419}, {"name": "Bethlehem", "lat": -37.69496, "lng": 176.10861, "population": 9270}, {"name": "Cannons Creek", "lat": -41.13992, "lng": 174.86655, "population": 9250}, {"name": "Lincoln", "lat": -43.65, "lng": 172.48333, "population": 9180}, {"name": "Lynfield", "lat": -36.9282, "lng": 174.72019, "population": 9130}, {"name": "Mahora", "lat": -39.61824, "lng": 176.84021, "population": 9090}, {"name": "Awapuni", "lat": -40.37624, "lng": 175.58384, "population": 9050}, {"name": "Glendowie", "lat": -36.8582, "lng": 174.87019, "population": 9050}, {"name": "Point Chevalier", "lat": -36.86328, "lng": 174.70493, "population": 9030}, {"name": "Newlands", "lat": -41.22444, "lng": 174.82192, "population": 8880}, {"name": "Huntly", "lat": -37.55821, "lng": 175.1602, "population": 8850}, {"name": "Greenhithe", "lat": -36.77081, "lng": 174.68651, "population": 8820}, {"name": "Hornby", "lat": -43.55, "lng": 172.53333, "population": 8790}, {"name": "New Windsor", "lat": -36.8982, "lng": 174.70019, "population": 8730}, {"name": "Kaiti", "lat": -38.66824, "lng": 178.03021, "population": 8720}, {"name": "Frankton Junction", "lat": -37.8, "lng": 175.26667, "population": 8710}, {"name": "Te Hapara", "lat": -38.64824, "lng": 177.99021, "population": 8670}, {"name": "Khandallah", "lat": -41.245, "lng": 174.79422, "population": 8640}, {"name": "Otumoetai", "lat": -37.67156, "lng": 176.13865, "population": 8620}, {"name": "Kumeu", "lat": -36.76667, "lng": 174.56667, "population": 8510}, {"name": "Redwood", "lat": -43.46833, "lng": 172.61013, "population": 8500}, {"name": "Ngaruawahia", "lat": -37.66738, "lng": 175.15554, "population": 8500}, {"name": "Tikipunga", "lat": -35.68818, "lng": 174.32018, "population": 8440}, {"name": "Petone", "lat": -41.22827, "lng": 174.87019, "population": 8370}, {"name": "Glendene", "lat": -36.8882, "lng": 174.64019, "population": 8350}, {"name": "Beachlands", "lat": -36.88333, "lng": 175.0, "population": 8340}, {"name": "East Gore", "lat": -46.0884, "lng": 168.95009, "population": 8340}, {"name": "Half Moon Bay", "lat": -36.8782, "lng": 174.89019, "population": 8330}, {"name": "Churton Park", "lat": -41.20662, "lng": 174.80733, "population": 8290}, {"name": "Kerikeri", "lat": -35.22676, "lng": 173.94739, "population": 8280}, {"name": "Bell Block", "lat": -39.03333, "lng": 174.15, "population": 8260}, {"name": "Upper Riccarton", "lat": -43.52833, "lng": 172.57013, "population": 7990}, {"name": "Kelvin Grove", "lat": -40.32875, "lng": 175.64512, "population": 7950}, {"name": "Papanui", "lat": -43.5, "lng": 172.61667, "population": 7900}, {"name": "Waitara", "lat": -39.00158, "lng": 174.23836, "population": 7730}, {"name": "Parnell", "lat": -36.86667, "lng": 174.78333, "population": 7720}, {"name": "Kawerau", "lat": -38.1, "lng": 176.7, "population": 7670}, {"name": "Rosedale", "lat": -46.38841, "lng": 168.36009, "population": 7620}, {"name": "Mount Cook", "lat": -41.30151, "lng": 174.77476, "population": 7510}, {"name": "Motueka", "lat": -41.13333, "lng": 173.01667, "population": 7485}, {"name": "Solway", "lat": -40.95827, "lng": 175.6102, "population": 7430}, {"name": "Onekawa", "lat": -39.50914, "lng": 176.88958, "population": 7290}, {"name": "Mount Maunganui", "lat": -37.64167, "lng": 176.18611, "population": 7250}, {"name": "Claudelands", "lat": -37.78333, "lng": 175.28333, "population": 7180}, {"name": "Island Bay", "lat": -41.33616, "lng": 174.77351, "population": 7170}, {"name": "Thames", "lat": -37.13832, "lng": 175.54011, "population": 7136}, {"name": "Mairehau", "lat": -43.49833, "lng": 172.64013, "population": 7120}, {"name": "Somerfield", "lat": -43.55931, "lng": 172.63131, "population": 7070}, {"name": "Shirley", "lat": -43.49833, "lng": 172.65013, "population": 6990}, {"name": "Warkworth", "lat": -36.4, "lng": 174.66667, "population": 6960}, {"name": "Taita", "lat": -41.17827, "lng": 174.9502, "population": 6960}, {"name": "Cashmere", "lat": -43.5678, "lng": 172.628, "population": 6940}, {"name": "Epuni", "lat": -41.20263, "lng": 174.93043, "population": 6940}, {"name": "Onerahi", "lat": -35.76667, "lng": 174.36667, "population": 6830}, {"name": "Titahi Bay", "lat": -41.1, "lng": 174.83333, "population": 6810}, {"name": "Allenton", "lat": -43.88833, "lng": 171.74011, "population": 6789}, {"name": "Wiri", "lat": -36.9982, "lng": 174.86019, "population": 6760}, {"name": "Terrace End", "lat": -40.34825, "lng": 175.63021, "population": 6740}, {"name": "Milson", "lat": -40.32825, "lng": 175.61021, "population": 6740}, {"name": "Sunnyvale", "lat": -36.8882, "lng": 174.63019, "population": 6690}, {"name": "Unsworth Heights", "lat": -36.75374, "lng": 174.7215, "population": 6620}, {"name": "Papatowai", "lat": -46.56069, "lng": 169.47068, "population": 6593}, {"name": "New Brighton", "lat": -43.51667, "lng": 172.73333, "population": 6480}, {"name": "Stratford", "lat": -39.33762, "lng": 174.28368, "population": 6430}, {"name": "Matamata", "lat": -37.8106, "lng": 175.76237, "population": 6306}, {"name": "Saint Johns", "lat": -36.8682, "lng": 174.84019, "population": 6300}, {"name": "Homedale", "lat": -41.26828, "lng": 174.95019, "population": 6270}, {"name": "Sydenham", "lat": -43.54696, "lng": 172.63594, "population": 6243}, {"name": "Whitianga", "lat": -36.83333, "lng": 175.7, "population": 6230}, {"name": "Springlands", "lat": -41.50851, "lng": 173.93726, "population": 6200}, {"name": "Tuakau", "lat": -37.27047, "lng": 174.94384, "population": 6180}, {"name": "Vogeltown", "lat": -39.07824, "lng": 174.0802, "population": 6140}, {"name": "Royal Oak", "lat": -36.9082, "lng": 174.77019, "population": 6090}, {"name": "Otaki", "lat": -40.75833, "lng": 175.15, "population": 6086}, {"name": "Takaro", "lat": -40.35793, "lng": 175.58968, "population": 6080}, {"name": "Witherlea", "lat": -41.52828, "lng": 173.95018, "population": 6060}, {"name": "Katikati", "lat": -37.55, "lng": 175.91667, "population": 6000}, {"name": "Owairaka", "lat": -36.8882, "lng": 174.71019, "population": 6000}, {"name": "Omokoroa", "lat": -37.64849, "lng": 176.03497, "population": 5990}, {"name": "Raumanga", "lat": -35.74488, "lng": 174.30578, "population": 5960}, {"name": "Waterloo", "lat": -41.2155, "lng": 174.9256, "population": 5950}, {"name": "Sunnyhills", "lat": -36.8982, "lng": 174.88019, "population": 5880}, {"name": "Oteha Valley", "lat": -36.7201, "lng": 174.71824, "population": 5850}, {"name": "Alexandra", "lat": -45.24837, "lng": 169.37008, "population": 5830}, {"name": "Botany Downs", "lat": -36.90596, "lng": 174.91788, "population": 5820}, {"name": "Kelston", "lat": -36.8982, "lng": 174.66019, "population": 5750}, {"name": "Marton", "lat": -40.0692, "lng": 175.37823, "population": 5740}, {"name": "Raureka", "lat": -39.63824, "lng": 176.82021, "population": 5720}, {"name": "Saint Kilda", "lat": -45.90188, "lng": 170.50176, "population": 5710}, {"name": "Dannevirke", "lat": -40.20549, "lng": 176.10084, "population": 5680}, {"name": "Burwood", "lat": -43.5, "lng": 172.7, "population": 5661}, {"name": "Ngaio", "lat": -41.25039, "lng": 174.77394, "population": 5660}, {"name": "Hataitai", "lat": -41.30431, "lng": 174.7942, "population": 5620}, {"name": "Avalon", "lat": -41.19827, "lng": 174.92019, "population": 5590}, {"name": "Ponsonby", "lat": -36.85, "lng": 174.73333, "population": 5570}, {"name": "Meadowbank", "lat": -36.8682, "lng": 174.82019, "population": 5570}, {"name": "Waikowhai", "lat": -43.45, "lng": 169.88333, "population": 5550}, {"name": "West End", "lat": -40.3659, "lng": 175.59843, "population": 5510}, {"name": "Woodend", "lat": -43.31667, "lng": 172.66667, "population": 5430}, {"name": "Raumati Beach", "lat": -40.91667, "lng": 174.98333, "population": 5390}, {"name": "Merivale", "lat": -43.50833, "lng": 172.61013, "population": 5360}, {"name": "Addington", "lat": -43.55, "lng": 172.61667, "population": 5346}, {"name": "Milford", "lat": -36.77158, "lng": 174.76585, "population": 5290}, {"name": "Casebrook", "lat": -43.47833, "lng": 172.59013, "population": 5262}, {"name": "Prebbleton", "lat": -43.58333, "lng": 172.51667, "population": 5260}, {"name": "Ngongotaha", "lat": -38.08333, "lng": 176.2, "population": 5240}, {"name": "Akina", "lat": -39.64824, "lng": 176.84021, "population": 5193}, {"name": "Cromwell", "lat": -45.03837, "lng": 169.20008, "population": 5160}, {"name": "Tamaki", "lat": -36.8882, "lng": 174.86019, "population": 5160}, {"name": "Mangapapa", "lat": -38.63824, "lng": 178.01021, "population": 5160}, {"name": "Dargaville", "lat": -35.93333, "lng": 173.88333, "population": 5130}, {"name": "Dairy Flat", "lat": -36.66667, "lng": 174.65, "population": 5090}, {"name": "Pokeno", "lat": -37.24502, "lng": 175.02049, "population": 5060}, {"name": "Green Bay", "lat": -36.93096, "lng": 174.67489, "population": 5030}, {"name": "Murrays Bay", "lat": -36.72819, "lng": 174.75019, "population": 5000}, {"name": "Judea", "lat": -37.6953, "lng": 176.14406, "population": 4990}, {"name": "Taumarunui", "lat": -38.87823, "lng": 175.2602, "population": 4950}, {"name": "Waiwhetu", "lat": -41.21827, "lng": 174.91019, "population": 4940}, {"name": "Wairoa", "lat": -39.03823, "lng": 177.42022, "population": 4940}, {"name": "Picton", "lat": -41.29067, "lng": 174.00801, "population": 4930}, {"name": "Konini", "lat": -36.9282, "lng": 174.64019, "population": 4910}, {"name": "Belfast", "lat": -43.45, "lng": 172.63333, "population": 4900}, {"name": "Kelburn", "lat": -41.28333, "lng": 174.76667, "population": 4890}, {"name": "Kaikohe", "lat": -35.39818, "lng": 173.80018, "population": 4890}, {"name": "Te Kuiti", "lat": -38.33627, "lng": 175.17014, "population": 4890}, {"name": "Opotiki", "lat": -38.00915, "lng": 177.28706, "population": 4880}, {"name": "Kilbirnie", "lat": -41.31824, "lng": 174.79506, "population": 4860}, {"name": "Temuka", "lat": -44.22834, "lng": 171.2801, "population": 4840}, {"name": "Mount Victoria", "lat": -41.29696, "lng": 174.7936, "population": 4820}, {"name": "Westown", "lat": -39.07135, "lng": 174.06215, "population": 4790}, {"name": "Foxton", "lat": -40.47277, "lng": 175.28601, "population": 4780}, {"name": "Fendalton", "lat": -43.51667, "lng": 172.6, "population": 4710}, {"name": "Te Aroha", "lat": -37.52821, "lng": 175.71021, "population": 4700}, {"name": "Putaruru", "lat": -38.04822, "lng": 175.78021, "population": 4670}, {"name": "Richmond", "lat": -43.50833, "lng": 172.65013, "population": 4620}, {"name": "Waihi", "lat": -37.38333, "lng": 175.83333, "population": 4619}, {"name": "Westport", "lat": -41.75262, "lng": 171.6037, "population": 4600}, {"name": "Greerton", "lat": -37.72541, "lng": 176.13346, "population": 4590}, {"name": "Mission Bay", "lat": -36.85472, "lng": 174.83167, "population": 4590}, {"name": "Glendale", "lat": -41.24827, "lng": 174.95019, "population": 4590}, {"name": "Moturoa", "lat": -39.06428, "lng": 174.03563, "population": 4580}, {"name": "Sockburn", "lat": -43.53263, "lng": 172.55731, "population": 4580}, {"name": "Waitangirua", "lat": -41.11827, "lng": 174.8802, "population": 4560}, {"name": "Rosebank", "lat": -36.87495, "lng": 174.66991, "population": 4551}, {"name": "Aranui", "lat": -43.50833, "lng": 172.70013, "population": 4550}, {"name": "Balclutha", "lat": -46.23389, "lng": 169.75, "population": 4441}, {"name": "Kohimarama", "lat": -36.8582, "lng": 174.84019, "population": 4430}, {"name": "Panmure", "lat": -36.88333, "lng": 174.86667, "population": 4410}, {"name": "Wakari", "lat": -45.84838, "lng": 170.4801, "population": 4410}, {"name": "Fitzherbert", "lat": -40.37825, "lng": 175.63021, "population": 4370}, {"name": "Narrow Neck", "lat": -36.81542, "lng": 174.79933, "population": 4360}, {"name": "Freemans Bay", "lat": -36.8482, "lng": 174.74019, "population": 4360}, {"name": "Waltham", "lat": -43.54824, "lng": 172.65156, "population": 4330}, {"name": "Whataupoko", "lat": -38.64824, "lng": 178.02021, "population": 4310}, {"name": "Schnapper Rock", "lat": -36.7547, "lng": 174.69489, "population": 4300}, {"name": "Jack's Point", "lat": -45.07356, "lng": 168.74828, "population": 4300}, {"name": "Maungaraki", "lat": -41.20827, "lng": 174.87019, "population": 4290}, {"name": "Whangamata", "lat": -37.2, "lng": 175.86667, "population": 4270}, {"name": "Gleniti", "lat": -44.38333, "lng": 171.2, "population": 4270}, {"name": "Northwood", "lat": -43.45848, "lng": 172.61444, "population": 4266}, {"name": "Wairoa", "lat": -39.03333, "lng": 177.36667, "population": 4260}, {"name": "Hauraki", "lat": -36.79961, "lng": 174.778, "population": 4260}, {"name": "Three Kings", "lat": -36.8982, "lng": 174.75019, "population": 4210}, {"name": "Gate Pa", "lat": -37.71601, "lng": 176.13891, "population": 4200}, {"name": "Strathern", "lat": -46.42842, "lng": 168.36009, "population": 4190}, {"name": "Aotea", "lat": -39.62824, "lng": 175.31021, "population": 4170}, {"name": "Cockle Bay", "lat": -36.8982, "lng": 174.94019, "population": 4170}, {"name": "Pegasus", "lat": -43.30832, "lng": 172.69013, "population": 4170}, {"name": "Aidanfield", "lat": -43.56666, "lng": 172.5686, "population": 4170}, {"name": "Morningside", "lat": -36.8682, "lng": 174.73019, "population": 4100}, {"name": "Mellons Bay", "lat": -36.88295, "lng": 174.9299, "population": 4080}, {"name": "New Brighton North", "lat": -43.49179, "lng": 172.72018, "population": 4071}, {"name": "Spotswood", "lat": -39.07224, "lng": 174.03438, "population": 4060}, {"name": "Highland Park", "lat": -36.8982, "lng": 174.90019, "population": 4050}, {"name": "Mount Pleasant", "lat": -43.56276, "lng": 172.71525, "population": 4040}, {"name": "Aro Valley", "lat": -41.29412, "lng": 174.76089, "population": 4040}, {"name": "Parkway", "lat": -41.24827, "lng": 174.92019, "population": 4020}, {"name": "Tinwald", "lat": -43.91667, "lng": 171.71667, "population": 4010}, {"name": "Maraenui", "lat": -39.50824, "lng": 176.90022, "population": 4000}, {"name": "Paeroa", "lat": -37.36667, "lng": 175.66667, "population": 3994}, {"name": "Inglewood", "lat": -39.15824, "lng": 174.1802, "population": 3960}, {"name": "Turangi", "lat": -38.99037, "lng": 175.80837, "population": 3930}, {"name": "Strathmore Park", "lat": -41.32887, "lng": 174.81986, "population": 3910}, {"name": "Corstorphine", "lat": -45.89838, "lng": 170.4601, "population": 3890}, {"name": "Waterview", "lat": -36.8782, "lng": 174.69019, "population": 3890}, {"name": "Brooklyn", "lat": -41.30586, "lng": 174.76257, "population": 3855}, {"name": "Raglan", "lat": -37.8, "lng": 174.88333, "population": 3840}, {"name": "Birchville", "lat": -41.08827, "lng": 175.0902, "population": 3840}, {"name": "Whangaparaoa", "lat": -36.63333, "lng": 174.76667, "population": 3786}, {"name": "Frankton", "lat": -45.02125, "lng": 168.73361, "population": 3780}, {"name": "Brown Owl", "lat": -41.09827, "lng": 175.0902, "population": 3770}, {"name": "Kihikihi", "lat": -38.03333, "lng": 175.35, "population": 3760}, {"name": "Snells Beach", "lat": -36.40819, "lng": 174.72019, "population": 3760}, {"name": "Marchwiel", "lat": -44.37728, "lng": 171.22561, "population": 3750}, {"name": "Te Kauwhata", "lat": -37.4, "lng": 175.15, "population": 3740}, {"name": "Northland", "lat": -41.28271, "lng": 174.75626, "population": 3740}, {"name": "Riverhead", "lat": -36.75, "lng": 174.6, "population": 3700}, {"name": "McLaren Park", "lat": -36.8882, "lng": 174.61019, "population": 3660}, {"name": "Fitzroy", "lat": -39.05, "lng": 174.1, "population": 3650}, {"name": "Waimate", "lat": -44.72836, "lng": 171.05009, "population": 3650}, {"name": "Welbourn", "lat": -39.07221, "lng": 174.09094, "population": 3640}, {"name": "Maoribank", "lat": -41.10827, "lng": 175.0902, "population": 3640}, {"name": "Strowan", "lat": -43.51014, "lng": 172.60624, "population": 3620}, {"name": "Silverstream", "lat": -41.15, "lng": 175.0, "population": 3570}, {"name": "Frankleigh Park", "lat": -39.07824, "lng": 174.0602, "population": 3570}, {"name": "Chatswood", "lat": -36.81841, "lng": 174.70984, "population": 3560}, {"name": "Glengarry", "lat": -46.39842, "lng": 168.37009, "population": 3540}, {"name": "Kingsland", "lat": -36.87267, "lng": 174.72592, "population": 3540}, {"name": "Leigh", "lat": -36.28333, "lng": 174.81667, "population": 3525}, {"name": "Oranga", "lat": -36.9082, "lng": 174.79019, "population": 3520}, {"name": "Sumner", "lat": -43.56833, "lng": 172.76013, "population": 3519}, {"name": "Te Papapa", "lat": -36.9182, "lng": 174.80019, "population": 3510}, {"name": "Hei Hei", "lat": -43.52833, "lng": 172.52013, "population": 3471}, {"name": "Otatara", "lat": -46.43333, "lng": 168.3, "population": 3460}, {"name": "Helensville", "lat": -36.67819, "lng": 174.45019, "population": 3420}, {"name": "Windsor", "lat": -46.39842, "lng": 168.36009, "population": 3410}, {"name": "Ashhurst", "lat": -40.29108, "lng": 175.75471, "population": 3400}, {"name": "Darfield", "lat": -43.48333, "lng": 172.11667, "population": 3380}, {"name": "Paremoremo", "lat": -36.76667, "lng": 174.66667, "population": 3360}, {"name": "Opaheke", "lat": -37.08333, "lng": 174.96667, "population": 3360}, {"name": "Hokitika", "lat": -42.71667, "lng": 170.96667, "population": 3350}, {"name": "Wellington Central", "lat": -41.28755, "lng": 174.77523, "population": 3350}, {"name": "Eden Terrace", "lat": -36.86579, "lng": 174.75725, "population": 3340}, {"name": "Otorohanga", "lat": -38.18333, "lng": 175.2, "population": 3280}, {"name": "Mornington", "lat": -41.31862, "lng": 174.76604, "population": 3260}, {"name": "Ohope Beach", "lat": -37.97519, "lng": 177.07588, "population": 3250}, {"name": "Grasmere", "lat": -46.37841, "lng": 168.33009, "population": 3250}, {"name": "Arakura", "lat": -41.22827, "lng": 174.95019, "population": 3250}, {"name": "Belmont", "lat": -36.8075, "lng": 174.78639, "population": 3240}, {"name": "South New Brighton", "lat": -43.51833, "lng": 172.73013, "population": 3234}, {"name": "Lyttelton", "lat": -43.60314, "lng": 172.71765, "population": 3200}, {"name": "Merrilands", "lat": -39.06801, "lng": 174.09772, "population": 3110}, {"name": "Enner Glynn", "lat": -41.30534, "lng": 173.25414, "population": 3110}, {"name": "Kelson", "lat": -41.17827, "lng": 174.9302, "population": 3110}, {"name": "Grafton", "lat": -36.86029, "lng": 174.76566, "population": 3100}, {"name": "Washington Valley", "lat": -41.27148, "lng": 173.27044, "population": 3080}, {"name": "Rothesay Bay", "lat": -36.72602, "lng": 174.74064, "population": 3060}, {"name": "Moana", "lat": -41.27981, "lng": 173.25427, "population": 3060}, {"name": "Ramarama", "lat": -37.15, "lng": 174.95, "population": 3050}, {"name": "Mornington", "lat": -45.88333, "lng": 170.46667, "population": 3050}, {"name": "Roslyn", "lat": -45.86667, "lng": 170.48333, "population": 3020}, {"name": "Whitford", "lat": -36.93333, "lng": 174.96667, "population": 3015}, {"name": "Belmont", "lat": -41.18827, "lng": 174.91019, "population": 2990}, {"name": "Ascot Park", "lat": -41.11827, "lng": 174.8702, "population": 2980}, {"name": "Campbells Bay", "lat": -36.74645, "lng": 174.75978, "population": 2960}, {"name": "Alicetown", "lat": -41.20827, "lng": 174.89019, "population": 2960}, {"name": "Greytown", "lat": -41.07827, "lng": 175.4602, "population": 2940}, {"name": "Wainoni", "lat": -43.50833, "lng": 172.68013, "population": 2930}, {"name": "Atawhai", "lat": -41.23333, "lng": 173.31667, "population": 2920}, {"name": "Te Anau", "lat": -45.41667, "lng": 167.71667, "population": 2910}, {"name": "Tahunanui", "lat": -41.28706, "lng": 173.24573, "population": 2910}, {"name": "Richmond", "lat": -46.40842, "lng": 168.36009, "population": 2910}, {"name": "Hampstead", "lat": -43.90834, "lng": 171.75011, "population": 2910}, {"name": "Ruakaka", "lat": -35.90818, "lng": 174.45019, "population": 2910}, {"name": "Manurewa East", "lat": -37.0182, "lng": 174.91019, "population": 2907}, {"name": "Totara Park", "lat": -41.10827, "lng": 175.0702, "population": 2890}, {"name": "West End", "lat": -44.38835, "lng": 171.2201, "population": 2880}, {"name": "Pahiatua", "lat": -40.45345, "lng": 175.8406, "population": 2860}, {"name": "Saint Martins", "lat": -43.55533, "lng": 172.64967, "population": 2850}, {"name": "Shelly Park", "lat": -36.90749, "lng": 174.9459, "population": 2850}, {"name": "Mangawhai Heads", "lat": -36.08819, "lng": 174.57019, "population": 2850}, {"name": "Paparangi", "lat": -41.21592, "lng": 174.81771, "population": 2840}, {"name": "Boulcott", "lat": -41.19827, "lng": 174.91019, "population": 2830}, {"name": "Waimate North", "lat": -35.31667, "lng": 173.88333, "population": 2799}, {"name": "Amberley", "lat": -43.15589, "lng": 172.72975, "population": 2780}, {"name": "Waverley", "lat": -45.88238, "lng": 170.53913, "population": 2780}, {"name": "Maraetai", "lat": -36.88333, "lng": 175.05, "population": 2770}, {"name": "Eastbourne", "lat": -41.3, "lng": 174.9, "population": 2760}, {"name": "Featherston", "lat": -41.10827, "lng": 175.3202, "population": 2760}, {"name": "Lynmouth", "lat": -39.06402, "lng": 174.05378, "population": 2750}, {"name": "Newmarket", "lat": -36.86977, "lng": 174.77566, "population": 2750}, {"name": "Waima", "lat": -36.9382, "lng": 174.63019, "population": 2730}, {"name": "Tamarau", "lat": -38.67824, "lng": 178.05021, "population": 2730}, {"name": "West Melton", "lat": -43.51667, "lng": 172.36667, "population": 2710}, {"name": "Fairfield", "lat": -45.9, "lng": 170.4, "population": 2710}, {"name": "Bexley", "lat": -43.50833, "lng": 172.71013, "population": 2700}, {"name": "Lyall Bay", "lat": -41.32731, "lng": 174.79448, "population": 2700}, {"name": "Nelson South", "lat": -41.28503, "lng": 173.27491, "population": 2690}, {"name": "Wakefield", "lat": -41.4, "lng": 173.05, "population": 2680}, {"name": "Waihi Beach", "lat": -37.4, "lng": 175.93333, "population": 2670}, {"name": "Roslyn", "lat": -40.33817, "lng": 175.62521, "population": 2650}, {"name": "Bishopdale", "lat": -41.29496, "lng": 173.26478, "population": 2630}, {"name": "Northcote", "lat": -43.48592, "lng": 172.60788, "population": 2622}, {"name": "Maori Hill", "lat": -45.85838, "lng": 170.4901, "population": 2620}, {"name": "Queenwood", "lat": -37.74861, "lng": 175.26562, "population": 2610}, {"name": "Morningside", "lat": -35.73481, "lng": 174.31994, "population": 2600}, {"name": "Wallaceville", "lat": -41.13333, "lng": 175.05, "population": 2590}, {"name": "Hurdon", "lat": -39.07824, "lng": 174.0402, "population": 2590}, {"name": "East Taieri", "lat": -45.9, "lng": 170.33333, "population": 2570}, {"name": "Hillsborough", "lat": -43.56257, "lng": 172.67371, "population": 2570}, {"name": "Dallington", "lat": -43.50833, "lng": 172.67013, "population": 2560}, {"name": "Red Hill", "lat": -37.0582, "lng": 174.97019, "population": 2556}, {"name": "Renwick", "lat": -41.5, "lng": 173.83333, "population": 2550}, {"name": "Paremata", "lat": -41.11667, "lng": 174.86667, "population": 2540}, {"name": "South Dunedin", "lat": -45.88838, "lng": 170.4901, "population": 2540}, {"name": "Avondale", "lat": -43.49833, "lng": 172.69013, "population": 2540}, {"name": "Andersons Bay", "lat": -45.89639, "lng": 170.53107, "population": 2530}, {"name": "Parkside", "lat": -44.40291, "lng": 171.25458, "population": 2530}, {"name": "Huntsbury", "lat": -43.5678, "lng": 172.65156, "population": 2530}, {"name": "Oropi", "lat": -37.83948, "lng": 176.16105, "population": 2520}, {"name": "Heretaunga", "lat": -41.15, "lng": 175.03333, "population": 2520}, {"name": "Gladstone", "lat": -46.38841, "lng": 168.35009, "population": 2520}, {"name": "Brockville", "lat": -45.85838, "lng": 170.4501, "population": 2520}, {"name": "Heretaunga", "lat": -41.13827, "lng": 175.0202, "population": 2520}, {"name": "Waikiwi", "lat": -46.38333, "lng": 168.33333, "population": 2510}, {"name": "Beckenham", "lat": -43.56497, "lng": 172.64105, "population": 2500}, {"name": "Russley", "lat": -43.51833, "lng": 172.53013, "population": 2493}, {"name": "Leeston", "lat": -43.76667, "lng": 172.3, "population": 2490}, {"name": "Saint Clair", "lat": -45.91667, "lng": 170.48333, "population": 2470}, {"name": "Balaclava", "lat": -45.88838, "lng": 170.4601, "population": 2470}, {"name": "Maryhill", "lat": -45.87838, "lng": 170.4801, "population": 2470}, {"name": "Loburn", "lat": -43.25, "lng": 172.53333, "population": 2460}, {"name": "Pine Hill", "lat": -45.83838, "lng": 170.5201, "population": 2460}, {"name": "Monaco", "lat": -41.29827, "lng": 173.21017, "population": 2460}, {"name": "Seatoun", "lat": -41.32484, "lng": 174.83226, "population": 2440}, {"name": "Green Island", "lat": -45.88838, "lng": 170.4301, "population": 2440}, {"name": "Ruawai", "lat": -36.13333, "lng": 174.03333, "population": 2436}, {"name": "Watlington", "lat": -44.39835, "lng": 171.2301, "population": 2420}, {"name": "Grenada North", "lat": -41.18969, "lng": 174.84125, "population": 2420}, {"name": "Bay View", "lat": -39.42035, "lng": 176.86727, "population": 2400}, {"name": "Brightwater", "lat": -41.38333, "lng": 173.11667, "population": 2390}, {"name": "Silverdale", "lat": -36.6187, "lng": 174.67764, "population": 2370}, {"name": "Seaview", "lat": -44.39657, "lng": 171.24154, "population": 2370}, {"name": "Waiatarua", "lat": -36.93333, "lng": 174.58333, "population": 2360}, {"name": "Heidelberg", "lat": -46.42842, "lng": 168.37009, "population": 2350}, {"name": "Mangorei", "lat": -39.15, "lng": 174.08333, "population": 2310}, {"name": "Geraldine", "lat": -44.09061, "lng": 171.24458, "population": 2301}, {"name": "Papakowhai", "lat": -41.11299, "lng": 174.86641, "population": 2300}, {"name": "Otangarei", "lat": -35.68818, "lng": 174.31018, "population": 2290}, {"name": "Awakeri", "lat": -38.0, "lng": 176.9, "population": 2289}, {"name": "Yaldhurst", "lat": -43.51667, "lng": 172.51667, "population": 2250}, {"name": "Oxford", "lat": -43.3, "lng": 172.18333, "population": 2240}, {"name": "Kingswell", "lat": -46.43842, "lng": 168.36009, "population": 2240}, {"name": "Westmere", "lat": -36.85538, "lng": 174.71991, "population": 2240}, {"name": "Wairau Valley", "lat": -41.56667, "lng": 173.53333, "population": 2230}, {"name": "Caversham", "lat": -45.88838, "lng": 170.4701, "population": 2230}, {"name": "Farm Cove", "lat": -36.8882, "lng": 174.88019, "population": 2230}, {"name": "Heathcote Valley", "lat": -43.57787, "lng": 172.71224, "population": 2229}, {"name": "Taupiri", "lat": -37.61667, "lng": 175.18333, "population": 2220}, {"name": "Georgetown", "lat": -46.41842, "lng": 168.36009, "population": 2220}, {"name": "Waimataitai", "lat": -44.37866, "lng": 171.24008, "population": 2210}, {"name": "Wilton", "lat": -41.2691, "lng": 174.75995, "population": 2210}, {"name": "Westmorland", "lat": -43.57833, "lng": 172.60013, "population": 2196}, {"name": "Winton", "lat": -46.15, "lng": 168.33333, "population": 2193}, {"name": "Lake Hawea", "lat": -44.60836, "lng": 169.26008, "population": 2190}, {"name": "Eastern Beach", "lat": -36.8682, "lng": 174.90019, "population": 2190}, {"name": "Redcliffs", "lat": -43.56152, "lng": 172.73654, "population": 2180}, {"name": "Oratia", "lat": -36.91667, "lng": 174.61667, "population": 2180}, {"name": "Days Bay", "lat": -41.28148, "lng": 174.90719, "population": 2180}, {"name": "Arrowtown", "lat": -44.93837, "lng": 168.81007, "population": 2151}, {"name": "Foxton Beach", "lat": -40.46384, "lng": 175.22716, "population": 2150}, {"name": "Bulls", "lat": -40.17487, "lng": 175.38463, "population": 2150}, {"name": "Eltham", "lat": -39.42917, "lng": 174.3, "population": 2150}, {"name": "Normandale", "lat": -41.19827, "lng": 174.88019, "population": 2150}, {"name": "Plimmerton", "lat": -41.08333, "lng": 174.86667, "population": 2140}, {"name": "Methven", "lat": -43.63333, "lng": 171.65, "population": 2130}, {"name": "Netherby", "lat": -43.89834, "lng": 171.76011, "population": 2130}, {"name": "Otaki Beach", "lat": -40.75, "lng": 175.11667, "population": 2120}, {"name": "Clive", "lat": -39.58333, "lng": 176.91667, "population": 2120}, {"name": "Wellsford", "lat": -36.28333, "lng": 174.51667, "population": 2110}, {"name": "Newfield", "lat": -46.41842, "lng": 168.38009, "population": 2110}, {"name": "Tainui", "lat": -45.90134, "lng": 170.52326, "population": 2090}, {"name": "Saint Marys Bay", "lat": -36.8382, "lng": 174.74019, "population": 2080}, {"name": "Pukerua Bay", "lat": -41.03333, "lng": 174.9, "population": 2070}, {"name": "Kew", "lat": -46.42842, "lng": 168.35009, "population": 2070}, {"name": "Rahotu", "lat": -39.33333, "lng": 173.8, "population": 2067}, {"name": "Martinborough", "lat": -41.20827, "lng": 175.4302, "population": 2050}, {"name": "Pinehaven", "lat": -41.15827, "lng": 175.0002, "population": 2050}, {"name": "Camborne", "lat": -41.08827, "lng": 174.8702, "population": 2040}, {"name": "Owhiro Bay", "lat": -41.33828, "lng": 174.75019, "population": 2040}, {"name": "Ladbrooks", "lat": -43.61667, "lng": 172.53333, "population": 2030}, {"name": "Milton", "lat": -46.12083, "lng": 169.96944, "population": 2009}, {"name": "Vogeltown", "lat": -41.31411, "lng": 174.76926, "population": 2004}, {"name": "Mangatainoka", "lat": -40.41513, "lng": 175.86352, "population": 1990}, {"name": "Clifton", "lat": -46.44842, "lng": 168.36009, "population": 1990}, {"name": "Onepoto", "lat": -41.10827, "lng": 174.8402, "population": 1990}, {"name": "Woodridge", "lat": -41.21692, "lng": 174.83072, "population": 1980}, {"name": "Halfway Bush", "lat": -45.85, "lng": 170.46667, "population": 1970}, {"name": "Ostend", "lat": -36.7982, "lng": 175.04019, "population": 1950}, {"name": "Kenmure", "lat": -45.87838, "lng": 170.4601, "population": 1944}, {"name": "Bluff", "lat": -46.6, "lng": 168.33333, "population": 1938}, {"name": "Glenwood", "lat": -44.37835, "lng": 171.1901, "population": 1930}, {"name": "Cloverlea", "lat": -40.3455, "lng": 175.59002, "population": 1930}, {"name": "Riverstone Terraces", "lat": -41.10827, "lng": 175.0402, "population": 1930}, {"name": "Moerewa", "lat": -35.38333, "lng": 174.03333, "population": 1920}, {"name": "Edgecumbe", "lat": -37.98333, "lng": 176.83333, "population": 1900}, {"name": "Clifton", "lat": -43.56435, "lng": 172.7492, "population": 1900}, {"name": "Hawthorndale", "lat": -46.39841, "lng": 168.38009, "population": 1900}, {"name": "Waipawa", "lat": -41.41222, "lng": 175.51528, "population": 1899}, {"name": "Waitakere", "lat": -36.85126, "lng": 174.54477, "population": 1890}, {"name": "Murupara", "lat": -38.46667, "lng": 176.7, "population": 1876}, {"name": "Whakarongo", "lat": -40.33333, "lng": 175.66667, "population": 1870}, {"name": "Drury", "lat": -37.1, "lng": 174.95, "population": 1870}, {"name": "Acacia Bay", "lat": -38.70293, "lng": 176.03085, "population": 1870}, {"name": "Mayfield", "lat": -41.49828, "lng": 173.95018, "population": 1870}, {"name": "Grenada Village", "lat": -41.20827, "lng": 174.82019, "population": 1870}, {"name": "Woburn", "lat": -41.21827, "lng": 174.90019, "population": 1850}, {"name": "Templeton", "lat": -43.55, "lng": 172.46667, "population": 1840}, {"name": "Moera", "lat": -41.22827, "lng": 174.90019, "population": 1840}, {"name": "Rangiriri", "lat": -37.4305, "lng": 175.12971, "population": 1833}, {"name": "Shiel Hill", "lat": -45.88838, "lng": 170.5301, "population": 1830}, {"name": "Roseneath", "lat": -41.2909, "lng": 174.80081, "population": 1820}, {"name": "Mapua", "lat": -41.25, "lng": 173.1, "population": 1819}, {"name": "Taihape", "lat": -39.67819, "lng": 175.79799, "population": 1810}, {"name": "Tangiteroria", "lat": -35.81667, "lng": 174.05, "population": 1800}, {"name": "Hikurangi", "lat": -35.6, "lng": 174.3, "population": 1800}, {"name": "Coromandel", "lat": -36.7611, "lng": 175.49634, "population": 1790}, {"name": "Twizel", "lat": -44.25842, "lng": 170.10063, "population": 1780}, {"name": "Avonside", "lat": -43.51833, "lng": 172.66013, "population": 1770}, {"name": "Houghton Bay", "lat": -41.34147, "lng": 174.7854, "population": 1770}, {"name": "Maramarua", "lat": -37.25, "lng": 175.23333, "population": 1767}, {"name": "Ealing", "lat": -44.05, "lng": 171.41667, "population": 1740}, {"name": "Taipa", "lat": -34.99604, "lng": 173.46665, "population": 1731}, {"name": "Paekakariki", "lat": -40.98544, "lng": 174.95449, "population": 1730}, {"name": "Waikawa", "lat": -41.26667, "lng": 174.05, "population": 1720}, {"name": "Oakura", "lat": -39.11667, "lng": 173.95, "population": 1720}, {"name": "Diamond Harbour", "lat": -43.62888, "lng": 172.7254, "population": 1720}, {"name": "Crofton Downs", "lat": -41.25729, "lng": 174.76218, "population": 1720}, {"name": "Wainui", "lat": -38.68873, "lng": 178.07048, "population": 1716}, {"name": "Castlepoint", "lat": -40.9, "lng": 176.21667, "population": 1686}, {"name": "Riverton", "lat": -46.35, "lng": 168.01667, "population": 1680}, {"name": "Mataura", "lat": -46.1784, "lng": 168.85009, "population": 1680}, {"name": "Woodville", "lat": -40.33719, "lng": 175.86678, "population": 1680}, {"name": "Rakaia", "lat": -43.75, "lng": 172.01667, "population": 1670}, {"name": "Paihia", "lat": -35.28067, "lng": 174.09103, "population": 1670}, {"name": "Macandrew Bay", "lat": -45.86667, "lng": 170.6, "population": 1670}, {"name": "Newton", "lat": -36.85843, "lng": 174.75005, "population": 1668}, {"name": "Kensington", "lat": -44.41202, "lng": 171.24699, "population": 1640}, {"name": "West Eyreton", "lat": -43.35, "lng": 172.38333, "population": 1620}, {"name": "Utuhina", "lat": -38.1436, "lng": 176.23092, "population": 1620}, {"name": "Kaharoa", "lat": -37.99513, "lng": 176.23467, "population": 1617}, {"name": "Shannon", "lat": -40.54826, "lng": 175.42021, "population": 1610}, {"name": "Musselburgh", "lat": -45.89662, "lng": 170.5145, "population": 1590}, {"name": "Tairua", "lat": -37.01667, "lng": 175.85, "population": 1588}, {"name": "Brighton", "lat": -45.95, "lng": 170.33333, "population": 1580}, {"name": "Concord", "lat": -45.89838, "lng": 170.4501, "population": 1580}, {"name": "Karaka Bays", "lat": -41.30502, "lng": 174.82879, "population": 1580}, {"name": "Ohakune", "lat": -39.40824, "lng": 175.40021, "population": 1570}, {"name": "Clarks Beach", "lat": -37.14173, "lng": 174.71463, "population": 1560}, {"name": "Clarkville", "lat": -43.41667, "lng": 172.61667, "population": 1550}, {"name": "Tiniroto", "lat": -38.76667, "lng": 177.56667, "population": 1539}, {"name": "Waharoa", "lat": -37.76667, "lng": 175.76667, "population": 1521}, {"name": "Clevedon", "lat": -37.0, "lng": 175.05, "population": 1515}, {"name": "Kawakawa", "lat": -35.38333, "lng": 174.06667, "population": 1500}, {"name": "Taneatua", "lat": -38.06667, "lng": 177.01667, "population": 1497}, {"name": "Opunake", "lat": -39.45556, "lng": 173.85833, "population": 1495}, {"name": "Maupuia", "lat": -41.30347, "lng": 174.82012, "population": 1490}, {"name": "Colville", "lat": -36.63333, "lng": 175.46667, "population": 1485}, {"name": "Pleasant Point", "lat": -44.26667, "lng": 171.13333, "population": 1470}, {"name": "Port Chalmers", "lat": -45.81664, "lng": 170.62037, "population": 1460}, {"name": "Patumahoe", "lat": -37.18333, "lng": 174.83333, "population": 1450}, {"name": "Oriental Bay", "lat": -41.29174, "lng": 174.79385, "population": 1450}, {"name": "Takaka", "lat": -40.85, "lng": 172.8, "population": 1430}, {"name": "Waipu", "lat": -35.98333, "lng": 174.45, "population": 1410}, {"name": "Maketu", "lat": -37.76667, "lng": 176.45, "population": 1410}, {"name": "Avenal", "lat": -46.39842, "lng": 168.34009, "population": 1410}, {"name": "Melrose", "lat": -41.32339, "lng": 174.78819, "population": 1400}, {"name": "Hamilton West", "lat": -37.78821, "lng": 175.2702, "population": 1390}, {"name": "Hicks Bay", "lat": -37.6, "lng": 178.3, "population": 1389}, {"name": "Harewood", "lat": -43.48333, "lng": 172.58333, "population": 1386}, {"name": "Mangawhai", "lat": -36.11667, "lng": 174.56667, "population": 1370}, {"name": "Ngunguru", "lat": -35.61667, "lng": 174.5, "population": 1358}, {"name": "Oneroa", "lat": -36.77819, "lng": 175.01019, "population": 1350}, {"name": "Pirongia", "lat": -38.0, "lng": 175.2, "population": 1340}, {"name": "Waimairi Beach", "lat": -43.47833, "lng": 172.72013, "population": 1340}, {"name": "Waikouaiti", "lat": -45.58837, "lng": 170.6501, "population": 1330}, {"name": "Opawa", "lat": -43.55499, "lng": 172.66139, "population": 1330}, {"name": "Waimauku", "lat": -36.75, "lng": 174.5, "population": 1320}, {"name": "Opoho", "lat": -45.84838, "lng": 170.5201, "population": 1310}, {"name": "Patea", "lat": -39.75833, "lng": 174.48333, "population": 1286}, {"name": "Opua", "lat": -35.31667, "lng": 174.11667, "population": 1280}, {"name": "Arthurs Point", "lat": -44.98333, "lng": 168.66667, "population": 1280}, {"name": "Temple View", "lat": -37.82077, "lng": 175.2255, "population": 1280}, {"name": "Runanga", "lat": -42.39828, "lng": 171.25013, "population": 1270}, {"name": "Ohinemutu", "lat": -38.15, "lng": 176.28333, "population": 1260}, {"name": "Burnham", "lat": -43.61667, "lng": 172.31667, "population": 1239}, {"name": "Rawene", "lat": -35.40217, "lng": 173.50317, "population": 1236}, {"name": "Haruru", "lat": -35.28066, "lng": 174.05434, "population": 1230}, {"name": "Rapaura", "lat": -41.46667, "lng": 173.9, "population": 1212}, {"name": "Ravensbourne", "lat": -45.86667, "lng": 170.55, "population": 1209}, {"name": "Washdyke", "lat": -44.35, "lng": 171.23333, "population": 1200}, {"name": "Weston", "lat": -45.08333, "lng": 170.91667, "population": 1190}, {"name": "Raupunga", "lat": -39.03333, "lng": 177.21667, "population": 1188}, {"name": "Kirwee", "lat": -43.5, "lng": 172.21667, "population": 1180}, {"name": "Hanmer Springs", "lat": -42.51667, "lng": 172.81667, "population": 1180}, {"name": "Waitoa", "lat": -37.61667, "lng": 175.63333, "population": 1170}, {"name": "Haumoana", "lat": -39.6037, "lng": 176.94571, "population": 1161}, {"name": "Portobello", "lat": -45.85, "lng": 170.65, "population": 1155}, {"name": "Jerusalem", "lat": -39.55, "lng": 175.06667, "population": 1155}, {"name": "Ngatea", "lat": -37.28333, "lng": 175.5, "population": 1151}, {"name": "Cable Bay", "lat": -34.99438, "lng": 173.49283, "population": 1140}, {"name": "Waikuku Beach", "lat": -43.28333, "lng": 172.71667, "population": 1130}, {"name": "Muriwai Beach", "lat": -36.83659, "lng": 174.43298, "population": 1130}, {"name": "Kopuaranga", "lat": -40.83333, "lng": 175.66667, "population": 1130}, {"name": "Hamurana", "lat": -38.03333, "lng": 176.26667, "population": 1130}, {"name": "Raetihi", "lat": -39.42877, "lng": 175.27725, "population": 1130}, {"name": "Karoro", "lat": -42.47314, "lng": 171.18721, "population": 1120}, {"name": "Kaukapakapa", "lat": -36.61667, "lng": 174.5, "population": 1110}, {"name": "Parakai", "lat": -36.65, "lng": 174.43333, "population": 1100}, {"name": "Marybank", "lat": -41.2276, "lng": 173.32147, "population": 1100}, {"name": "Sawyers Bay", "lat": -45.81838, "lng": 170.6001, "population": 1095}, {"name": "Ahipara", "lat": -35.16604, "lng": 173.15563, "population": 1093}, {"name": "Pauanui", "lat": -37.01667, "lng": 175.86667, "population": 1090}, {"name": "Kennedys Bush", "lat": -43.60324, "lng": 172.5816, "population": 1090}, {"name": "Judgeford", "lat": -41.11667, "lng": 174.93333, "population": 1080}, {"name": "Piha", "lat": -36.95, "lng": 174.46667, "population": 1070}, {"name": "Normanby", "lat": -39.53333, "lng": 174.28333, "population": 1070}, {"name": "Manaia", "lat": -39.55, "lng": 174.13333, "population": 1070}, {"name": "Woodlands Park", "lat": -36.9482, "lng": 174.62019, "population": 1056}, {"name": "Swannanoa", "lat": -43.38333, "lng": 172.46667, "population": 1050}, {"name": "Palmerston", "lat": -45.47837, "lng": 170.7201, "population": 1050}, {"name": "Southshore", "lat": -43.5513, "lng": 172.74839, "population": 1041}, {"name": "Wingatui", "lat": -45.88333, "lng": 170.38333, "population": 1030}, {"name": "Pauatahanui", "lat": -41.1, "lng": 174.91667, "population": 1030}, {"name": "Awarua Plains", "lat": -46.48333, "lng": 168.38333, "population": 1020}, {"name": "Southbridge", "lat": -43.81667, "lng": 172.25, "population": 1010}, {"name": "Maungatapere", "lat": -35.75, "lng": 174.2, "population": 1007}, {"name": "Waitangi", "lat": -43.95353, "lng": -176.55973, "population": 140}, {"name": "Kaitaia", "lat": -35.11485, "lng": 173.26366, "population": 0}]