[{"name": "Lima", "lat": -12.04318, "lng": -77.02824, "population": 7737002}, {"name": "Callao", "lat": -12.05162, "lng": -77.13452, "population": 1300000}, {"name": "Arequipa", "lat": -16.39899, "lng": -71.53747, "population": 1008290}, {"name": "Trujillo", "lat": -8.11599, "lng": -79.02998, "population": 919899}, {"name": "Chiclayo", "lat": -6.77008, "lng": -79.85495, "population": 552508}, {"name": "Piura", "lat": -5.18192, "lng": -80.65715, "population": 484475}, {"name": "Huancayo", "lat": -12.06866, "lng": -75.21027, "population": 456250}, {"name": "Cusco", "lat": -13.53188, "lng": -71.96701, "population": 428450}, {"name": "Iquitos", "lat": -3.74814, "lng": -73.2529, "population": 377609}, {"name": "Pucallpa", "lat": -8.37915, "lng": -74.55387, "population": 326040}, {"name": "Chimbote", "lat": -9.07508, "lng": -78.59373, "population": 316966}, {"name": "Tacna", "lat": -18.01465, "lng": -70.25362, "population": 286240}, {"name": "Ica", "lat": -14.07538, "lng": -75.73422, "population": 282407}, {"name": "Santiago de Surco", "lat": -12.13588, "lng": -77.00742, "population": 251648}, {"name": "Juliaca", "lat": -15.5, "lng": -70.13333, "population": 245675}, {"name": "Cajamarca", "lat": -7.16378, "lng": -78.50027, "population": 201329}, {"name": "Huánuco", "lat": -9.92882, "lng": -76.23989, "population": 196627}, {"name": "Miraflores", "lat": -12.11331, "lng": -77.03274, "population": 187401}, {"name": "Santa Anita - Los Ficus", "lat": -12.05048, "lng": -76.97335, "population": 184614}, {"name": "Sullana", "lat": -4.90389, "lng": -80.68528, "population": 160789}, {"name": "Chincha Alta", "lat": -13.40985, "lng": -76.13235, "population": 153076}, {"name": "Ayacucho", "lat": -13.1638, "lng": -74.22345, "population": 140033}, {"name": "San Martin", "lat": -5.18591, "lng": -80.66927, "population": 130000}, {"name": "Puno", "lat": -15.84003, "lng": -70.02198, "population": 128637}, {"name": "Huaraz", "lat": -9.52614, "lng": -77.52869, "population": 118836}, {"name": "San Francisco De Borja", "lat": -12.08911, "lng": -76.99876, "population": 105076}, {"name": "Talara", "lat": -4.57722, "lng": -81.27194, "population": 99074}, {"name": "Tumbes", "lat": -3.55592, "lng": -80.44258, "population": 96946}, {"name": "Chosica", "lat": -11.94306, "lng": -76.70944, "population": 88606}, {"name": "Puerto Maldonado", "lat": -12.58946, "lng": -69.19948, "population": 85024}, {"name": "Breña", "lat": -12.05605, "lng": -77.05295, "population": 81909}, {"name": "San Juan", "lat": -3.77611, "lng": -73.28139, "population": 78153}, {"name": "Ciudad Satelite", "lat": -16.43085, "lng": -71.52921, "population": 76410}, {"name": "Chilca", "lat": -12.08628, "lng": -75.20827, "population": 73371}, {"name": "Selva Alegre", "lat": -16.37057, "lng": -71.52724, "population": 72696}, {"name": "Abancay", "lat": -13.63426, "lng": -72.8838, "population": 72277}, {"name": "Moquegua", "lat": -17.19747, "lng": -70.93587, "population": 69882}, {"name": "Chulucanas", "lat": -5.0925, "lng": -80.1625, "population": 68835}, {"name": "San Isidro", "lat": -12.09655, "lng": -77.04258, "population": 68309}, {"name": "San Fernando", "lat": -8.39818, "lng": -74.53774, "population": 67844}, {"name": "Jesus Maria", "lat": -12.06982, "lng": -77.04495, "population": 66171}, {"name": "Santiago", "lat": -13.52728, "lng": -71.9843, "population": 64075}, {"name": "Huaral", "lat": -11.495, "lng": -77.20778, "population": 62174}, {"name": "Pisco", "lat": -13.71029, "lng": -76.20538, "population": 61869}, {"name": "Villa Poeta José Gálvez Barrenechea", "lat": -12.21312, "lng": -76.90522, "population": 61000}, {"name": "Wanchaq", "lat": -13.52493, "lng": -71.96531, "population": 59134}, {"name": "Cerro de Pasco", "lat": -10.66577, "lng": -76.25309, "population": 58899}, {"name": "Belen", "lat": -3.76016, "lng": -73.2497, "population": 57824}, {"name": "Catacaos", "lat": -5.26667, "lng": -80.68333, "population": 57304}, {"name": "Paita", "lat": -5.08917, "lng": -81.11444, "population": 56151}, {"name": "Huacho", "lat": -11.11718, "lng": -77.60584, "population": 54545}, {"name": "Ilo", "lat": -17.63185, "lng": -71.34108, "population": 53476}, {"name": "Tingo María", "lat": -9.29532, "lng": -75.99574, "population": 53177}, {"name": "Jaén", "lat": -5.70729, "lng": -78.80785, "population": 52493}, {"name": "Tarma", "lat": -11.41899, "lng": -75.68992, "population": 51350}, {"name": "Moyobamba", "lat": -6.03441, "lng": -76.97423, "population": 50073}, {"name": "Huancavelica", "lat": -12.78691, "lng": -74.97298, "population": 49570}, {"name": "Centenario", "lat": -9.51656, "lng": -77.53045, "population": 47581}, {"name": "Cono Norte", "lat": -16.32369, "lng": -71.58151, "population": 47347}, {"name": "Barranca", "lat": -10.75, "lng": -77.76667, "population": 46290}, {"name": "Jacobo Hunter", "lat": -16.44083, "lng": -71.55333, "population": 46092}, {"name": "Lambayeque", "lat": -6.70111, "lng": -79.90611, "population": 43710}, {"name": "Picsi", "lat": -6.71778, "lng": -79.76972, "population": 43610}, {"name": "Chepén", "lat": -7.22436, "lng": -79.42476, "population": 41992}, {"name": "Carmen De La Legua Reynoso", "lat": -12.05354, "lng": -77.09802, "population": 41863}, {"name": "Yurimaguas", "lat": -5.90181, "lng": -76.12234, "population": 41827}, {"name": "Saña", "lat": -6.91888, "lng": -79.582, "population": 39200}, {"name": "Tambopata", "lat": -12.67191, "lng": -69.35547, "population": 38966}, {"name": "Juanjuí", "lat": -7.17697, "lng": -76.72774, "population": 37715}, {"name": "Barranco", "lat": -12.14297, "lng": -77.01862, "population": 37525}, {"name": "La Unión", "lat": -5.40232, "lng": -80.74224, "population": 34834}, {"name": "Ferreñafe", "lat": -6.63889, "lng": -79.78889, "population": 34357}, {"name": "Sicuani", "lat": -14.26944, "lng": -71.22611, "population": 33575}, {"name": "La Oroya", "lat": -11.51893, "lng": -75.89935, "population": 33345}, {"name": "Chocope", "lat": -7.79139, "lng": -79.22167, "population": 32370}, {"name": "Nuevo Imperial", "lat": -13.07541, "lng": -76.31719, "population": 32344}, {"name": "Imperial", "lat": -13.05927, "lng": -76.35269, "population": 32344}, {"name": "Chachapoyas", "lat": -6.23169, "lng": -77.86903, "population": 32026}, {"name": "Tambo Grande", "lat": -4.92694, "lng": -80.34472, "population": 30033}, {"name": "La Rinconada", "lat": -14.63126, "lng": -69.44638, "population": 29678}, {"name": "Pacasmayo", "lat": -7.40056, "lng": -79.57139, "population": 29165}, {"name": "Tocache", "lat": -8.1877, "lng": -76.52046, "population": 29029}, {"name": "Mollendo", "lat": -17.02306, "lng": -72.01472, "population": 28953}, {"name": "Chaupimarca", "lat": -10.40696, "lng": -76.46168, "population": 28666}, {"name": "Paramonga", "lat": -10.66667, "lng": -77.83333, "population": 27631}, {"name": "La Peca", "lat": -5.61111, "lng": -78.435, "population": 27045}, {"name": "Chancay", "lat": -11.57139, "lng": -77.26722, "population": 26958}, {"name": "Hualmay", "lat": -11.09639, "lng": -77.61389, "population": 26658}, {"name": "Monsefú", "lat": -6.87431, "lng": -79.86871, "population": 25707}, {"name": "Marcavelica", "lat": -4.87778, "lng": -80.70528, "population": 25645}, {"name": "San Vicente de Cañete", "lat": -13.07556, "lng": -76.38528, "population": 25517}, {"name": "Querecotillo", "lat": -4.83778, "lng": -80.64556, "population": 25396}, {"name": "Guadalupe", "lat": -7.25, "lng": -79.48333, "population": 25376}, {"name": "Santa Ana", "lat": -12.86667, "lng": -72.71667, "population": 25145}, {"name": "Rioja", "lat": -6.05675, "lng": -77.16651, "population": 25057}, {"name": "La Banda", "lat": -6.49265, "lng": -76.34224, "population": 24932}, {"name": "Laredo", "lat": -8.08965, "lng": -78.9602, "population": 24691}, {"name": "Yanacancha", "lat": -10.66585, "lng": -76.25525, "population": 24105}, {"name": "Yauri", "lat": -14.79083, "lng": -71.40986, "population": 23867}, {"name": "Nazca", "lat": -14.83098, "lng": -74.93895, "population": 23556}, {"name": "Yanacancha", "lat": -10.24111, "lng": -76.64556, "population": 23175}, {"name": "Sechura", "lat": -5.55694, "lng": -80.82222, "population": 23020}, {"name": "Moche", "lat": -8.17111, "lng": -79.00917, "population": 22581}, {"name": "Santiago de Cao", "lat": -7.95889, "lng": -79.23917, "population": 21982}, {"name": "Huamachuco", "lat": -7.8, "lng": -78.06667, "population": 21768}, {"name": "Paiján", "lat": -7.73291, "lng": -79.3015, "population": 21128}, {"name": "Jauja", "lat": -11.77584, "lng": -75.49656, "population": 21057}, {"name": "Virú", "lat": -8.41554, "lng": -78.75201, "population": 20774}, {"name": "Huaura", "lat": -11.07, "lng": -77.59944, "population": 20723}, {"name": "Bagua Grande", "lat": -5.75611, "lng": -78.44111, "population": 20382}, {"name": "El Pedregal", "lat": -16.36314, "lng": -72.1921, "population": 20063}, {"name": "Ayaviri", "lat": -14.88639, "lng": -70.58889, "population": 19310}, {"name": "Huanta", "lat": -12.93333, "lng": -74.25, "population": 18627}, {"name": "Aguaytía", "lat": -9.03778, "lng": -75.50906, "population": 18318}, {"name": "Santa Rosa", "lat": -10.91908, "lng": -74.88496, "population": 18057}, {"name": "Uchiza", "lat": -8.45917, "lng": -76.46333, "population": 17742}, {"name": "La Breita", "lat": -4.25691, "lng": -80.88599, "population": 17693}, {"name": "Andahuaylas", "lat": -13.65556, "lng": -73.38722, "population": 17444}, {"name": "Mala", "lat": -12.65806, "lng": -76.63083, "population": 17260}, {"name": "Zarumilla", "lat": -3.50306, "lng": -80.27306, "population": 16907}, {"name": "Camaná", "lat": -16.62375, "lng": -72.71055, "population": 16434}, {"name": "San Martín de Pangoa", "lat": -11.42854, "lng": -74.48834, "population": 16262}, {"name": "San Pedro de Lloc", "lat": -7.4289, "lng": -79.50416, "population": 16250}, {"name": "Huarmey", "lat": -10.06806, "lng": -78.15222, "population": 16172}, {"name": "Yunguyo", "lat": -16.25, "lng": -69.08333, "population": 16140}, {"name": "Chongoyape", "lat": -6.64056, "lng": -79.38917, "population": 16061}, {"name": "Ilave", "lat": -16.08333, "lng": -69.66667, "population": 16033}, {"name": "San Clemente", "lat": -13.66667, "lng": -76.15, "population": 15815}, {"name": "San Antonio", "lat": -17.21718, "lng": -70.92593, "population": 15633}, {"name": "Pimentel", "lat": -6.83667, "lng": -79.93417, "population": 15552}, {"name": "Satipo", "lat": -11.25222, "lng": -74.63861, "population": 15532}, {"name": "Minas de Marcona", "lat": -15.21194, "lng": -75.11028, "population": 15478}, {"name": "Junín", "lat": -11.15895, "lng": -75.99304, "population": 15320}, {"name": "Pátapo", "lat": -6.73315, "lng": -79.6359, "population": 15270}, {"name": "Bellavista", "lat": -7.05614, "lng": -76.5911, "population": 15231}, {"name": "Coishco", "lat": -9.02306, "lng": -78.61556, "population": 15083}, {"name": "Chicama", "lat": -7.84472, "lng": -79.14694, "population": 14915}, {"name": "Saposoa", "lat": -6.93395, "lng": -76.77158, "population": 14894}, {"name": "Santa María", "lat": -12.00538, "lng": -76.89329, "population": 14853}, {"name": "Tabalosos", "lat": -6.35, "lng": -76.68333, "population": 14744}, {"name": "San Ramón", "lat": -11.12417, "lng": -75.35733, "population": 14708}, {"name": "Celendín", "lat": -6.86544, "lng": -78.14552, "population": 14660}, {"name": "Nauta", "lat": -4.50561, "lng": -73.58026, "population": 14646}, {"name": "Cono Norte", "lat": -16.30111, "lng": -71.61647, "population": 14542}, {"name": "Las Nazarenas", "lat": -13.15465, "lng": -74.21553, "population": 14316}, {"name": "Chota", "lat": -6.55, "lng": -78.65, "population": 14240}, {"name": "Salinera Colán", "lat": -5.03333, "lng": -81.06667, "population": 14210}, {"name": "Puerto Santa", "lat": -8.98979, "lng": -78.64603, "population": 14066}, {"name": "Ascope", "lat": -7.71444, "lng": -79.10778, "population": 14015}, {"name": "Contamana", "lat": -7.33333, "lng": -75.01667, "population": 13885}, {"name": "Supe", "lat": -10.7975, "lng": -77.71306, "population": 13719}, {"name": "Lamas", "lat": -6.41667, "lng": -76.53333, "population": 13693}, {"name": "Eten", "lat": -6.90806, "lng": -79.86417, "population": 13693}, {"name": "Motupe", "lat": -6.15194, "lng": -79.71417, "population": 13681}, {"name": "Pativilca", "lat": -10.7, "lng": -77.78333, "population": 13583}, {"name": "Cajabamba", "lat": -7.61667, "lng": -78.05, "population": 13486}, {"name": "Bambamarca", "lat": -6.68333, "lng": -78.53333, "population": 13351}, {"name": "Pilcomayo", "lat": -9.04728, "lng": -77.81092, "population": 13295}, {"name": "Azángaro", "lat": -14.91416, "lng": -70.19846, "population": 13290}, {"name": "Vice", "lat": -5.41667, "lng": -80.78333, "population": 12915}, {"name": "Chilca", "lat": -12.52111, "lng": -76.73722, "population": 12884}, {"name": "San Juan", "lat": -15.36528, "lng": -75.16222, "population": 12795}, {"name": "Atuncolla", "lat": -15.68865, "lng": -70.14392, "population": 12654}, {"name": "Pueblo Nuevo", "lat": -5.71667, "lng": -79.88333, "population": 12471}, {"name": "Castillo Grande", "lat": -9.27807, "lng": -76.00871, "population": 12438}, {"name": "Morropón", "lat": -5.1868, "lng": -79.97076, "population": 12307}, {"name": "Zorritos", "lat": -3.68046, "lng": -80.67819, "population": 12261}, {"name": "La Rinconada Ana Maria (La Rinconada)", "lat": -14.63392, "lng": -69.44694, "population": 12183}, {"name": "Oxapampa", "lat": -10.5775, "lng": -75.40167, "population": 12000}, {"name": "Supe Puerto", "lat": -10.80135, "lng": -77.74333, "population": 11450}, {"name": "Concepción", "lat": -11.91762, "lng": -75.31401, "population": 11330}, {"name": "Santa Rosa de Sacco", "lat": -11.55067, "lng": -75.94255, "population": 11257}, {"name": "Tupac Amaru", "lat": -13.71135, "lng": -76.1498, "population": 11159}, {"name": "Caraz", "lat": -9.04849, "lng": -77.81005, "population": 10926}, {"name": "Soritor", "lat": -6.13917, "lng": -77.10389, "population": 10858}, {"name": "Pichari", "lat": -12.5, "lng": -73.81667, "population": 10655}, {"name": "Santa Rosa", "lat": -6.75772, "lng": -79.82747, "population": 10625}, {"name": "Puquio", "lat": -14.7, "lng": -74.13333, "population": 10491}, {"name": "Santiago", "lat": -14.18469, "lng": -75.71124, "population": 10449}, {"name": "Otuzco", "lat": -7.9, "lng": -78.58333, "population": 10134}, {"name": "La Pradera", "lat": -6.779, "lng": -79.886, "population": 10072}, {"name": "Salaverry", "lat": -8.221, "lng": -78.97698, "population": 10066}, {"name": "Chupaca", "lat": -12.06667, "lng": -75.28333, "population": 9877}, {"name": "San Lucas ( Pueblo Nuevo de Colan)", "lat": -4.90874, "lng": -81.05686, "population": 9874}, {"name": "Reque", "lat": -6.86556, "lng": -79.81778, "population": 9808}, {"name": "Olmos", "lat": -5.98472, "lng": -79.74528, "population": 9800}, {"name": "Miramar", "lat": -8.17945, "lng": -78.99381, "population": 9614}, {"name": "Ilabaya", "lat": -17.42072, "lng": -70.51276, "population": 9492}, {"name": "Sisa", "lat": -6.61085, "lng": -76.69302, "population": 9477}, {"name": "Las Lomas", "lat": -4.65333, "lng": -80.24667, "population": 9450}, {"name": "El Alto", "lat": -4.26851, "lng": -81.21719, "population": 9303}, {"name": "Quiruvilca", "lat": -7.96667, "lng": -78.2, "population": 9226}, {"name": "Lagunas", "lat": -5.22694, "lng": -75.67528, "population": 9197}, {"name": "Calca", "lat": -13.33333, "lng": -71.95, "population": 9179}, {"name": "Carhuamayo", "lat": -10.91667, "lng": -76.03333, "population": 9122}, {"name": "Aguas Verdes", "lat": -3.48139, "lng": -80.245, "population": 9106}, {"name": "Máncora", "lat": -4.10778, "lng": -81.0475, "population": 9101}, {"name": "Subtanjalla", "lat": -14.01889, "lng": -75.75806, "population": 9096}, {"name": "Yauya", "lat": -8.99135, "lng": -77.29147, "population": 9092}, {"name": "Ascencion", "lat": -12.78423, "lng": -74.98058, "population": 9086}, {"name": "Puente Viru", "lat": -8.42513, "lng": -78.78097, "population": 8995}, {"name": "Campo Verde", "lat": -8.47562, "lng": -74.8063, "population": 8945}, {"name": "San Luis", "lat": -12.07674, "lng": -76.99435, "population": 8862}, {"name": "Cocachacra", "lat": -17.08833, "lng": -71.7575, "population": 8799}, {"name": "San Jeronimo De Tunan", "lat": -11.95591, "lng": -75.28411, "population": 8772}, {"name": "Pacanga", "lat": -7.16667, "lng": -79.5, "population": 8750}, {"name": "Huancabamba", "lat": -5.23861, "lng": -79.45056, "population": 8553}, {"name": "La Huaca", "lat": -4.91167, "lng": -80.96, "population": 8468}, {"name": "San Miguel", "lat": -13.0125, "lng": -73.98083, "population": 8400}, {"name": "Victor Raul", "lat": -8.40469, "lng": -78.82276, "population": 8369}, {"name": "Horacio Zeballos Gamez", "lat": -16.49181, "lng": -71.50731, "population": 8365}, {"name": "Pilcomayo", "lat": -12.04722, "lng": -75.24931, "population": 8169}, {"name": "Putina", "lat": -15.47506, "lng": -69.43056, "population": 8118}, {"name": "Chazuta", "lat": -6.57087, "lng": -76.13753, "population": 8029}, {"name": "San Antonio del Estrecho", "lat": -2.45012, "lng": -72.66896, "population": 8000}, {"name": "Buenos Aires", "lat": -5.2671, "lng": -79.96759, "population": 7932}, {"name": "San Ignacio", "lat": -5.14583, "lng": -79.00139, "population": 7912}, {"name": "Morococha", "lat": -11.58779, "lng": -76.06323, "population": 7890}, {"name": "Los Aquijes", "lat": -14.09667, "lng": -75.69083, "population": 7848}, {"name": "Huancane", "lat": -15.82239, "lng": -70.88565, "population": 7831}, {"name": "Pacocha", "lat": -17.64604, "lng": -71.34481, "population": 7588}, {"name": "La Legua - San Jacinto", "lat": -5.23584, "lng": -80.65928, "population": 7548}, {"name": "Urubamba", "lat": -13.30472, "lng": -72.11583, "population": 7540}, {"name": "Mochumí", "lat": -6.54364, "lng": -79.86217, "population": 7460}, {"name": "Villa Rica", "lat": -10.73944, "lng": -75.26972, "population": 7448}, {"name": "San José", "lat": -6.73813, "lng": -79.8275, "population": 7434}, {"name": "Coracora", "lat": -15.03333, "lng": -73.78333, "population": 7420}, {"name": "Talavera", "lat": -13.65306, "lng": -73.42917, "population": 7381}, {"name": "Juli", "lat": -16.21667, "lng": -69.45, "population": 7309}, {"name": "Huanchaquito Alto", "lat": -8.08791, "lng": -79.09746, "population": 7282}, {"name": "Tabaloslos", "lat": -6.38559, "lng": -76.63342, "population": 7282}, {"name": "Cajaruro", "lat": -5.73639, "lng": -78.42556, "population": 7281}, {"name": "Jepelacio", "lat": -6.11667, "lng": -76.95, "population": 7150}, {"name": "Torata", "lat": -17.07694, "lng": -70.84333, "population": 7054}, {"name": "Túcume", "lat": -6.50637, "lng": -79.85725, "population": 7043}, {"name": "San Juan Bautista", "lat": -14.01083, "lng": -75.73583, "population": 6871}, {"name": "Ambo", "lat": -10.13083, "lng": -76.20472, "population": 6865}, {"name": "Perené", "lat": -10.9489, "lng": -75.22645, "population": 6844}, {"name": "Sicaya", "lat": -12.0152, "lng": -75.2801, "population": 6842}, {"name": "Mazamari", "lat": -11.32583, "lng": -74.53083, "population": 6826}, {"name": "Acolla", "lat": -11.73193, "lng": -75.54634, "population": 6805}, {"name": "Santiago de Chuco", "lat": -8.14099, "lng": -78.17329, "population": 6759}, {"name": "Huicungo", "lat": -7.3186, "lng": -76.77556, "population": 6757}, {"name": "Picota", "lat": -6.92033, "lng": -76.33142, "population": 6697}, {"name": "Mórrope", "lat": -6.53536, "lng": -80.01104, "population": 6662}, {"name": "Fonavi", "lat": -14.03282, "lng": -75.73697, "population": 6654}, {"name": "Pangoa", "lat": -12.11667, "lng": -73.0, "population": 6638}, {"name": "San Jose De Sisa", "lat": -6.61375, "lng": -76.69309, "population": 6546}, {"name": "Quilmaná", "lat": -12.9486, "lng": -76.38112, "population": 6442}, {"name": "Segunda Jerusalén - Azunguillo", "lat": -5.98917, "lng": -77.27694, "population": 6412}, {"name": "El Triunfo ( El Cruce)", "lat": -16.49319, "lng": -71.85305, "population": 6386}, {"name": "Punta de Bombón", "lat": -17.1719, "lng": -71.7924, "population": 6336}, {"name": "Oyotún", "lat": -6.84438, "lng": -79.30093, "population": 6330}, {"name": "Bellavista", "lat": -5.66553, "lng": -78.67908, "population": 6320}, {"name": "Paragsha- San Andres - Jose Carlos Mariategui", "lat": -10.67147, "lng": -76.27098, "population": 6316}, {"name": "Hacienda Pucala", "lat": -6.77919, "lng": -79.60258, "population": 6277}, {"name": "Oyón", "lat": -10.66846, "lng": -76.77165, "population": 6276}, {"name": "Végueta", "lat": -11.02253, "lng": -77.64378, "population": 6219}, {"name": "Sayán", "lat": -11.13333, "lng": -77.1946, "population": 6196}, {"name": "Jayanca", "lat": -6.39083, "lng": -79.82194, "population": 6126}, {"name": "Macusani", "lat": -14.08333, "lng": -70.43333, "population": 6044}, {"name": "San Agustin", "lat": -11.99024, "lng": -75.24421, "population": 5998}, {"name": "Lluta", "lat": -16.01472, "lng": -72.01417, "population": 5998}, {"name": "Yanahuanca", "lat": -10.51667, "lng": -76.49861, "population": 5992}, {"name": "Bernal", "lat": -5.45, "lng": -80.75, "population": 5916}, {"name": "Palpa", "lat": -14.53361, "lng": -75.18556, "population": 5883}, {"name": "Anta", "lat": -13.47056, "lng": -72.14833, "population": 5859}, {"name": "La Matanza", "lat": -5.21334, "lng": -80.09149, "population": 5828}, {"name": "Huayucachi", "lat": -12.13822, "lng": -75.22317, "population": 5827}, {"name": "Asentamiento Humano Nicolas de Pierola", "lat": -11.93573, "lng": -76.70611, "population": 5800}, {"name": "Barranca", "lat": -4.83298, "lng": -76.67582, "population": 5779}, {"name": "Pueblo Nuevo", "lat": -7.18806, "lng": -79.51528, "population": 5766}, {"name": "San Pedro de Cajas", "lat": -11.25061, "lng": -75.86116, "population": 5758}, {"name": "San Bartolo", "lat": -12.38333, "lng": -76.78333, "population": 5733}, {"name": "Yura", "lat": -16.25223, "lng": -71.67969, "population": 5686}, {"name": "Orcopampa", "lat": -15.26611, "lng": -72.34167, "population": 5643}, {"name": "San Jerónimo", "lat": -13.65138, "lng": -73.36388, "population": 5609}, {"name": "Pedro Ruiz Gallo", "lat": -5.94527, "lng": -77.97993, "population": 5602}, {"name": "Pampas", "lat": -12.39875, "lng": -74.86846, "population": 5521}, {"name": "Caleta de Carquín", "lat": -11.0925, "lng": -77.62667, "population": 5514}, {"name": "Ramón Castilla", "lat": -4.26066, "lng": -69.95714, "population": 5495}, {"name": "Papayal", "lat": -4.07771, "lng": -80.7369, "population": 5484}, {"name": "Nuevo Sullana", "lat": -4.92108, "lng": -80.72695, "population": 5484}, {"name": "Urcos", "lat": -13.68611, "lng": -71.62278, "population": 5479}, {"name": "Salitral", "lat": -4.85722, "lng": -80.68111, "population": 5385}, {"name": "Desaguadero", "lat": -16.56609, "lng": -69.042, "population": 5329}, {"name": "San Miguel de Cauri", "lat": -10.13818, "lng": -76.62288, "population": 5326}, {"name": "Ayabaca", "lat": -4.63983, "lng": -79.71491, "population": 5270}, {"name": "Yungay", "lat": -9.13833, "lng": -77.74361, "population": 5269}, {"name": "Pampa de Tate", "lat": -14.1453, "lng": -75.69179, "population": 5180}, {"name": "Huasahuasi", "lat": -11.26527, "lng": -75.64722, "population": 5146}, {"name": "Tinyahuarco", "lat": -10.76771, "lng": -76.27523, "population": 5066}, {"name": "Carhuaz", "lat": -9.28194, "lng": -77.64472, "population": 5044}, {"name": "Tambo", "lat": -14.79847, "lng": -73.92438, "population": 5032}, {"name": "Alto Salaverry", "lat": -8.1865, "lng": -78.98639, "population": 5014}, {"name": "Urb. Santo Domingo", "lat": -11.87655, "lng": -77.03345, "population": 5000}, {"name": "Ricardo Palma", "lat": -11.91978, "lng": -76.6561, "population": 4842}, {"name": "Islay (Matarani)", "lat": -16.9961, "lng": -72.1011, "population": 4823}, {"name": "La Unión", "lat": -9.82702, "lng": -76.80199, "population": 4788}, {"name": "Lampa", "lat": -15.35, "lng": -70.36667, "population": 4780}, {"name": "Llongasora", "lat": -15.63951, "lng": -71.29921, "population": 4753}, {"name": "Santa Rosa", "lat": -12.68657, "lng": -73.73531, "population": 4702}, {"name": "Río Grande", "lat": -14.516, "lng": -75.19933, "population": 4689}, {"name": "Santa Cruz De Succhabamba", "lat": -6.62501, "lng": -78.94576, "population": 4660}, {"name": "Huarancante", "lat": -15.76803, "lng": -71.45952, "population": 4638}, {"name": "Ayna", "lat": -12.65, "lng": -73.91667, "population": 4588}, {"name": "Llata", "lat": -9.41667, "lng": -76.78333, "population": 4585}, {"name": "Chivay", "lat": -15.63833, "lng": -71.60111, "population": 4543}, {"name": "Matucana", "lat": -11.85, "lng": -76.4, "population": 4517}, {"name": "Pomabamba", "lat": -8.83333, "lng": -77.46667, "population": 4453}, {"name": "Mosoc Cancha", "lat": -14.28514, "lng": -71.08773, "population": 4450}, {"name": "Machupicchu", "lat": -13.15549, "lng": -72.52416, "population": 4446}, {"name": "Acarí", "lat": -15.42393, "lng": -74.61361, "population": 4445}, {"name": "Huarichancara", "lat": -15.63972, "lng": -71.06111, "population": 4445}, {"name": "Paucartambo", "lat": -10.77326, "lng": -75.81109, "population": 4438}, {"name": "Vizcachane", "lat": -15.80861, "lng": -71.20111, "population": 4407}, {"name": "Huari", "lat": -9.34718, "lng": -77.17072, "population": 4406}, {"name": "Iberia", "lat": -11.40613, "lng": -69.49267, "population": 4386}, {"name": "Kimbiri", "lat": -12.61935, "lng": -73.78814, "population": 4369}, {"name": "Saquena", "lat": -4.66667, "lng": -73.51667, "population": 4362}, {"name": "Jatun Orcochiri", "lat": -15.75003, "lng": -71.34641, "population": 4358}, {"name": "Pucara", "lat": -15.97993, "lng": -71.45988, "population": 4335}, {"name": "Santa Lucía", "lat": -15.69758, "lng": -70.60712, "population": 4320}, {"name": "Tablazo Norte", "lat": -5.38398, "lng": -80.7641, "population": 4303}, {"name": "Cascas", "lat": -7.48333, "lng": -78.81667, "population": 4299}, {"name": "Huayna Alcalde", "lat": -14.26989, "lng": -71.09599, "population": 4298}, {"name": "Nuñoa", "lat": -14.4775, "lng": -70.63642, "population": 4271}, {"name": "Jayune", "lat": -15.56277, "lng": -71.30312, "population": 4256}, {"name": "Chuquitira", "lat": -17.28907, "lng": -70.04343, "population": 4220}, {"name": "Orcotuna", "lat": -11.96886, "lng": -75.3078, "population": 4199}, {"name": "Santo Tomas", "lat": -14.44556, "lng": -72.08417, "population": 4134}, {"name": "Pujocucho", "lat": -17.15364, "lng": -70.35651, "population": 4120}, {"name": "Ccaquiracunca", "lat": -14.27683, "lng": -71.45026, "population": 4098}, {"name": "Huepetuhe", "lat": -12.99475, "lng": -70.52508, "population": 4056}, {"name": "Palianñuñas", "lat": -12.04038, "lng": -75.19134, "population": 4049}, {"name": "Callanca", "lat": -14.18137, "lng": -71.1407, "population": 4046}, {"name": "Oropesa", "lat": -13.59454, "lng": -71.7636, "population": 4022}, {"name": "Huamancaca Chico", "lat": -12.07993, "lng": -75.24523, "population": 4019}, {"name": "Santa Rita de Siguas", "lat": -16.49555, "lng": -72.08667, "population": 4014}, {"name": "Independencia", "lat": -11.99, "lng": -77.04583, "population": 3987}, {"name": "Layo", "lat": -14.49361, "lng": -71.155, "population": 3978}, {"name": "Conchopata", "lat": -14.46968, "lng": -71.19843, "population": 3977}, {"name": "Langui", "lat": -14.43194, "lng": -71.27306, "population": 3969}, {"name": "Cahuanuyo", "lat": -14.34147, "lng": -71.46311, "population": 3935}, {"name": "Yanaoca", "lat": -14.21806, "lng": -71.43167, "population": 3913}, {"name": "Chignayhua", "lat": -14.2461, "lng": -71.44442, "population": 3912}, {"name": "Ccolo", "lat": -15.50611, "lng": -71.49184, "population": 3857}, {"name": "Pampamarca", "lat": -14.14639, "lng": -71.45944, "population": 3811}, {"name": "Checca", "lat": -14.47351, "lng": -71.39426, "population": 3810}, {"name": "Mosoc Llacta", "lat": -14.12, "lng": -71.47278, "population": 3802}, {"name": "Tungasuca", "lat": -14.16389, "lng": -71.47667, "population": 3791}, {"name": "Limoncarro", "lat": -7.3011, "lng": -79.4168, "population": 3758}, {"name": "Huangala", "lat": -4.84147, "lng": -80.59948, "population": 3739}, {"name": "Maranganí", "lat": -14.35672, "lng": -71.16924, "population": 3709}, {"name": "Sandia", "lat": -14.32141, "lng": -69.4654, "population": 3675}, {"name": "Puerto Rosario de Laberinto", "lat": -12.71732, "lng": -69.58694, "population": 3660}, {"name": "Cerro Verde", "lat": -16.45026, "lng": -71.61552, "population": 3602}, {"name": "San Alejandro", "lat": -8.82936, "lng": -75.21326, "population": 3594}, {"name": "Cullcuyre", "lat": -14.09272, "lng": -71.33119, "population": 3593}, {"name": "Jayobamba", "lat": -14.09425, "lng": -71.33922, "population": 3593}, {"name": "Mazuko", "lat": -13.10012, "lng": -70.36736, "population": 3586}, {"name": "Florida ( Pomacochas)", "lat": -5.82582, "lng": -77.96961, "population": 3570}, {"name": "Lima Pampa", "lat": -14.08976, "lng": -71.33664, "population": 3569}, {"name": "Ccuntuma", "lat": -14.1254, "lng": -71.41216, "population": 3511}, {"name": "Queromarca", "lat": -14.18391, "lng": -71.38343, "population": 3496}, {"name": "San Pablo", "lat": -14.20278, "lng": -71.31556, "population": 3486}, {"name": "Qquea", "lat": -14.18273, "lng": -71.35774, "population": 3482}, {"name": "Combapata", "lat": -14.10111, "lng": -71.42944, "population": 3472}, {"name": "Tinta", "lat": -14.145, "lng": -71.40694, "population": 3466}, {"name": "Checacupe", "lat": -14.02694, "lng": -71.45278, "population": 3440}, {"name": "Candarave", "lat": -17.26778, "lng": -70.24944, "population": 3415}, {"name": "Quilahuani", "lat": -17.31802, "lng": -70.25848, "population": 3176}, {"name": "Tarata", "lat": -17.47444, "lng": -70.03278, "population": 3052}, {"name": "Taquile", "lat": -15.76667, "lng": -69.68333, "population": 2000}, {"name": "Pisac", "lat": -13.4225, "lng": -71.84667, "population": 2000}, {"name": "Ollantaytambo", "lat": -13.25722, "lng": -72.26306, "population": 2000}, {"name": "Totorales", "lat": -17.40593, "lng": -70.36642, "population": 1976}, {"name": "San José", "lat": -8.33542, "lng": -74.59605, "population": 1939}, {"name": "Chipispaya", "lat": -17.49809, "lng": -70.21687, "population": 1932}, {"name": "San Juan de la Virgen", "lat": -3.62717, "lng": -80.43066, "population": 1559}, {"name": "San Juan", "lat": -8.32281, "lng": -74.60409, "population": 1528}, {"name": "Papaplaya", "lat": -6.20923, "lng": -75.78168, "population": 1276}, {"name": "San Francisco", "lat": -8.27571, "lng": -74.64114, "population": 1263}, {"name": "Ticlacayán", "lat": -10.53448, "lng": -76.16407, "population": 1212}, {"name": "Paracas", "lat": -13.86667, "lng": -76.26667, "population": 1196}, {"name": "San Pablo de Pillao", "lat": -9.78699, "lng": -75.99935, "population": 1182}, {"name": "Pinto Recodo", "lat": -6.37945, "lng": -76.60432, "population": 1116}, {"name": "San Juan de Iris", "lat": -11.68322, "lng": -76.52495, "population": 998}, {"name": "Locumba", "lat": -17.61317, "lng": -70.76266, "population": 993}, {"name": "Vilcabamba", "lat": -14.07783, "lng": -72.62508, "population": 991}, {"name": "Vilavila", "lat": -15.18849, "lng": -70.65982, "population": 990}, {"name": "Sondor", "lat": -5.31502, "lng": -79.41064, "population": 987}, {"name": "Challas", "lat": -8.43902, "lng": -77.3239, "population": 986}, {"name": "Suyo", "lat": -4.51367, "lng": -80.00173, "population": 985}, {"name": "San Pablo", "lat": -6.80814, "lng": -76.57314, "population": 979}, {"name": "Chavin de Pariarca", "lat": -9.42312, "lng": -76.77111, "population": 977}, {"name": "Sacsamarca", "lat": -13.9428, "lng": -74.3126, "population": 977}, {"name": "Cayna", "lat": -10.27233, "lng": -76.38863, "population": 976}, {"name": "Colasay", "lat": -5.97878, "lng": -79.06868, "population": 975}, {"name": "Yamango", "lat": -5.18114, "lng": -79.75055, "population": 973}, {"name": "Surco", "lat": -11.88401, "lng": -76.44002, "population": 969}, {"name": "Palca", "lat": -15.2368, "lng": -70.59779, "population": 969}, {"name": "Llama", "lat": -6.51465, "lng": -79.12008, "population": 968}, {"name": "Llusco", "lat": -14.33858, "lng": -72.11453, "population": 967}, {"name": "Comas", "lat": -11.71807, "lng": -75.0821, "population": 967}, {"name": "Ingenio", "lat": -11.89019, "lng": -75.26641, "population": 963}, {"name": "Huaquirca", "lat": -14.33987, "lng": -72.89456, "population": 962}, {"name": "Usquil", "lat": -7.81583, "lng": -78.41921, "population": 961}, {"name": "Poroy", "lat": -13.49712, "lng": -72.04254, "population": 961}, {"name": "Iñapari", "lat": -10.95465, "lng": -69.58162, "population": 959}, {"name": "Longar", "lat": -6.38511, "lng": -77.54636, "population": 957}, {"name": "San Luis de Shuaro", "lat": -10.8881, "lng": -75.28739, "population": 948}, {"name": "Livitaca", "lat": -14.31314, "lng": -71.68925, "population": 948}, {"name": "Chaca", "lat": -12.78441, "lng": -74.20589, "population": 947}, {"name": "Shilla", "lat": -9.23073, "lng": -77.62572, "population": 943}, {"name": "Chinchaypujio", "lat": -13.6295, "lng": -72.23298, "population": 943}, {"name": "Asunción", "lat": -7.32349, "lng": -78.51858, "population": 940}, {"name": "Ranrahirca", "lat": -9.17326, "lng": -77.72292, "population": 936}, {"name": "Huanca", "lat": -16.03287, "lng": -71.87794, "population": 929}, {"name": "Quequeña", "lat": -16.5574, "lng": -71.45132, "population": 924}, {"name": "Otoca", "lat": -14.49016, "lng": -74.6864, "population": 923}, {"name": "Carumas", "lat": -16.80928, "lng": -70.6948, "population": 923}, {"name": "Ledoy", "lat": -7.12934, "lng": -76.64908, "population": 922}, {"name": "Cayara", "lat": -13.79555, "lng": -73.99068, "population": 919}, {"name": "Yarusyacán", "lat": -10.49006, "lng": -76.19651, "population": 917}, {"name": "Puerto Ocopa", "lat": -11.14457, "lng": -74.30817, "population": 915}, {"name": "Pajarillo", "lat": -7.179, "lng": -76.68827, "population": 912}, {"name": "Puquina", "lat": -16.62416, "lng": -71.18436, "population": 910}, {"name": "Huanipaca", "lat": -13.49181, "lng": -72.93356, "population": 910}, {"name": "San Juan", "lat": -7.29176, "lng": -78.49761, "population": 908}, {"name": "Maca", "lat": -15.64127, "lng": -71.76856, "population": 908}, {"name": "Arapa", "lat": -15.13902, "lng": -70.10957, "population": 907}, {"name": "Tournavista", "lat": -8.92904, "lng": -74.7054, "population": 903}, {"name": "Parcoy", "lat": -8.03503, "lng": -77.48193, "population": 903}, {"name": "Querocotillo", "lat": -6.27356, "lng": -79.03816, "population": 901}, {"name": "Acostambo", "lat": -12.36525, "lng": -75.05479, "population": 901}, {"name": "Apongo", "lat": -14.01327, "lng": -73.93247, "population": 898}, {"name": "Cabanilla", "lat": -15.62028, "lng": -70.34583, "population": 895}, {"name": "Yanas", "lat": -9.71457, "lng": -76.74891, "population": 894}, {"name": "Sallique", "lat": -5.65701, "lng": -79.31591, "population": 894}, {"name": "San Pedro de Coris", "lat": -12.57869, "lng": -74.4105, "population": 894}, {"name": "Huachocolpa", "lat": -13.03179, "lng": -74.9471, "population": 892}, {"name": "Huacapampa", "lat": -6.9253, "lng": -78.13298, "population": 891}, {"name": "Asia", "lat": -12.7794, "lng": -76.55666, "population": 890}, {"name": "Huaccana", "lat": -13.38791, "lng": -73.69005, "population": 887}, {"name": "Challabamba", "lat": -13.21164, "lng": -71.6532, "population": 875}, {"name": "Calana", "lat": -17.94347, "lng": -70.18896, "population": 875}, {"name": "Ondores", "lat": -11.08369, "lng": -76.14705, "population": 872}, {"name": "Canchaque", "lat": -5.37601, "lng": -79.60983, "population": 871}, {"name": "Paucas", "lat": -9.15248, "lng": -76.89849, "population": 868}, {"name": "Sitabamba", "lat": -8.02331, "lng": -77.73155, "population": 867}, {"name": "Acopampa", "lat": -9.29442, "lng": -77.62574, "population": 865}, {"name": "Queropalca", "lat": -10.18191, "lng": -76.80332, "population": 863}, {"name": "Ccapi", "lat": -13.85321, "lng": -72.08215, "population": 862}, {"name": "Huántar", "lat": -9.45191, "lng": -77.17523, "population": 859}, {"name": "La Pampa", "lat": -8.66202, "lng": -77.9012, "population": 857}, {"name": "Kishuara", "lat": -13.69129, "lng": -73.11844, "population": 857}, {"name": "Quishuar", "lat": -12.24397, "lng": -74.77748, "population": 854}, {"name": "Julcan", "lat": -11.75956, "lng": -75.43564, "population": 845}, {"name": "Aija", "lat": -9.78099, "lng": -77.60973, "population": 843}, {"name": "Yauli", "lat": -11.71334, "lng": -75.47449, "population": 843}, {"name": "Chuquis", "lat": -9.67691, "lng": -76.70508, "population": 840}, {"name": "Ocros", "lat": -10.40348, "lng": -77.39679, "population": 840}, {"name": "Uco", "lat": -9.18831, "lng": -76.92848, "population": 833}, {"name": "Huacachi", "lat": -9.31641, "lng": -76.93577, "population": 829}, {"name": "Mazo Cruz", "lat": -16.74179, "lng": -69.71644, "population": 829}, {"name": "Pusi", "lat": -15.44173, "lng": -69.92932, "population": 828}, {"name": "Chongos Alto", "lat": -12.3113, "lng": -75.28902, "population": 828}, {"name": "Carhuacallanga", "lat": -12.35472, "lng": -75.20059, "population": 828}, {"name": "Sama Grande", "lat": -17.79102, "lng": -70.49952, "population": 826}, {"name": "Cabana", "lat": -15.64949, "lng": -70.32192, "population": 824}, {"name": "Ocuviri", "lat": -15.11373, "lng": -70.90912, "population": 823}, {"name": "Huata", "lat": -15.61514, "lng": -69.97149, "population": 823}, {"name": "Sapillica", "lat": -4.77872, "lng": -79.9822, "population": 821}, {"name": "Julcamarca", "lat": -13.01447, "lng": -74.44467, "population": 816}, {"name": "Aquia", "lat": -10.0745, "lng": -77.14475, "population": 809}, {"name": "Simbal", "lat": -7.97613, "lng": -78.81346, "population": 805}, {"name": "Cachora", "lat": -13.51227, "lng": -72.81296, "population": 805}, {"name": "Huancas", "lat": -6.17372, "lng": -77.8647, "population": 803}, {"name": "Conima", "lat": -15.45769, "lng": -69.4379, "population": 803}, {"name": "Yauyucán", "lat": -6.67714, "lng": -78.81866, "population": 802}, {"name": "Rapayan", "lat": -9.20549, "lng": -76.76138, "population": 801}, {"name": "Laramarca", "lat": -13.9485, "lng": -75.03538, "population": 796}, {"name": "Ahuaycha", "lat": -12.40738, "lng": -74.89145, "population": 794}, {"name": "Honoria", "lat": -8.76949, "lng": -74.70911, "population": 787}, {"name": "Huaribamba", "lat": -12.2795, "lng": -74.93822, "population": 787}, {"name": "Paucarbamba", "lat": -12.55441, "lng": -74.53152, "population": 786}, {"name": "Santa Elena", "lat": -6.02577, "lng": -74.09093, "population": 785}, {"name": "Masma", "lat": -11.78692, "lng": -75.42899, "population": 785}, {"name": "Caracoto", "lat": -15.5679, "lng": -70.10246, "population": 782}, {"name": "Buenos Aires", "lat": -6.79415, "lng": -76.32706, "population": 780}, {"name": "Las Pirias", "lat": -5.62725, "lng": -78.85257, "population": 778}, {"name": "Pólvora", "lat": -7.90764, "lng": -76.67063, "population": 776}, {"name": "Incuyo", "lat": -15.24935, "lng": -73.57051, "population": 776}, {"name": "Chalamarca", "lat": -6.50287, "lng": -78.4801, "population": 776}, {"name": "Pucayacu", "lat": -8.74962, "lng": -76.12131, "population": 776}, {"name": "Mosca", "lat": -10.34283, "lng": -76.29196, "population": 775}, {"name": "Ocobamba", "lat": -13.48267, "lng": -73.56029, "population": 772}, {"name": "Pilcuyo", "lat": -16.11043, "lng": -69.55424, "population": 769}, {"name": "Paca", "lat": -11.70891, "lng": -75.51833, "population": 769}, {"name": "Zapatero", "lat": -6.531, "lng": -76.49134, "population": 766}, {"name": "Lachaqui", "lat": -11.5529, "lng": -76.62718, "population": 766}, {"name": "Sayapullo", "lat": -7.59646, "lng": -78.46816, "population": 764}, {"name": "Matará", "lat": -7.25476, "lng": -78.25983, "population": 763}, {"name": "Cocachacra", "lat": -11.91088, "lng": -76.5404, "population": 763}, {"name": "Mariscal Cáceres", "lat": -12.53413, "lng": -74.93335, "population": 760}, {"name": "Acos", "lat": -13.95064, "lng": -71.73857, "population": 759}, {"name": "Socos", "lat": -13.21454, "lng": -74.28924, "population": 758}, {"name": "Molinos", "lat": -11.73759, "lng": -75.44571, "population": 754}, {"name": "Huachos", "lat": -13.21995, "lng": -75.53364, "population": 754}, {"name": "Poroto", "lat": -8.01137, "lng": -78.76788, "population": 753}, {"name": "Huanuara", "lat": -17.31362, "lng": -70.32221, "population": 750}, {"name": "Tuti", "lat": -15.53283, "lng": -71.54984, "population": 747}, {"name": "Canchayllo", "lat": -11.80191, "lng": -75.71777, "population": 746}, {"name": "El Cardo", "lat": -16.60315, "lng": -72.72736, "population": 744}, {"name": "Ticaco", "lat": -17.44828, "lng": -70.0466, "population": 741}, {"name": "Tintay", "lat": -13.95964, "lng": -73.18518, "population": 740}, {"name": "Turpo", "lat": -13.78561, "lng": -73.47388, "population": 739}, {"name": "Yuyapichis", "lat": -9.62789, "lng": -74.97459, "population": 739}, {"name": "Sabaino", "lat": -14.31279, "lng": -72.94515, "population": 737}, {"name": "Vischongo", "lat": -13.5891, "lng": -73.99503, "population": 736}, {"name": "Ricrán", "lat": -11.54263, "lng": -75.52339, "population": 735}, {"name": "Huachis", "lat": -9.40989, "lng": -77.10042, "population": 734}, {"name": "Aricapampa", "lat": -7.80609, "lng": -77.72023, "population": 734}, {"name": "Paccaritambo", "lat": -13.75594, "lng": -71.95639, "population": 734}, {"name": "Llapa", "lat": -6.98027, "lng": -78.80736, "population": 732}, {"name": "Huabal", "lat": -5.61284, "lng": -78.89958, "population": 732}, {"name": "Vilque", "lat": -15.76667, "lng": -70.25859, "population": 731}, {"name": "Amashca", "lat": -9.23943, "lng": -77.64649, "population": 730}, {"name": "Maranura", "lat": -12.96371, "lng": -72.66428, "population": 730}, {"name": "Umamarca", "lat": -14.05302, "lng": -73.56603, "population": 730}, {"name": "Santa Ana de Huaycahuacho", "lat": -14.22671, "lng": -73.95684, "population": 730}, {"name": "Chingas", "lat": -9.11904, "lng": -76.99153, "population": 729}, {"name": "Chimbán", "lat": -6.25181, "lng": -78.47754, "population": 727}, {"name": "Chojata", "lat": -16.38873, "lng": -70.72938, "population": 727}, {"name": "Quiñota", "lat": -14.31154, "lng": -72.13903, "population": 726}, {"name": "Pachaconas", "lat": -14.22334, "lng": -73.01635, "population": 723}, {"name": "Llacllin", "lat": -10.0689, "lng": -77.6215, "population": 723}, {"name": "Catache", "lat": -6.67421, "lng": -79.03257, "population": 717}, {"name": "Colca", "lat": -13.71264, "lng": -74.03439, "population": 714}, {"name": "Sorochuco", "lat": -6.91169, "lng": -78.25513, "population": 713}, {"name": "San Juan", "lat": -14.66019, "lng": -74.2022, "population": 712}, {"name": "Mayocc", "lat": -12.80558, "lng": -74.38994, "population": 711}, {"name": "Ichupampa", "lat": -15.64979, "lng": -71.68692, "population": 710}, {"name": "Salpo", "lat": -8.00547, "lng": -78.60649, "population": 709}, {"name": "Rondos", "lat": -9.98395, "lng": -76.68904, "population": 709}, {"name": "Huandoval", "lat": -8.33094, "lng": -77.97493, "population": 709}, {"name": "Mache", "lat": -8.03008, "lng": -78.53501, "population": 708}, {"name": "Progreso", "lat": -14.07223, "lng": -72.47652, "population": 708}, {"name": "Pancan", "lat": -11.7488, "lng": -75.48633, "population": 704}, {"name": "Paucar", "lat": -10.37037, "lng": -76.44503, "population": 702}, {"name": "Iscos", "lat": -12.09832, "lng": -75.29333, "population": 695}, {"name": "Magdalena", "lat": -6.37269, "lng": -77.90181, "population": 694}, {"name": "Moya", "lat": -12.42306, "lng": -75.154, "population": 693}, {"name": "Chaccrampa", "lat": -13.96111, "lng": -73.60801, "population": 693}, {"name": "Tirapata", "lat": -14.95474, "lng": -70.40323, "population": 691}, {"name": "Pomacocha", "lat": -14.08398, "lng": -73.591, "population": 691}, {"name": "Huasicancha", "lat": -12.33186, "lng": -75.28217, "population": 691}, {"name": "Pampachiri", "lat": -14.18708, "lng": -73.54452, "population": 690}, {"name": "Madrigal", "lat": -15.60804, "lng": -71.80793, "population": 690}, {"name": "Yupán", "lat": -8.61473, "lng": -77.9687, "population": 689}, {"name": "Chamaca", "lat": -14.3024, "lng": -71.85268, "population": 689}, {"name": "Chambara", "lat": -12.02789, "lng": -75.37444, "population": 688}, {"name": "Mejía", "lat": -17.10176, "lng": -71.9057, "population": 683}, {"name": "Cuchumbaya", "lat": -16.751, "lng": -70.68593, "population": 683}, {"name": "Huasta", "lat": -10.12361, "lng": -77.14642, "population": 681}, {"name": "Huertas", "lat": -11.7602, "lng": -75.4694, "population": 681}, {"name": "Marcas", "lat": -12.88948, "lng": -74.39951, "population": 680}, {"name": "Huambo", "lat": -6.42896, "lng": -77.53789, "population": 680}, {"name": "Llapo", "lat": -8.51444, "lng": -78.04207, "population": 679}, {"name": "Huayllapampa", "lat": -10.05525, "lng": -77.53523, "population": 679}, {"name": "Puyca", "lat": -15.05927, "lng": -72.69152, "population": 676}, {"name": "Tingo de Saposoa", "lat": -7.09385, "lng": -76.6417, "population": 675}, {"name": "Congalla", "lat": -12.95642, "lng": -74.49278, "population": 675}, {"name": "Pilpichaca", "lat": -13.33019, "lng": -74.97699, "population": 673}, {"name": "Vinchos", "lat": -13.24193, "lng": -74.35433, "population": 669}, {"name": "San Cristobal de Jacas Chico", "lat": -9.88619, "lng": -76.50318, "population": 667}, {"name": "Cospán", "lat": -7.42703, "lng": -78.54233, "population": 665}, {"name": "Paccha", "lat": -11.85446, "lng": -75.5073, "population": 665}, {"name": "Mamara", "lat": -14.22906, "lng": -72.59041, "population": 663}, {"name": "Quilcata", "lat": -15.24585, "lng": -73.45141, "population": 662}, {"name": "Humay", "lat": -13.72253, "lng": -75.8866, "population": 662}, {"name": "Canis", "lat": -10.3383, "lng": -77.17112, "population": 662}, {"name": "Yambrasbamba", "lat": -5.73581, "lng": -77.92487, "population": 661}, {"name": "Quichuas", "lat": -12.46944, "lng": -74.77148, "population": 661}, {"name": "Mirgas", "lat": -9.07921, "lng": -77.09339, "population": 654}, {"name": "La Morada", "lat": -8.79141, "lng": -76.24949, "population": 653}, {"name": "Lucma", "lat": -7.64064, "lng": -78.55134, "population": 652}, {"name": "Callanmarca", "lat": -12.86689, "lng": -74.62305, "population": 652}, {"name": "Calango", "lat": -12.52618, "lng": -76.54413, "population": 651}, {"name": "Lambrama", "lat": -13.87062, "lng": -72.76981, "population": 650}, {"name": "Llacanora", "lat": -7.19362, "lng": -78.42674, "population": 648}, {"name": "Yanaca", "lat": -14.22574, "lng": -73.16012, "population": 648}, {"name": "Santa Barbara de Carhuacayan", "lat": -11.20418, "lng": -76.28555, "population": 647}, {"name": "La Merced", "lat": -12.78824, "lng": -74.359, "population": 647}, {"name": "Incahuasi", "lat": -6.23725, "lng": -79.31524, "population": 644}, {"name": "Llocllapampa", "lat": -11.81725, "lng": -75.62424, "population": 643}, {"name": "Accomarca", "lat": -13.80091, "lng": -73.9041, "population": 639}, {"name": "Niepos", "lat": -6.92747, "lng": -79.12898, "population": 638}, {"name": "Paras", "lat": -13.55224, "lng": -74.62753, "population": 638}, {"name": "Cauday", "lat": -7.574, "lng": -78.07002, "population": 637}, {"name": "Cajacay", "lat": -10.15546, "lng": -77.4397, "population": 636}, {"name": "Marca", "lat": -10.08799, "lng": -77.47497, "population": 635}, {"name": "Umachiri", "lat": -14.85347, "lng": -70.75351, "population": 634}, {"name": "Caraybamba", "lat": -14.37833, "lng": -73.16074, "population": 630}, {"name": "Huancaya", "lat": -12.20335, "lng": -75.79928, "population": 629}, {"name": "Collonce", "lat": -6.28252, "lng": -78.21092, "population": 628}, {"name": "Quiches", "lat": -8.39506, "lng": -77.49075, "population": 627}, {"name": "Llipa", "lat": -10.38107, "lng": -77.20672, "population": 627}, {"name": "Sucre", "lat": -8.96167, "lng": -77.84275, "population": 626}, {"name": "Shirac", "lat": -7.34924, "lng": -78.04782, "population": 626}, {"name": "San José de Secce", "lat": -12.76573, "lng": -74.25303, "population": 625}, {"name": "Capacmarca", "lat": -14.008, "lng": -72.00084, "population": 624}, {"name": "Chuquibamba", "lat": -6.9347, "lng": -77.85472, "population": 623}, {"name": "Oyolo", "lat": -15.17914, "lng": -73.18506, "population": 622}, {"name": "Andajes", "lat": -10.79254, "lng": -76.90888, "population": 621}, {"name": "Montevideo", "lat": -6.61825, "lng": -77.82315, "population": 619}, {"name": "Santa Maria de Chicmo", "lat": -13.65718, "lng": -73.4946, "population": 618}, {"name": "Ichocán", "lat": -7.36837, "lng": -78.13042, "population": 616}, {"name": "Paucarcolla", "lat": -15.74497, "lng": -70.05598, "population": 616}, {"name": "Anta", "lat": -9.35698, "lng": -77.59796, "population": 614}, {"name": "Ticllos", "lat": -10.25237, "lng": -77.19115, "population": 612}, {"name": "Congas", "lat": -10.33615, "lng": -77.44195, "population": 607}, {"name": "Omia", "lat": -6.46778, "lng": -77.39608, "population": 604}, {"name": "Cairani", "lat": -17.2857, "lng": -70.36329, "population": 604}, {"name": "Turpay", "lat": -14.22794, "lng": -72.62227, "population": 603}, {"name": "Sartimbamba", "lat": -7.69954, "lng": -77.74131, "population": 600}, {"name": "Huaylillas", "lat": -8.18679, "lng": -77.34485, "population": 598}, {"name": "Corpanqui", "lat": -10.28515, "lng": -77.19904, "population": 597}, {"name": "Quillo", "lat": -9.3289, "lng": -78.04198, "population": 596}, {"name": "Yungar", "lat": -9.37782, "lng": -77.59224, "population": 595}, {"name": "Huamantanga", "lat": -11.49984, "lng": -76.749, "population": 595}, {"name": "San Juan de Chacña", "lat": -13.92399, "lng": -73.18186, "population": 593}, {"name": "La Florida", "lat": -6.86901, "lng": -79.12253, "population": 592}, {"name": "Ocros", "lat": -13.39095, "lng": -73.91535, "population": 592}, {"name": "San Agustin de Huayopampa", "lat": -11.35322, "lng": -76.82398, "population": 590}, {"name": "Cochabamba", "lat": -9.09496, "lng": -76.83658, "population": 588}, {"name": "Pillpinto", "lat": -13.95328, "lng": -71.762, "population": 587}, {"name": "Yanacancha", "lat": -12.20105, "lng": -75.38647, "population": 586}, {"name": "Las Yaras", "lat": -17.8642, "lng": -70.56117, "population": 585}, {"name": "San Juan de Huirpacancha", "lat": -13.95641, "lng": -75.23868, "population": 583}, {"name": "Huayllahuara", "lat": -12.40947, "lng": -75.17827, "population": 581}, {"name": "Agallpampa", "lat": -7.9855, "lng": -78.54827, "population": 580}, {"name": "Izcuchaca", "lat": -12.50064, "lng": -74.99718, "population": 580}, {"name": "San Pedro de Chonta", "lat": -8.65615, "lng": -76.87502, "population": 577}, {"name": "Huaylas", "lat": -8.87226, "lng": -77.89297, "population": 576}, {"name": "Huancaraylla", "lat": -13.71865, "lng": -74.10207, "population": 573}, {"name": "Ocaña", "lat": -14.3986, "lng": -74.82275, "population": 572}, {"name": "Bolívar", "lat": -6.97681, "lng": -79.17801, "population": 571}, {"name": "Shunqui", "lat": -9.73137, "lng": -76.78345, "population": 570}, {"name": "Tunal", "lat": -5.21282, "lng": -79.67861, "population": 568}, {"name": "Yangas", "lat": -11.69509, "lng": -76.84686, "population": 568}, {"name": "Pullo", "lat": -15.21029, "lng": -73.82664, "population": 567}, {"name": "Chiara", "lat": -13.86724, "lng": -73.66896, "population": 566}, {"name": "Pantoja", "lat": -0.96435, "lng": -75.18144, "population": 564}, {"name": "Chachas", "lat": -15.50137, "lng": -72.27014, "population": 563}, {"name": "Tinco", "lat": -9.27071, "lng": -77.67783, "population": 560}, {"name": "Mollebamba", "lat": -14.42859, "lng": -72.91463, "population": 560}, {"name": "Carapo", "lat": -13.83719, "lng": -74.31547, "population": 560}, {"name": "Cullhuas", "lat": -12.22282, "lng": -75.17179, "population": 559}, {"name": "Colquepata", "lat": -13.35955, "lng": -71.67331, "population": 559}, {"name": "San Pedro de Chunan", "lat": -11.72617, "lng": -75.48609, "population": 558}, {"name": "Yanama", "lat": -9.02094, "lng": -77.47102, "population": 556}, {"name": "Santo Tomás de Pata", "lat": -13.11299, "lng": -74.41884, "population": 556}, {"name": "Antaparco", "lat": -13.07643, "lng": -74.4115, "population": 555}, {"name": "Urpay", "lat": -8.34792, "lng": -77.39183, "population": 555}, {"name": "Yanaquihua", "lat": -15.77511, "lng": -72.87583, "population": 554}, {"name": "Platería", "lat": -15.94858, "lng": -69.83321, "population": 554}, {"name": "San Pedro de Larcay", "lat": -14.16885, "lng": -73.57294, "population": 553}, {"name": "Chungui", "lat": -13.222, "lng": -73.6214, "population": 551}, {"name": "Toraya", "lat": -14.05308, "lng": -73.29464, "population": 550}, {"name": "Sañayca", "lat": -14.20467, "lng": -73.34717, "population": 550}, {"name": "Huantán", "lat": -12.45669, "lng": -75.81208, "population": 549}, {"name": "Langa", "lat": -12.12579, "lng": -76.4211, "population": 548}, {"name": "Salamanca", "lat": -15.50475, "lng": -72.83421, "population": 547}, {"name": "San Benito", "lat": -7.42499, "lng": -78.92733, "population": 546}, {"name": "Pampamarca", "lat": -9.7054, "lng": -76.70271, "population": 544}, {"name": "Parobamba", "lat": -8.69586, "lng": -77.42999, "population": 543}, {"name": "Acocro", "lat": -13.21912, "lng": -74.04198, "population": 543}, {"name": "Huayana", "lat": -14.05071, "lng": -73.60933, "population": 539}, {"name": "Cotaruse", "lat": -14.41578, "lng": -73.20516, "population": 539}, {"name": "Chalán", "lat": -6.64995, "lng": -78.2321, "population": 538}, {"name": "Suitucancha", "lat": -11.78735, "lng": -75.93673, "population": 538}, {"name": "Ccatca", "lat": -13.60507, "lng": -71.5636, "population": 538}, {"name": "Capachica", "lat": -15.6419, "lng": -69.83076, "population": 537}, {"name": "Ayrihuanca", "lat": -14.11522, "lng": -72.6144, "population": 537}, {"name": "Soplín Vargas", "lat": -0.37293, "lng": -74.67558, "population": 537}, {"name": "La Grama", "lat": -7.46442, "lng": -78.12946, "population": 535}, {"name": "Parco", "lat": -11.80113, "lng": -75.54304, "population": 535}, {"name": "Santiago de Tuna", "lat": -11.98353, "lng": -76.52535, "population": 533}, {"name": "Colcabamba", "lat": -14.00594, "lng": -73.25451, "population": 532}, {"name": "Canchabamba", "lat": -8.88485, "lng": -77.1233, "population": 532}, {"name": "Laraos", "lat": -12.34793, "lng": -75.78671, "population": 530}, {"name": "Huambo", "lat": -15.73045, "lng": -72.1081, "population": 530}, {"name": "Chiquintirca", "lat": -13.06047, "lng": -73.70681, "population": 530}, {"name": "Cocharcas", "lat": -13.61103, "lng": -73.73917, "population": 529}, {"name": "Sibayo", "lat": -15.48657, "lng": -71.45738, "population": 527}, {"name": "Cayrán", "lat": -9.98074, "lng": -76.28404, "population": 527}, {"name": "Sancos", "lat": -15.06256, "lng": -73.95193, "population": 526}, {"name": "Callayuc", "lat": -6.18099, "lng": -78.91022, "population": 525}, {"name": "Quinistaquillas", "lat": -16.74877, "lng": -70.87957, "population": 524}, {"name": "Lares", "lat": -13.10441, "lng": -72.04394, "population": 522}, {"name": "Pacapausa", "lat": -14.94924, "lng": -73.36805, "population": 520}, {"name": "Huamanquiquia", "lat": -13.72849, "lng": -74.27313, "population": 518}, {"name": "San Pedro", "lat": -14.76713, "lng": -74.09764, "population": 517}, {"name": "Anta", "lat": -12.81216, "lng": -74.63851, "population": 517}, {"name": "Huayllati", "lat": -13.92862, "lng": -72.48496, "population": 515}, {"name": "Vilque Chico", "lat": -15.21462, "lng": -69.68855, "population": 511}, {"name": "Morcolla", "lat": -14.1087, "lng": -73.87226, "population": 511}, {"name": "Pira", "lat": -9.58165, "lng": -77.70769, "population": 510}, {"name": "Mariposa", "lat": -11.40571, "lng": -74.75198, "population": 510}, {"name": "Santiago de Chocorvos", "lat": -13.82533, "lng": -75.25773, "population": 507}, {"name": "Acos", "lat": -11.27406, "lng": -76.82061, "population": 507}, {"name": "Belén", "lat": -13.80885, "lng": -73.75778, "population": 506}, {"name": "Querco", "lat": -13.98039, "lng": -74.9765, "population": 505}, {"name": "Sillapata", "lat": -9.75831, "lng": -76.7744, "population": 504}, {"name": "Vitis", "lat": -12.22394, "lng": -75.80804, "population": 503}, {"name": "Chavín", "lat": -13.07725, "lng": -75.9132, "population": 502}, {"name": "Gorgorillo", "lat": -10.33541, "lng": -77.12563, "population": 500}, {"name": "Carhuanca", "lat": -13.74241, "lng": -73.78752, "population": 500}, {"name": "Olto", "lat": -6.1025, "lng": -77.95944, "population": 498}, {"name": "Navarro", "lat": -6.33333, "lng": -75.75, "population": 498}, {"name": "Ubinas", "lat": -16.4, "lng": -70.86667, "population": 498}, {"name": "Laria", "lat": -12.56122, "lng": -75.03687, "population": 496}, {"name": "Cusca", "lat": -8.51313, "lng": -77.86471, "population": 494}, {"name": "Yaurisque", "lat": -13.66134, "lng": -71.92267, "population": 492}, {"name": "Aurahuá", "lat": -13.03459, "lng": -75.57025, "population": 492}, {"name": "Copa", "lat": -10.37181, "lng": -77.48744, "population": 491}, {"name": "Pirca", "lat": -11.23444, "lng": -76.65556, "population": 489}, {"name": "Taray", "lat": -13.4275, "lng": -71.8675, "population": 489}, {"name": "Cochas", "lat": -11.65992, "lng": -75.10217, "population": 488}, {"name": "Sapalache", "lat": -5.15111, "lng": -79.43472, "population": 487}, {"name": "Llaclla", "lat": -10.29928, "lng": -77.14629, "population": 487}, {"name": "Pilluana", "lat": -6.7775, "lng": -76.29056, "population": 486}, {"name": "Levanto", "lat": -6.30833, "lng": -77.89861, "population": 485}, {"name": "Huacchis", "lat": -9.20033, "lng": -76.7878, "population": 485}, {"name": "Copa", "lat": -10.38821, "lng": -77.07956, "population": 481}, {"name": "Alca", "lat": -15.13472, "lng": -72.76472, "population": 481}, {"name": "Rosaspata", "lat": -15.23443, "lng": -69.52738, "population": 478}, {"name": "Jacas Grande", "lat": -9.53965, "lng": -76.73639, "population": 478}, {"name": "Maino", "lat": -6.33667, "lng": -77.88, "population": 473}, {"name": "Paico", "lat": -14.03831, "lng": -73.6421, "population": 472}, {"name": "Pión", "lat": -6.16222, "lng": -78.48278, "population": 471}, {"name": "Alianza Cristiana", "lat": -3.47528, "lng": -76.43444, "population": 471}, {"name": "Cochabamba", "lat": -9.49361, "lng": -77.85944, "population": 470}, {"name": "Bolognesi", "lat": -8.35052, "lng": -78.05023, "population": 470}, {"name": "Agua Blanca", "lat": -7.04626, "lng": -79.06061, "population": 466}, {"name": "Pacaycasa", "lat": -13.05694, "lng": -74.21361, "population": 466}, {"name": "Macachacra", "lat": -12.98333, "lng": -74.2, "population": 466}, {"name": "Lloque", "lat": -16.33333, "lng": -70.73333, "population": 466}, {"name": "Aczo", "lat": -9.15193, "lng": -76.98925, "population": 464}, {"name": "Chiguata", "lat": -16.40247, "lng": -71.39203, "population": 464}, {"name": "Ambar", "lat": -10.73333, "lng": -77.26667, "population": 462}, {"name": "Coata", "lat": -15.57057, "lng": -69.94922, "population": 460}, {"name": "Cayarani", "lat": -14.67222, "lng": -72.02194, "population": 457}, {"name": "Patambuco", "lat": -14.35972, "lng": -69.61889, "population": 455}, {"name": "Mangas", "lat": -10.36916, "lng": -77.10345, "population": 454}, {"name": "Coris", "lat": -9.83333, "lng": -77.75, "population": 453}, {"name": "Sitajara", "lat": -17.3756, "lng": -70.13383, "population": 451}, {"name": "Oxamarca", "lat": -7.04193, "lng": -78.06803, "population": 449}, {"name": "Tanta", "lat": -12.12239, "lng": -76.01355, "population": 449}, {"name": "Raján", "lat": -10.38687, "lng": -77.21914, "population": 449}, {"name": "Acas", "lat": -10.45778, "lng": -77.32729, "population": 449}, {"name": "Marcabal", "lat": -7.7, "lng": -78.03333, "population": 447}, {"name": "Tabaconas", "lat": -5.31472, "lng": -79.28278, "population": 443}, {"name": "Utcurarca", "lat": -6.66306, "lng": -76.28667, "population": 443}, {"name": "Sumbilca", "lat": -11.4075, "lng": -76.82, "population": 442}, {"name": "Marcabamba", "lat": -15.15056, "lng": -73.34194, "population": 442}, {"name": "Chinchihuasi", "lat": -12.51859, "lng": -74.54574, "population": 438}, {"name": "Pomabamba", "lat": -13.60444, "lng": -74.23528, "population": 437}, {"name": "Nicasio", "lat": -15.2356, "lng": -70.26094, "population": 433}, {"name": "Huambalpa", "lat": -13.74972, "lng": -73.93111, "population": 433}, {"name": "Santa Cruz de Andamarca", "lat": -11.19498, "lng": -76.63402, "population": 430}, {"name": "Huayán", "lat": -9.87507, "lng": -77.70815, "population": 428}, {"name": "El Ingenio", "lat": -14.64528, "lng": -75.05833, "population": 427}, {"name": "Andarapa", "lat": -13.52611, "lng": -73.36611, "population": 427}, {"name": "Mollebaya", "lat": -16.48752, "lng": -71.46664, "population": 426}, {"name": "Ihuari", "lat": -11.18917, "lng": -76.95139, "population": 426}, {"name": "Chadín", "lat": -6.47132, "lng": -78.41924, "population": 424}, {"name": "Cochamarca", "lat": -10.86249, "lng": -77.12903, "population": 424}, {"name": "Curpahuasi", "lat": -14.06355, "lng": -72.6703, "population": 424}, {"name": "Palpacachi", "lat": -13.87214, "lng": -72.50836, "population": 423}, {"name": "Santa Catalina", "lat": -6.11167, "lng": -78.06139, "population": 423}, {"name": "Cuenca", "lat": -12.43317, "lng": -75.03866, "population": 422}, {"name": "Cajamarquilla", "lat": -10.35378, "lng": -77.19889, "population": 421}, {"name": "Tingo de Ponasa", "lat": -6.93237, "lng": -76.25212, "population": 421}, {"name": "Susapaya", "lat": -17.35386, "lng": -70.13285, "population": 420}, {"name": "Potoni", "lat": -14.39017, "lng": -70.10529, "population": 420}, {"name": "San Buenaventura", "lat": -8.76732, "lng": -77.18608, "population": 420}, {"name": "Conchán", "lat": -6.44431, "lng": -78.65594, "population": 419}, {"name": "Aco", "lat": -10.49718, "lng": -77.24149, "population": 418}, {"name": "Querocoto", "lat": -6.35931, "lng": -79.03453, "population": 417}, {"name": "Tarucachi", "lat": -17.52575, "lng": -70.03156, "population": 416}, {"name": "Anra", "lat": -9.23486, "lng": -76.92633, "population": 416}, {"name": "Pilchaca", "lat": -12.40118, "lng": -75.08383, "population": 413}, {"name": "Pampas", "lat": -9.66667, "lng": -77.83333, "population": 412}, {"name": "Caujul", "lat": -10.80528, "lng": -76.97889, "population": 412}, {"name": "Pamparomas", "lat": -9.07276, "lng": -77.98158, "population": 411}, {"name": "Inguilpata", "lat": -6.24083, "lng": -77.95722, "population": 410}, {"name": "Huancaray", "lat": -13.75861, "lng": -73.5275, "population": 409}, {"name": "Pomacocha", "lat": -12.87413, "lng": -74.53162, "population": 408}, {"name": "Samán", "lat": -15.29153, "lng": -70.01714, "population": 407}, {"name": "Tantara", "lat": -13.07391, "lng": -75.64474, "population": 406}, {"name": "Chetilla", "lat": -7.14701, "lng": -78.67271, "population": 405}, {"name": "Jivia", "lat": -10.02389, "lng": -76.67917, "population": 405}, {"name": "Pacaraos", "lat": -11.18611, "lng": -76.6475, "population": 404}, {"name": "Chiguirip", "lat": -6.42821, "lng": -78.7213, "population": 403}, {"name": "Estique Pampa", "lat": -17.53845, "lng": -70.03249, "population": 402}, {"name": "Huallanca", "lat": -8.81832, "lng": -77.86188, "population": 400}, {"name": "Huanchay", "lat": -9.73333, "lng": -77.83333, "population": 398}, {"name": "Omacha", "lat": -14.07139, "lng": -71.73972, "population": 398}, {"name": "Lucma", "lat": -13.05269, "lng": -72.93705, "population": 395}, {"name": "Huacaña", "lat": -14.17361, "lng": -73.88639, "population": 395}, {"name": "Cotaparaco", "lat": -9.99396, "lng": -77.58771, "population": 395}, {"name": "Andamarca", "lat": -11.72832, "lng": -74.80217, "population": 395}, {"name": "Arancay", "lat": -9.17227, "lng": -76.74895, "population": 394}, {"name": "Paccho", "lat": -10.95722, "lng": -76.93222, "population": 393}, {"name": "Tate de La Capilla", "lat": -14.1529, "lng": -75.71793, "population": 392}, {"name": "Vilcanchos", "lat": -13.61167, "lng": -74.53194, "population": 388}, {"name": "Milpuc", "lat": -6.49361, "lng": -77.435, "population": 386}, {"name": "Catahuasi", "lat": -12.79889, "lng": -75.89194, "population": 386}, {"name": "Puerto Casma", "lat": -9.46129, "lng": -78.38328, "population": 384}, {"name": "San José de Quero", "lat": -12.08544, "lng": -75.53626, "population": 383}, {"name": "Lahuaytambo", "lat": -12.1, "lng": -76.4, "population": 383}, {"name": "San Felipe", "lat": -5.77044, "lng": -79.31372, "population": 382}, {"name": "Santa Rosa", "lat": -8.52669, "lng": -78.06849, "population": 380}, {"name": "Pachía", "lat": -17.89694, "lng": -70.15477, "population": 380}, {"name": "Córdova", "lat": -14.03972, "lng": -75.1843, "population": 379}, {"name": "Lacabamba", "lat": -8.26042, "lng": -77.89823, "population": 378}, {"name": "Cheto", "lat": -6.25639, "lng": -77.70028, "population": 378}, {"name": "Salcahuasi", "lat": -12.10378, "lng": -74.75161, "population": 377}, {"name": "Chacapalpa", "lat": -11.73315, "lng": -75.75573, "population": 376}, {"name": "Carac", "lat": -11.19194, "lng": -76.78028, "population": 375}, {"name": "Calapuja", "lat": -15.31011, "lng": -70.22174, "population": 375}, {"name": "Pacobamba", "lat": -13.61639, "lng": -73.08611, "population": 373}, {"name": "Succha", "lat": -9.82327, "lng": -77.65007, "population": 372}, {"name": "Hongos", "lat": -12.81139, "lng": -75.765, "population": 371}, {"name": "Machaguay", "lat": -15.64861, "lng": -72.50583, "population": 370}, {"name": "Quiaca", "lat": -14.4223, "lng": -69.34498, "population": 369}, {"name": "Choros", "lat": -5.9003, "lng": -78.69377, "population": 367}, {"name": "Charcana", "lat": -15.24056, "lng": -73.07111, "population": 367}, {"name": "Pararín", "lat": -10.05015, "lng": -77.65403, "population": 366}, {"name": "Paclas", "lat": -6.06222, "lng": -77.97667, "population": 365}, {"name": "Concepción", "lat": -13.53277, "lng": -73.87488, "population": 365}, {"name": "Coalaque", "lat": -16.65056, "lng": -71.02139, "population": 365}, {"name": "Mucllo", "lat": -11.61926, "lng": -75.08968, "population": 365}, {"name": "Cuispes", "lat": -5.91667, "lng": -77.93333, "population": 364}, {"name": "Calamarca", "lat": -8.17002, "lng": -78.41154, "population": 364}, {"name": "Toro", "lat": -15.26417, "lng": -72.92889, "population": 364}, {"name": "Sina", "lat": -14.49659, "lng": -69.2799, "population": 363}, {"name": "Coayllo", "lat": -12.73333, "lng": -76.46667, "population": 363}, {"name": "Malvas", "lat": -9.92959, "lng": -77.65794, "population": 362}, {"name": "Naván", "lat": -10.8393, "lng": -77.01107, "population": 362}, {"name": "Manta", "lat": -12.6203, "lng": -75.21105, "population": 362}, {"name": "Iquipi", "lat": -15.94009, "lng": -73.13086, "population": 362}, {"name": "Colpas", "lat": -10.26889, "lng": -76.41417, "population": 361}, {"name": "Colcabamba", "lat": -9.59472, "lng": -77.80894, "population": 359}, {"name": "Tomas", "lat": -12.23861, "lng": -75.74528, "population": 358}, {"name": "Marcapomacocha", "lat": -11.40692, "lng": -76.33628, "population": 358}, {"name": "Conchamarca", "lat": -10.03778, "lng": -76.21528, "population": 358}, {"name": "Tomepampa", "lat": -15.17306, "lng": -72.83083, "population": 357}, {"name": "Arahuay", "lat": -11.62222, "lng": -76.66944, "population": 356}, {"name": "Cachachi", "lat": -7.44877, "lng": -78.26873, "population": 355}, {"name": "San Salvador de Quije", "lat": -13.96843, "lng": -73.73458, "population": 355}, {"name": "Huancano", "lat": -13.6, "lng": -75.61667, "population": 355}, {"name": "Masma Chicche", "lat": -11.78597, "lng": -75.38173, "population": 354}, {"name": "Lampa", "lat": -15.18444, "lng": -73.34889, "population": 353}, {"name": "Achanizo", "lat": -15.80509, "lng": -73.96673, "population": 352}, {"name": "Jilili", "lat": -4.5827, "lng": -79.79713, "population": 351}, {"name": "Cañaveral", "lat": -3.94167, "lng": -80.65083, "population": 351}, {"name": "Andaray", "lat": -15.79667, "lng": -72.86056, "population": 351}, {"name": "Santiago de Chilcas", "lat": -10.43861, "lng": -77.36587, "population": 350}, {"name": "Matalaque", "lat": -16.4818, "lng": -70.82607, "population": 349}, {"name": "Lonya Chico", "lat": -6.22938, "lng": -77.95501, "population": 345}, {"name": "Monobamba", "lat": -11.36078, "lng": -75.32664, "population": 344}, {"name": "Matapalo", "lat": -3.68234, "lng": -80.19948, "population": 343}, {"name": "Chapimarca", "lat": -13.97484, "lng": -73.065, "population": 343}, {"name": "Ayahuay", "lat": -14.20904, "lng": -73.05858, "population": 342}, {"name": "Huaros", "lat": -11.40661, "lng": -76.57546, "population": 341}, {"name": "Cajamarquilla", "lat": -9.63293, "lng": -77.74154, "population": 340}, {"name": "Corani", "lat": -13.86871, "lng": -70.60418, "population": 340}, {"name": "Anguía", "lat": -6.34234, "lng": -78.60506, "population": 339}, {"name": "Tambo Quemado", "lat": -14.72803, "lng": -74.67015, "population": 338}, {"name": "Ayrampuni", "lat": -15.06319, "lng": -69.88121, "population": 338}, {"name": "Llipata", "lat": -14.56328, "lng": -75.20746, "population": 336}, {"name": "Caicay", "lat": -13.597, "lng": -71.69627, "population": 333}, {"name": "Huacllán", "lat": -9.79788, "lng": -77.67547, "population": 332}, {"name": "Raquía", "lat": -10.15753, "lng": -77.47034, "population": 332}, {"name": "Pocohuanca", "lat": -14.21837, "lng": -73.08714, "population": 332}, {"name": "Huaripampa", "lat": -8.9517, "lng": -77.81485, "population": 331}, {"name": "Santa Rosa", "lat": -14.14002, "lng": -72.65681, "population": 331}, {"name": "Salvación", "lat": -12.83605, "lng": -71.3649, "population": 330}, {"name": "Lampian", "lat": -11.23736, "lng": -76.83948, "population": 329}, {"name": "Chocos", "lat": -12.91462, "lng": -75.86271, "population": 328}, {"name": "Chiara", "lat": -13.27304, "lng": -74.20578, "population": 328}, {"name": "Sinsicap", "lat": -7.85183, "lng": -78.75623, "population": 327}, {"name": "Saurama", "lat": -13.6955, "lng": -73.75925, "population": 326}, {"name": "Colta", "lat": -15.16307, "lng": -73.29399, "population": 324}, {"name": "Churubamba", "lat": -9.82608, "lng": -76.13332, "population": 323}, {"name": "Cañaris", "lat": -6.045, "lng": -79.26482, "population": 323}, {"name": "Yarabamba", "lat": -16.54691, "lng": -71.47527, "population": 323}, {"name": "Miraflores", "lat": -12.27417, "lng": -75.85024, "population": 322}, {"name": "Aco", "lat": -9.36801, "lng": -77.56457, "population": 322}, {"name": "Macate", "lat": -8.7604, "lng": -78.06042, "population": 321}, {"name": "Choropampa", "lat": -6.37145, "lng": -78.41163, "population": 320}, {"name": "Tantamayo", "lat": -9.39239, "lng": -76.72003, "population": 319}, {"name": "San Juan de Tantaranche", "lat": -12.11347, "lng": -76.18255, "population": 319}, {"name": "Cupi", "lat": -14.9056, "lng": -70.86659, "population": 317}, {"name": "Catán", "lat": -7.30043, "lng": -78.9332, "population": 316}, {"name": "San Antonio", "lat": -14.16967, "lng": -72.62305, "population": 314}, {"name": "Tapacocha", "lat": -10.00974, "lng": -77.56831, "population": 312}, {"name": "Quicacha", "lat": -15.62564, "lng": -73.79844, "population": 312}, {"name": "Yanac", "lat": -8.6179, "lng": -77.86362, "population": 311}, {"name": "Sondorillo", "lat": -5.33921, "lng": -79.42888, "population": 311}, {"name": "El Rosario", "lat": -11.78507, "lng": -75.67484, "population": 311}, {"name": "Chílcayoc", "lat": -13.88272, "lng": -73.72753, "population": 310}, {"name": "Huangascar", "lat": -12.8996, "lng": -75.83113, "population": 309}, {"name": "La Merced", "lat": -9.7354, "lng": -77.61653, "population": 307}, {"name": "Río Blanco", "lat": -13.43487, "lng": -73.82236, "population": 307}, {"name": "Andaymarca", "lat": -12.31541, "lng": -74.63536, "population": 306}, {"name": "Iray", "lat": -15.85356, "lng": -72.62974, "population": 305}, {"name": "Umbe", "lat": -8.62302, "lng": -77.53545, "population": 303}, {"name": "Corculla", "lat": -15.26192, "lng": -73.20017, "population": 303}, {"name": "Chacapampa", "lat": -12.34461, "lng": -75.24744, "population": 303}, {"name": "Paltashaco", "lat": -5.10307, "lng": -79.88742, "population": 301}, {"name": "Huaso", "lat": -8.22451, "lng": -78.41377, "population": 301}, {"name": "Tupe", "lat": -12.74136, "lng": -75.80942, "population": 300}, {"name": "Soloco", "lat": -6.26222, "lng": -77.74444, "population": 298}, {"name": "Tarucani", "lat": -16.18347, "lng": -71.06158, "population": 296}, {"name": "San Carlos", "lat": -5.96667, "lng": -77.93333, "population": 295}, {"name": "Vilca", "lat": -12.47745, "lng": -75.18336, "population": 293}, {"name": "Vista Alegre", "lat": -6.15139, "lng": -77.30056, "population": 291}, {"name": "Rondocán", "lat": -13.77931, "lng": -71.78189, "population": 289}, {"name": "Aco", "lat": -8.52312, "lng": -77.87758, "population": 284}, {"name": "Arma", "lat": -13.12602, "lng": -75.54194, "population": 284}, {"name": "Ayauca", "lat": -12.59233, "lng": -76.03629, "population": 283}, {"name": "Jircan", "lat": -9.24659, "lng": -76.71786, "population": 282}, {"name": "Anchonga", "lat": -12.91307, "lng": -74.69135, "population": 280}, {"name": "Sexi", "lat": -6.56361, "lng": -79.05139, "population": 279}, {"name": "Tapairihua", "lat": -14.14136, "lng": -73.14058, "population": 278}, {"name": "Capaya", "lat": -14.11749, "lng": -73.32111, "population": 276}, {"name": "Santiago de Paucaray", "lat": -14.04528, "lng": -73.63889, "population": 275}, {"name": "Carhuac", "lat": -9.26213, "lng": -77.69166, "population": 275}, {"name": "Chupamarca", "lat": -13.03754, "lng": -75.60925, "population": 274}, {"name": "Camilaca", "lat": -17.26811, "lng": -70.38034, "population": 274}, {"name": "Santa Mercedes", "lat": -1.78892, "lng": -73.41165, "population": 269}, {"name": "Mariatana", "lat": -12.25, "lng": -76.33333, "population": 268}, {"name": "Llauta", "lat": -14.24374, "lng": -74.91996, "population": 267}, {"name": "Inchupalla", "lat": -15.00941, "lng": -69.6825, "population": 267}, {"name": "Viñac", "lat": -12.93111, "lng": -75.77861, "population": 266}, {"name": "Pichigua", "lat": -14.68139, "lng": -71.41694, "population": 266}, {"name": "Coporaque", "lat": -14.8, "lng": -71.5325, "population": 265}, {"name": "Providencia", "lat": -6.2975, "lng": -78.24, "population": 265}, {"name": "Nanchoc", "lat": -6.95972, "lng": -79.24222, "population": 264}, {"name": "Uñón", "lat": -15.72808, "lng": -72.43254, "population": 263}, {"name": "San Lorenzo", "lat": -11.45436, "lng": -69.32214, "population": 263}, {"name": "Estique", "lat": -17.54203, "lng": -70.01855, "population": 262}, {"name": "Cochas", "lat": -12.2955, "lng": -76.15954, "population": 262}, {"name": "Ayo", "lat": -15.68167, "lng": -72.27417, "population": 262}, {"name": "Tiquillaca", "lat": -15.79738, "lng": -70.18687, "population": 261}, {"name": "Chucatamani", "lat": -17.4802, "lng": -70.12265, "population": 261}, {"name": "San Joaquín", "lat": -12.28436, "lng": -76.1464, "population": 260}, {"name": "El Prado", "lat": -7.03368, "lng": -79.01111, "population": 259}, {"name": "Balsas", "lat": -6.83333, "lng": -78.01667, "population": 259}, {"name": "Madean", "lat": -12.94444, "lng": -75.77667, "population": 258}, {"name": "Huayllacayán", "lat": -10.24496, "lng": -77.43501, "population": 258}, {"name": "Ullulluco", "lat": -8.45556, "lng": -77.42667, "population": 258}, {"name": "Quehue", "lat": -14.38, "lng": -71.455, "population": 257}, {"name": "Cochapetí", "lat": -9.98708, "lng": -77.64621, "population": 255}, {"name": "Chalcos", "lat": -13.84778, "lng": -73.75333, "population": 253}, {"name": "Chilcas", "lat": -13.17139, "lng": -73.90694, "population": 252}, {"name": "Cahuacho", "lat": -15.50611, "lng": -73.47917, "population": 252}, {"name": "Huayacundo Arma", "lat": -13.53404, "lng": -75.31467, "population": 250}, {"name": "Chicche", "lat": -12.29601, "lng": -75.29778, "population": 250}, {"name": "Omas", "lat": -12.51667, "lng": -76.28333, "population": 249}, {"name": "Duraznopampa", "lat": -6.59306, "lng": -77.80806, "population": 249}, {"name": "Churuja", "lat": -6.01417, "lng": -77.95333, "population": 248}, {"name": "Pampas Chico", "lat": -10.11532, "lng": -77.39783, "population": 248}, {"name": "Taurisma", "lat": -15.175, "lng": -72.85028, "population": 247}, {"name": "Changuillo", "lat": -14.66417, "lng": -75.22333, "population": 247}, {"name": "Accocunca", "lat": -14.7779, "lng": -71.25147, "population": 247}, {"name": "Lagunas", "lat": -4.7894, "lng": -79.84439, "population": 246}, {"name": "San Pedro", "lat": -12.13034, "lng": -76.21639, "population": 243}, {"name": "Pataypampa", "lat": -14.17746, "lng": -72.67223, "population": 243}, {"name": "Circa", "lat": -13.87417, "lng": -72.87278, "population": 243}, {"name": "Huacaschuque", "lat": -8.30654, "lng": -78.0047, "population": 242}, {"name": "Huampara", "lat": -12.35, "lng": -76.18333, "population": 241}, {"name": "Maray", "lat": -10.93556, "lng": -76.83389, "population": 240}, {"name": "Chacabamba", "lat": -9.90092, "lng": -76.61094, "population": 238}, {"name": "Chumuch", "lat": -6.60297, "lng": -78.20031, "population": 237}, {"name": "Jucul", "lat": -10.94861, "lng": -76.745, "population": 235}, {"name": "Chugur", "lat": -6.67067, "lng": -78.73853, "population": 234}, {"name": "Trinidad", "lat": -7.34911, "lng": -79.02993, "population": 233}, {"name": "Carania", "lat": -12.34417, "lng": -75.86833, "population": 233}, {"name": "Ongoy", "lat": -13.40361, "lng": -73.66972, "population": 230}, {"name": "Huata", "lat": -9.01611, "lng": -77.86083, "population": 228}, {"name": "Quinocay", "lat": -12.36667, "lng": -76.23333, "population": 227}, {"name": "Urasqui", "lat": -16.03154, "lng": -73.17423, "population": 223}, {"name": "Guzmango", "lat": -7.385, "lng": -78.89636, "population": 222}, {"name": "Tocmoche", "lat": -6.4125, "lng": -79.36194, "population": 219}, {"name": "Mungui", "lat": -15.18278, "lng": -72.90556, "population": 219}, {"name": "Choco", "lat": -15.57695, "lng": -72.12884, "population": 219}, {"name": "Santo Domingo de Capillas", "lat": -13.7373, "lng": -75.24322, "population": 219}, {"name": "Matacoto", "lat": -9.17701, "lng": -77.7468, "population": 218}, {"name": "Huasmín", "lat": -6.83762, "lng": -78.24501, "population": 216}, {"name": "Lucmapampa", "lat": -6.94142, "lng": -78.09168, "population": 214}, {"name": "La Capilla", "lat": -16.75694, "lng": -71.17917, "population": 214}, {"name": "Casca", "lat": -8.85542, "lng": -77.39825, "population": 212}, {"name": "Ocoyo", "lat": -14.0082, "lng": -75.02242, "population": 212}, {"name": "Santiago de Pupuja", "lat": -15.05373, "lng": -70.27741, "population": 210}, {"name": "Salcabamba", "lat": -12.20198, "lng": -74.78081, "population": 208}, {"name": "Quilca", "lat": -16.71686, "lng": -72.42549, "population": 207}, {"name": "Pocsi", "lat": -16.5179, "lng": -71.38969, "population": 203}, {"name": "Uticyacu", "lat": -6.60659, "lng": -78.79384, "population": 201}, {"name": "Santa Lucía", "lat": -14.97821, "lng": -74.52378, "population": 200}, {"name": "Tisco", "lat": -15.34723, "lng": -71.44659, "population": 199}, {"name": "Atico", "lat": -16.20944, "lng": -73.62222, "population": 199}, {"name": "Longuita", "lat": -6.41417, "lng": -77.96861, "population": 198}, {"name": "Lincha", "lat": -12.79861, "lng": -75.665, "population": 198}, {"name": "Alis", "lat": -12.27861, "lng": -75.78694, "population": 198}, {"name": "Aniso", "lat": -14.80727, "lng": -73.28221, "population": 195}, {"name": "Colcha", "lat": -13.85194, "lng": -71.80333, "population": 194}, {"name": "Azángaro", "lat": -12.99751, "lng": -75.8366, "population": 194}, {"name": "Licupis", "lat": -6.424, "lng": -79.24201, "population": 193}, {"name": "Tambillo", "lat": -13.19453, "lng": -74.11096, "population": 192}, {"name": "Upahuacho", "lat": -14.9072, "lng": -73.3978, "population": 191}, {"name": "Colonia", "lat": -12.63278, "lng": -75.89056, "population": 190}, {"name": "San Gregorio", "lat": -7.05716, "lng": -79.09508, "population": 189}, {"name": "Charat", "lat": -7.83333, "lng": -78.45, "population": 189}, {"name": "Palca", "lat": -17.7779, "lng": -69.9596, "population": 189}, {"name": "Santa Cruz", "lat": -11.06, "lng": -76.93028, "population": 187}, {"name": "Chichas", "lat": -15.5475, "lng": -72.91861, "population": 185}, {"name": "Tauria", "lat": -15.35375, "lng": -73.23215, "population": 182}, {"name": "San Juan de Salinas", "lat": -14.99113, "lng": -70.10572, "population": 181}, {"name": "Miracosta", "lat": -6.40477, "lng": -79.28382, "population": 180}, {"name": "San Bernardino", "lat": -7.16857, "lng": -78.82818, "population": 179}, {"name": "Mollepata", "lat": -8.19344, "lng": -77.95753, "population": 179}, {"name": "La Esperanza", "lat": -6.59265, "lng": -78.89544, "population": 179}, {"name": "Cacra", "lat": -12.81278, "lng": -75.78306, "population": 179}, {"name": "Tibillo", "lat": -14.09306, "lng": -75.17194, "population": 178}, {"name": "Asquipata", "lat": -14.055, "lng": -73.91, "population": 178}, {"name": "Huayllo", "lat": -14.1325, "lng": -73.26861, "population": 178}, {"name": "Llama", "lat": -8.91527, "lng": -77.30149, "population": 175}, {"name": "Coviriali", "lat": -11.2907, "lng": -74.6275, "population": 175}, {"name": "San Antonio de Ocopa", "lat": -11.8357, "lng": -75.29124, "population": 174}, {"name": "Huamatambo", "lat": -13.09465, "lng": -75.67737, "population": 174}, {"name": "San Francisco de Ravacayco", "lat": -14.997, "lng": -73.35132, "population": 174}, {"name": "Shupluy", "lat": -9.21682, "lng": -77.6937, "population": 173}, {"name": "Ticllas", "lat": -13.1325, "lng": -74.33278, "population": 169}, {"name": "Ocobamba", "lat": -12.87197, "lng": -72.44732, "population": 168}, {"name": "Tingo", "lat": -6.37167, "lng": -77.91194, "population": 162}, {"name": "Bambas", "lat": -8.6025, "lng": -77.99672, "population": 159}, {"name": "Cascapara", "lat": -9.22583, "lng": -77.71639, "population": 158}, {"name": "Ocoruro", "lat": -15.0525, "lng": -71.12889, "population": 158}, {"name": "Cocas", "lat": -13.27596, "lng": -75.37251, "population": 158}, {"name": "Titili", "lat": -15.51469, "lng": -69.34815, "population": 154}, {"name": "Tipán", "lat": -15.72313, "lng": -72.50197, "population": 151}, {"name": "Soraya", "lat": -14.16496, "lng": -73.31498, "population": 147}, {"name": "Lucma", "lat": -8.91941, "lng": -77.41099, "population": 146}, {"name": "San Juan", "lat": -13.20347, "lng": -75.63455, "population": 146}, {"name": "Quinjalca", "lat": -6.09222, "lng": -77.67806, "population": 143}, {"name": "Granada", "lat": -6.09917, "lng": -77.62667, "population": 143}, {"name": "Mollepampa", "lat": -13.3, "lng": -75.4, "population": 141}, {"name": "San Pedro de Cachi", "lat": -13.08527, "lng": -74.39303, "population": 138}, {"name": "Atiquipa", "lat": -15.79577, "lng": -74.36359, "population": 137}, {"name": "Curibaya", "lat": -17.38135, "lng": -70.3345, "population": 135}, {"name": "San Buenaventura", "lat": -11.48889, "lng": -76.66194, "population": 134}, {"name": "Totora", "lat": -6.4925, "lng": -77.47306, "population": 133}, {"name": "Pichirhua", "lat": -13.86083, "lng": -73.07361, "population": 128}, {"name": "San José de Ushua", "lat": -15.22477, "lng": -73.22673, "population": 127}, {"name": "Pampas", "lat": -13.22889, "lng": -73.89417, "population": 127}, {"name": "Tapay", "lat": -15.57806, "lng": -71.93917, "population": 121}, {"name": "Pampahuasi", "lat": -14.10083, "lng": -75.47667, "population": 120}, {"name": "Lucre", "lat": -13.94969, "lng": -73.22638, "population": 119}, {"name": "Achaya", "lat": -15.28521, "lng": -70.16145, "population": 117}, {"name": "San Juan de Lanca", "lat": -11.87515, "lng": -76.54499, "population": 114}, {"name": "Caminaca", "lat": -15.32422, "lng": -70.07289, "population": 113}, {"name": "Olleros", "lat": -6.04861, "lng": -77.64583, "population": 104}, {"name": "Cochamal", "lat": -6.40639, "lng": -77.58333, "population": 104}, {"name": "Tocota", "lat": -15.65874, "lng": -74.09108, "population": 91}, {"name": "Santo Domingo de Los Olleros", "lat": -12.21489, "lng": -76.51213, "population": 91}, {"name": "Janjaillo", "lat": -11.76466, "lng": -75.61118, "population": 91}, {"name": "Chincho", "lat": -12.96667, "lng": -74.36667, "population": 83}, {"name": "Utco", "lat": -6.89644, "lng": -78.06331, "population": 80}, {"name": "San Javier de Alpabamba", "lat": -15.0566, "lng": -73.32242, "population": 80}, {"name": "Santa Ana", "lat": -13.0718, "lng": -75.14018, "population": 78}, {"name": "La Cuesta", "lat": -7.91892, "lng": -78.705, "population": 75}, {"name": "Huanchay", "lat": -10.53127, "lng": -77.42211, "population": 64}, {"name": "Pomacancha", "lat": -11.73903, "lng": -75.62361, "population": 63}, {"name": "Velinga", "lat": -15.27401, "lng": -73.02229, "population": 59}, {"name": "Paccha Huallhua", "lat": -13.85217, "lng": -73.87733, "population": 52}, {"name": "Daguas", "lat": -6.22667, "lng": -77.74056, "population": 50}, {"name": "Santa Cruz", "lat": -14.48361, "lng": -75.245, "population": 39}, {"name": "El Algarrobal", "lat": -17.62278, "lng": -71.26778, "population": 38}, {"name": "San Antonio de Esquilache", "lat": -16.1015, "lng": -70.28593, "population": 17}, {"name": "Yuracmarca", "lat": -8.73761, "lng": -77.9036, "population": 0}, {"name": "Yuracyacu", "lat": -5.93139, "lng": -77.22667, "population": 0}, {"name": "Yorongos", "lat": -6.13972, "lng": -77.14389, "population": 0}, {"name": "Yaután", "lat": -9.51191, "lng": -77.99637, "population": 0}, {"name": "Yarumayo", "lat": -10.00457, "lng": -76.46873, "population": 0}, {"name": "Yantaló", "lat": -5.97417, "lng": -77.02, "population": 0}, {"name": "Yacus", "lat": -9.98457, "lng": -76.50534, "population": 0}, {"name": "Ucuncha", "lat": -7.13333, "lng": -77.88333, "population": 0}, {"name": "Uchumarca", "lat": -7.04703, "lng": -77.80564, "population": 0}, {"name": "Trompeteros", "lat": -3.81417, "lng": -75.05833, "population": 0}, {"name": "Tres Unidos", "lat": -6.80694, "lng": -76.22944, "population": 0}, {"name": "Ticapampa", "lat": -9.75661, "lng": -77.44534, "population": 0}, {"name": "Tembladera", "lat": -7.25319, "lng": -79.1308, "population": 0}, {"name": "Tayabamba", "lat": -8.27694, "lng": -77.29639, "population": 0}, {"name": "Taurija", "lat": -8.30861, "lng": -77.42194, "population": 0}, {"name": "Tauca", "lat": -8.47008, "lng": -78.03777, "population": 0}, {"name": "Tarica", "lat": -9.39361, "lng": -77.57472, "population": 0}, {"name": "Tarapoto", "lat": -6.50139, "lng": -76.36556, "population": 0}, {"name": "Tamarindo", "lat": -4.87722, "lng": -80.97306, "population": 0}, {"name": "Tamanco", "lat": -5.85, "lng": -74.31667, "population": 0}, {"name": "Tacabamba", "lat": -6.39303, "lng": -78.61125, "population": 0}, {"name": "Sucre", "lat": -6.94266, "lng": -78.1357, "population": 0}, {"name": "Sojo", "lat": -4.90083, "lng": -80.81583, "population": 0}, {"name": "Socota", "lat": -6.31536, "lng": -78.69964, "population": 0}, {"name": "Singa", "lat": -9.38745, "lng": -76.81262, "population": 0}, {"name": "Sinchao", "lat": -5.41667, "lng": -80.66667, "population": 0}, {"name": "Sihuas", "lat": -8.56667, "lng": -77.61667, "population": 0}, {"name": "Shucushuyacu", "lat": -6.01667, "lng": -75.85, "population": 0}, {"name": "Shapaja", "lat": -6.57972, "lng": -76.26278, "population": 0}, {"name": "Shanao", "lat": -6.41133, "lng": -76.59396, "population": 0}, {"name": "Shamboyacu", "lat": -7.02308, "lng": -76.13298, "population": 0}, {"name": "Sauce", "lat": -6.69139, "lng": -76.21472, "population": 0}, {"name": "Santo Tomás", "lat": -6.15136, "lng": -78.6823, "population": 0}, {"name": "Santo Domingo de Capilla", "lat": -6.24459, "lng": -78.85531, "population": 0}, {"name": "Santo Domingo", "lat": -5.02927, "lng": -79.87604, "population": 0}, {"name": "Santa Rosa", "lat": -6.45194, "lng": -77.455, "population": 0}, {"name": "Santa Rosa", "lat": -6.88111, "lng": -79.91972, "population": 0}, {"name": "Santa Rosa", "lat": -6.68333, "lng": -76.61667, "population": 0}, {"name": "Santa María del Valle", "lat": -9.86305, "lng": -76.16945, "population": 0}, {"name": "Santa Isabel", "lat": -5.76667, "lng": -74.51667, "population": 0}, {"name": "Santa Cruz", "lat": -5.55, "lng": -75.8, "population": 0}, {"name": "Santa Catalina de Pulán", "lat": -6.7388, "lng": -78.92044, "population": 0}, {"name": "Santa", "lat": -8.98861, "lng": -78.61194, "population": 0}, {"name": "San Rafael", "lat": -7.0304, "lng": -76.47499, "population": 0}, {"name": "San Pablo", "lat": -7.11667, "lng": -78.83333, "population": 0}, {"name": "San Miguel de Pallaques", "lat": -7.00037, "lng": -78.85142, "population": 0}, {"name": "San Martín", "lat": -6.51084, "lng": -76.74029, "population": 0}, {"name": "San Marcos", "lat": -9.52491, "lng": -77.15681, "population": 0}, {"name": "San Marcos", "lat": -7.33333, "lng": -78.18333, "population": 0}, {"name": "San Luis", "lat": -9.08333, "lng": -77.35, "population": 0}, {"name": "San Lorenzo", "lat": -4.81667, "lng": -76.6, "population": 0}, {"name": "San José de Lourdes", "lat": -5.10535, "lng": -78.91355, "population": 0}, {"name": "San José del Alto", "lat": -5.46506, "lng": -79.01759, "population": 0}, {"name": "San Jacinto", "lat": -4.84333, "lng": -80.87639, "population": 0}, {"name": "San Jacinto", "lat": -3.64194, "lng": -80.4475, "population": 0}, {"name": "San Antonio", "lat": -6.36667, "lng": -76.35, "population": 0}, {"name": "San Andrés de Cutervo", "lat": -6.2383, "lng": -78.71288, "population": 0}, {"name": "Samanco", "lat": -9.26167, "lng": -78.49611, "population": 0}, {"name": "Guadalupito", "lat": -8.95028, "lng": -78.62278, "population": 0}, {"name": "Salas", "lat": -6.27472, "lng": -79.60417, "population": 0}, {"name": "Sacanche", "lat": -7.06935, "lng": -76.71484, "population": 0}, {"name": "Rumisapa", "lat": -6.44874, "lng": -76.4718, "population": 0}, {"name": "Roque", "lat": -6.4, "lng": -76.8, "population": 0}, {"name": "Requena", "lat": -5.06083, "lng": -73.85028, "population": 0}, {"name": "Recuay", "lat": -9.72215, "lng": -77.4563, "population": 0}, {"name": "Rahuapampa", "lat": -9.35911, "lng": -77.07858, "population": 0}, {"name": "Quivilla", "lat": -9.59929, "lng": -76.72494, "population": 0}, {"name": "Quinuabamba", "lat": -8.69713, "lng": -77.39851, "population": 0}, {"name": "Puños", "lat": -9.49735, "lng": -76.88469, "population": 0}, {"name": "Punchao", "lat": -9.46221, "lng": -76.81953, "population": 0}, {"name": "Puerto Rico", "lat": -6.99222, "lng": -76.41917, "population": 0}, {"name": "Puerto Inca", "lat": -9.377, "lng": -74.96564, "population": 0}, {"name": "Puerto Galilea", "lat": -4.01512, "lng": -77.75835, "population": 0}, {"name": "Chao", "lat": -8.54306, "lng": -78.67917, "population": 0}, {"name": "Pueblo Libre", "lat": -9.11075, "lng": -77.80181, "population": 0}, {"name": "Pucará", "lat": -6.04184, "lng": -79.13012, "population": 0}, {"name": "Pucacaca", "lat": -6.85167, "lng": -76.34167, "population": 0}, {"name": "Posic", "lat": -6.01389, "lng": -77.16361, "population": 0}, {"name": "Ponto", "lat": -9.3258, "lng": -77.00438, "population": 0}, {"name": "Pomalca", "lat": -6.7675, "lng": -79.77722, "population": 0}, {"name": "Pomahuaca", "lat": -5.93189, "lng": -79.2296, "population": 0}, {"name": "Piscoyacu", "lat": -6.97984, "lng": -76.76813, "population": 0}, {"name": "Pinra", "lat": -8.92483, "lng": -77.01538, "population": 0}, {"name": "Pelejo", "lat": -6.21667, "lng": -75.81667, "population": 0}, {"name": "Pebas", "lat": -3.32879, "lng": -71.85505, "population": 0}, {"name": "Parinari", "lat": -4.56667, "lng": -74.43333, "population": 0}, {"name": "Pariacoto", "lat": -9.55923, "lng": -77.89061, "population": 0}, {"name": "Papayal", "lat": -3.57141, "lng": -80.23454, "population": 0}, {"name": "Panao", "lat": -9.89778, "lng": -75.99333, "population": 0}, {"name": "Pampas", "lat": -8.1951, "lng": -77.89572, "population": 0}, {"name": "Pampa Hermosa", "lat": -7.2, "lng": -75.3, "population": 0}, {"name": "Pallasca", "lat": -8.25315, "lng": -77.99898, "population": 0}, {"name": "Paimas", "lat": -4.6269, "lng": -79.94456, "population": 0}, {"name": "Pacora", "lat": -6.42889, "lng": -79.83889, "population": 0}, {"name": "Pachiza", "lat": -7.29718, "lng": -76.77185, "population": 0}, {"name": "Pachas", "lat": -9.70651, "lng": -76.77113, "population": 0}, {"name": "Paccha", "lat": -6.49739, "lng": -78.42444, "population": 0}, {"name": "Pacaipampa", "lat": -4.99502, "lng": -79.66773, "population": 0}, {"name": "Orellana", "lat": -6.9, "lng": -75.16667, "population": 0}, {"name": "Olleros", "lat": -9.66682, "lng": -77.46563, "population": 0}, {"name": "Obas", "lat": -9.79535, "lng": -76.66557, "population": 0}, {"name": "Nuevo Lima", "lat": -7.09958, "lng": -76.47195, "population": 0}, {"name": "Nueva Arica", "lat": -6.87278, "lng": -79.34278, "population": 0}, {"name": "Nepeña", "lat": -9.1725, "lng": -78.35889, "population": 0}, {"name": "Negritos", "lat": -4.65389, "lng": -81.30472, "population": 0}, {"name": "Naranjillo", "lat": -9.24864, "lng": -75.99374, "population": 0}, {"name": "Namora", "lat": -7.20223, "lng": -78.32537, "population": 0}, {"name": "Namballe", "lat": -5.00352, "lng": -79.08907, "population": 0}, {"name": "Moro", "lat": -9.13889, "lng": -78.18194, "population": 0}, {"name": "Morales", "lat": -6.4802, "lng": -76.38477, "population": 0}, {"name": "Montero", "lat": -4.63066, "lng": -79.82855, "population": 0}, {"name": "Molino", "lat": -9.91154, "lng": -76.01524, "population": 0}, {"name": "Mocupe", "lat": -6.98944, "lng": -79.61917, "population": 0}, {"name": "Miraflores", "lat": -9.49396, "lng": -76.8187, "population": 0}, {"name": "Ninabamba", "lat": -6.65014, "lng": -78.78756, "population": 0}, {"name": "Mendoza", "lat": -6.39444, "lng": -77.48167, "population": 0}, {"name": "Masisea", "lat": -8.60528, "lng": -74.30472, "population": 0}, {"name": "Marcará", "lat": -9.32259, "lng": -77.60391, "population": 0}, {"name": "Mancos", "lat": -9.19111, "lng": -77.71333, "population": 0}, {"name": "Magdalena", "lat": -7.25061, "lng": -78.65933, "population": 0}, {"name": "Luya", "lat": -6.16389, "lng": -77.94528, "population": 0}, {"name": "Los Organos", "lat": -4.17806, "lng": -81.12472, "population": 0}, {"name": "Los Baños del Inca", "lat": -7.16382, "lng": -78.46484, "population": 0}, {"name": "Lonya Grande", "lat": -6.095, "lng": -78.42139, "population": 0}, {"name": "Longotea", "lat": -7.06667, "lng": -77.91667, "population": 0}, {"name": "Lobitos", "lat": -4.45674, "lng": -81.28487, "population": 0}, {"name": "Lluchubamba", "lat": -7.52167, "lng": -77.97083, "population": 0}, {"name": "Las Palmas", "lat": -9.38412, "lng": -76.00505, "population": 0}, {"name": "Lamud", "lat": -6.13722, "lng": -77.95361, "population": 0}, {"name": "Lajas", "lat": -6.56029, "lng": -78.73474, "population": 0}, {"name": "La Jalca", "lat": -6.48611, "lng": -77.81528, "population": 0}, {"name": "La Esperanza", "lat": -8.0764, "lng": -79.04371, "population": 0}, {"name": "La Arena", "lat": -5.34659, "lng": -80.71078, "population": 0}, {"name": "Juan Guerra", "lat": -6.58278, "lng": -76.33, "population": 0}, {"name": "Jimbe", "lat": -9.01312, "lng": -78.13776, "population": 0}, {"name": "Jesús", "lat": -7.2497, "lng": -78.38035, "population": 0}, {"name": "Jeberos", "lat": -5.28333, "lng": -76.28333, "population": 0}, {"name": "Jangas", "lat": -9.4025, "lng": -77.57583, "population": 0}, {"name": "Jamalca", "lat": -5.86722, "lng": -78.26167, "population": 0}, {"name": "Iparia", "lat": -9.30542, "lng": -74.44125, "population": 0}, {"name": "Inahuaya", "lat": -7.15, "lng": -75.28333, "population": 0}, {"name": "Iberia", "lat": -5.66667, "lng": -74.15, "population": 0}, {"name": "Huarmaca", "lat": -5.56583, "lng": -79.52194, "population": 0}, {"name": "Huaranchal", "lat": -7.68333, "lng": -78.45, "population": 0}, {"name": "Huanchaco", "lat": -8.08144, "lng": -79.11907, "population": 0}, {"name": "Huambos", "lat": -6.4527, "lng": -78.96093, "population": 0}, {"name": "Huayllabamba", "lat": -8.53596, "lng": -77.56768, "population": 0}, {"name": "Huallanca", "lat": -9.89796, "lng": -76.94089, "population": 0}, {"name": "Hualgayoc", "lat": -6.7643, "lng": -78.60691, "population": 0}, {"name": "Huacrachuco", "lat": -8.65, "lng": -77.08333, "population": 0}, {"name": "Huacaybamba", "lat": -9.03819, "lng": -76.95293, "population": 0}, {"name": "Habana", "lat": -6.08167, "lng": -77.09083, "population": 0}, {"name": "Frias", "lat": -4.92958, "lng": -79.94796, "population": 0}, {"name": "Encañada", "lat": -7.08498, "lng": -78.34284, "population": 0}, {"name": "El Porvenir", "lat": -8.08333, "lng": -79.0, "population": 0}, {"name": "El Parco District", "lat": -5.62436, "lng": -78.47594, "population": 0}, {"name": "Dos Pueblos", "lat": -5.45, "lng": -80.76667, "population": 0}, {"name": "Cutervo", "lat": -6.36667, "lng": -78.85, "population": 0}, {"name": "Cusco", "lat": -7.25556, "lng": -76.47555, "population": 0}, {"name": "Curgos", "lat": -7.85972, "lng": -77.94333, "population": 0}, {"name": "Cumba", "lat": -5.93306, "lng": -78.66278, "population": 0}, {"name": "La Caleta Culebras", "lat": -9.94889, "lng": -78.22528, "population": 0}, {"name": "Cujillo", "lat": -6.11667, "lng": -78.53333, "population": 0}, {"name": "Corongo", "lat": -8.58333, "lng": -77.91667, "population": 0}, {"name": "Contumazá", "lat": -7.36633, "lng": -78.80505, "population": 0}, {"name": "Concordia", "lat": -4.56667, "lng": -74.78333, "population": 0}, {"name": "Conchucos", "lat": -8.26862, "lng": -77.85233, "population": 0}, {"name": "Colcamar", "lat": -6.30111, "lng": -77.9725, "population": 0}, {"name": "Cochabamba", "lat": -6.47418, "lng": -78.88554, "population": 0}, {"name": "Cocabamba", "lat": -6.6, "lng": -78.01667, "population": 0}, {"name": "Chupán", "lat": -9.74694, "lng": -76.64889, "population": 0}, {"name": "Chugay", "lat": -7.78167, "lng": -77.86833, "population": 0}, {"name": "Chontalí", "lat": -5.64605, "lng": -79.08803, "population": 0}, {"name": "Chisquilla", "lat": -5.88333, "lng": -77.73333, "population": 0}, {"name": "Chirinos", "lat": -5.305, "lng": -78.89833, "population": 0}, {"name": "Chiriaco", "lat": -5.16, "lng": -78.28889, "population": 0}, {"name": "Chingalpa", "lat": -8.33907, "lng": -77.59821, "population": 0}, {"name": "Chimuch", "lat": -6.51323, "lng": -78.32901, "population": 0}, {"name": "Chillia", "lat": -8.12462, "lng": -77.51493, "population": 0}, {"name": "Chilete", "lat": -7.22141, "lng": -78.8397, "population": 0}, {"name": "Chavinillo", "lat": -9.8585, "lng": -76.60855, "population": 0}, {"name": "Chalaco", "lat": -5.04097, "lng": -79.79589, "population": 0}, {"name": "Chaglla", "lat": -9.84361, "lng": -75.90306, "population": 0}, {"name": "Chacas", "lat": -9.16209, "lng": -77.36604, "population": 0}, {"name": "Catac", "lat": -9.8, "lng": -77.43333, "population": 0}, {"name": "Caspisapa", "lat": -6.95694, "lng": -76.41806, "population": 0}, {"name": "Casma", "lat": -9.47472, "lng": -78.30167, "population": 0}, {"name": "Casa Grande", "lat": -7.74389, "lng": -79.18639, "population": 0}, {"name": "Carabamba", "lat": -8.11667, "lng": -78.61667, "population": 0}, {"name": "Cancas", "lat": -3.94667, "lng": -80.94167, "population": 0}, {"name": "Calzada", "lat": -6.03194, "lng": -77.06639, "population": 0}, {"name": "Caleta Cruz", "lat": -3.6375, "lng": -80.59167, "population": 0}, {"name": "Cahuac", "lat": -9.85261, "lng": -76.63035, "population": 0}, {"name": "Cacatachi", "lat": -6.46282, "lng": -76.45108, "population": 0}, {"name": "Cabana", "lat": -8.4, "lng": -78.03333, "population": 0}, {"name": "Caballococha", "lat": -3.90583, "lng": -70.51639, "population": 0}, {"name": "Buenos Aires", "lat": -8.13861, "lng": -79.04028, "population": 0}, {"name": "Buena Vista Alta", "lat": -9.43228, "lng": -78.20654, "population": 0}, {"name": "Breu", "lat": -9.48333, "lng": -72.71667, "population": 0}, {"name": "Bretaña", "lat": -5.26667, "lng": -74.28333, "population": 0}, {"name": "Bellavista", "lat": -4.8902, "lng": -80.68074, "population": 0}, {"name": "Barranquita", "lat": -6.26667, "lng": -76.01667, "population": 0}, {"name": "Bagua", "lat": -5.63311, "lng": -78.53431, "population": 0},