[{"name": "Faaa", "lat": -17.55933, "lng": -149.60352, "population": 29851}, {"name": "Papeete", "lat": -17.5347, "lng": -149.56843, "population": 26357}, {"name": "Punaauia", "lat": -17.63333, "lng": -149.6, "population": 25750}, {"name": "Pirae", "lat": -17.52985, "lng": -149.55119, "population": 14475}, {"name": "Mahina", "lat": -17.50648, "lng": -149.48899, "population": 14369}, {"name": "Paea", "lat": -17.68333, "lng": -149.58333, "population": 12084}, {"name": "Papao", "lat": -17.75, "lng": -149.55, "population": 10360}, {"name": "Arue", "lat": -17.52764, "lng": -149.53437, "population": 9458}, {"name": "Vaitoare", "lat": -16.67618, "lng": -151.45743, "population": 5946}, {"name": "Afaahiti", "lat": -17.74395, "lng": -149.32444, "population": 5186}, {"name": "Vaitape", "lat": -16.50741, "lng": -151.74913, "population": 4927}, {"name": "Otutara", "lat": -17.77207, "lng": -149.41341, "population": 4609}, {"name": "Paopao", "lat": -17.51863, "lng": -149.82193, "population": 4221}, {"name": "Taunoa", "lat": -17.75139, "lng": -149.35602, "population": 4131}, {"name": "Haapiti", "lat": -17.56352, "lng": -149.86905, "population": 3959}, {"name": "Uturoa", "lat": -16.73022, "lng": -151.44256, "population": 3668}, {"name": "Afareaitu", "lat": -17.55, "lng": -149.78333, "population": 3213}, {"name": "Tohautu", "lat": -17.76099, "lng": -149.31676, "population": 2842}, {"name": "Tiarei", "lat": -17.53333, "lng": -149.33333, "population": 2795}, {"name": "Vairao", "lat": -17.78333, "lng": -149.28333, "population": 2423}, {"name": "Tautira", "lat": -17.74744, "lng": -149.16123, "population": 2293}, {"name": "Teavaro", "lat": -17.5, "lng": -149.76667, "population": 2289}, {"name": "Faanui", "lat": -16.48679, "lng": -151.74102, "population": 2061}, {"name": "Pueu", "lat": -17.73831, "lng": -149.22376, "population": 1968}, {"name": "Papetoai", "lat": -17.49538, "lng": -149.87437, "population": 1964}, {"name": "Tevaitoa", "lat": -16.79139, "lng": -151.48893, "population": 1851}, {"name": "Hitiaa", "lat": -17.6, "lng": -149.3, "population": 1826}, {"name": "Atuona", "lat": -9.80342, "lng": -139.04202, "population": 1762}, {"name": "Faone", "lat": -17.66917, "lng": -149.30919, "population": 1747}, {"name": "Fare", "lat": -16.7123, "lng": -151.03493, "population": 1540}, {"name": "Teahupoo", "lat": -17.84645, "lng": -149.26682, "population": 1422}, {"name": "Anau", "lat": -16.50148, "lng": -151.72135, "population": 1412}, {"name": "Taiohae", "lat": -8.91093, "lng": -140.09972, "population": 1224}, {"name": "Fitii", "lat": -16.73535, "lng": -151.0327, "population": 1154}, {"name": "Rikitea", "lat": -23.12322, "lng": -134.96858, "population": 1103}, {"name": "Moerai", "lat": -22.45133, "lng": -151.34191, "population": 1044}, {"name": "Otepa", "lat": -18.10616, "lng": -140.9059, "population": 1009}, {"name": "Tapuarava", "lat": -18.46647, "lng": -136.46328, "population": 0}]