[{"name": "Port Moresby", "lat": -9.47723, "lng": 147.15089, "population": 283733}, {"name": "Lae", "lat": -6.72333, "lng": 146.99611, "population": 76255}, {"name": "Arawa", "lat": -6.22977, "lng": 155.56598, "population": 40266}, {"name": "Mount Hagen", "lat": -5.85746, "lng": 144.23058, "population": 33623}, {"name": "Popondetta", "lat": -8.76536, "lng": 148.23252, "population": 28198}, {"name": "Madang", "lat": -5.22152, "lng": 145.78695, "population": 27419}, {"name": "Kokopo", "lat": -4.3432, "lng": 152.26867, "population": 26273}, {"name": "Mendi", "lat": -6.14755, "lng": 143.65633, "population": 26252}, {"name": "Kimbe", "lat": -5.55085, "lng": 150.13766, "population": 18847}, {"name": "Goroka", "lat": -6.085, "lng": 145.38667, "population": 18503}, {"name": "Wewak", "lat": -3.54964, "lng": 143.63229, "population": 18230}, {"name": "Bulolo", "lat": -7.2036, "lng": 146.64014, "population": 16042}, {"name": "Daru", "lat": -9.07786, "lng": 143.20893, "population": 15214}, {"name": "Wau", "lat": -7.342, "lng": 146.724, "population": 14629}, {"name": "Kavieng", "lat": -2.57337, "lng": 150.79516, "population": 14490}, {"name": "Kiunga", "lat": -6.12193, "lng": 141.29061, "population": 11536}, {"name": "Vanimo", "lat": -2.68372, "lng": 141.30195, "population": 11204}, {"name": "Tabubil", "lat": -5.27379, "lng": 141.22921, "population": 10270}, {"name": "Alotau", "lat": -10.31509, "lng": 150.45742, "population": 10025}, {"name": "Kundiawa", "lat": -6.01972, "lng": 144.96917, "population": 9383}, {"name": "Kainantu", "lat": -6.28872, "lng": 145.86548, "population": 8509}, {"name": "Tari", "lat": -5.845, "lng": 142.94667, "population": 8186}, {"name": "Rabaul", "lat": -4.20037, "lng": 152.16297, "population": 8074}, {"name": "Ialibu", "lat": -6.28208, "lng": 143.99354, "population": 6915}, {"name": "Kokoda", "lat": -8.87778, "lng": 147.73642, "population": 6199}, {"name": "Lorengau", "lat": -2.0341, "lng": 147.27173, "population": 5806}, {"name": "Kerema", "lat": -7.96028, "lng": 145.77278, "population": 5646}, {"name": "Aitape", "lat": -3.13697, "lng": 142.34913, "population": 5547}, {"name": "Wabag", "lat": -5.49119, "lng": 143.72151, "population": 3958}, {"name": "Kieta", "lat": -6.21462, "lng": 155.63251, "population": 3611}, {"name": "Panguna", "lat": -6.31639, "lng": 155.48483, "population": 2916}, {"name": "Kulumadau", "lat": -9.08511, "lng": 152.7185, "population": 2500}, {"name": "Morehead", "lat": -8.71065, "lng": 141.63668, "population": 2246}, {"name": "Ambunti", "lat": -4.21717, "lng": 142.81832, "population": 2073}, {"name": "Londolovit", "lat": -3.06767, "lng": 152.637, "population": 1644}, {"name": "Samarai", "lat": -10.61038, "lng": 150.66207, "population": 1638}, {"name": "Porgera", "lat": -5.463, "lng": 143.148, "population": 1578}, {"name": "Bereina", "lat": -8.63173, "lng": 146.50719, "population": 1565}, {"name": "Namatanai", "lat": -3.66372, "lng": 152.44101, "population": 1542}, {"name": "Finschhafen", "lat": -6.604, "lng": 147.848, "population": 1054}, {"name": "Kandrian", "lat": -6.20655, "lng": 149.54744, "population": 1014}, {"name": "Ihu", "lat": -7.89569, "lng": 145.39405, "population": 712}, {"name": "Minj", "lat": -5.90752, "lng": 144.69159, "population": 0}, {"name": "Kwikila", "lat": -9.81847, "lng": 147.65968, "population": 0}, {"name": "Kurumul", "lat": -5.855, "lng": 144.63111, "population": 0}, {"name": "Angoram Village", "lat": -4.0518, "lng": 144.0728, "population": 0}, {"name": "Buka", "lat": -5.43261, "lng": 154.67098, "population": 0}, {"name": "Rauna", "lat": -5.7359, "lng": 144.28834, "population": 0}]