[{"name": "Quezon City", "lat": 14.6488, "lng": 121.0509, "population": 3084270}, {"name": "Davao", "lat": 7.07306, "lng": 125.61278, "population": 1848947}, {"name": "Caloocan", "lat": 14.64953, "lng": 120.96788, "population": 1712945}, {"name": "Manila", "lat": 14.6042, "lng": 120.9822, "population": 1600000}, {"name": "Taguig", "lat": 14.5243, "lng": 121.0792, "population": 1308085}, {"name": "Budta", "lat": 7.20417, "lng": 124.43972, "population": 1273715}, {"name": "Malingao", "lat": 7.16083, "lng": 124.475, "population": 1121974}, {"name": "Zamboanga", "lat": 6.91028, "lng": 122.07389, "population": 1018849}, {"name": "Cebu City", "lat": 10.31672, "lng": 123.89071, "population": 965332}, {"name": "Antipolo", "lat": 14.62578, "lng": 121.12251, "population": 913712}, {"name": "Pasig City", "lat": 14.58691, "lng": 121.0614, "population": 853050}, {"name": "Cagayan de Oro", "lat": 8.48222, "lng": 124.64722, "population": 741617}, {"name": "Valenzuela", "lat": 14.7, "lng": 120.9667, "population": 725173}, {"name": "General Santos", "lat": 6.11278, "lng": 125.17167, "population": 722059}, {"name": "Paranaque City", "lat": 14.48156, "lng": 121.01749, "population": 703245}, {"name": "Las Piñas", "lat": 14.45056, "lng": 120.98278, "population": 615549}, {"name": "Calamba", "lat": 14.21167, "lng": 121.16528, "population": 575046}, {"name": "Makati City", "lat": 14.55027, "lng": 121.03269, "population": 510383}, {"name": "Lapu-Lapu City", "lat": 10.31028, "lng": 123.94944, "population": 497813}, {"name": "Angeles City", "lat": 15.15, "lng": 120.58333, "population": 483452}, {"name": "Imus", "lat": 14.42972, "lng": 120.93667, "population": 481949}, {"name": "Iloilo", "lat": 10.69694, "lng": 122.56444, "population": 473728}, {"name": "Marikina City", "lat": 14.6481, "lng": 121.1133, "population": 471323}, {"name": "Mandaluyong City", "lat": 14.5832, "lng": 121.0409, "population": 465902}, {"name": "Bacolod City", "lat": 10.66667, "lng": 122.95, "population": 454898}, {"name": "Mansilingan", "lat": 10.63111, "lng": 122.97889, "population": 454150}, {"name": "Dasmariñas", "lat": 14.32944, "lng": 120.93667, "population": 441876}, {"name": "Mandaluyong", "lat": 14.57837, "lng": 121.03522, "population": 425000}, {"name": "Pasay", "lat": 14.53748, "lng": 121.00144, "population": 416522}, {"name": "Tarlac City", "lat": 15.48017, "lng": 120.59794, "population": 401892}, {"name": "Cotabato", "lat": 7.22361, "lng": 124.24639, "population": 383383}, {"name": "Malabon", "lat": 14.67333, "lng": 120.93972, "population": 365525}, {"name": "San Jose del Monte", "lat": 14.81389, "lng": 121.04528, "population": 357828}, {"name": "Bacoor", "lat": 14.45896, "lng": 120.93851, "population": 356974}, {"name": "San Pedro", "lat": 14.3595, "lng": 121.0473, "population": 348968}, {"name": "Cabanatuan City", "lat": 15.48586, "lng": 120.96648, "population": 343672}, {"name": "Iligan", "lat": 8.2289, "lng": 124.24344, "population": 342618}, {"name": "Mandaue City", "lat": 10.32361, "lng": 123.92222, "population": 331320}, {"name": "Iligan City", "lat": 8.25, "lng": 124.4, "population": 312323}, {"name": "Butuan", "lat": 8.94917, "lng": 125.54361, "population": 309709}, {"name": "Cabuyao", "lat": 14.2726, "lng": 121.1262, "population": 308745}, {"name": "San Pablo", "lat": 14.0683, "lng": 121.3256, "population": 300166}, {"name": "Biñan", "lat": 14.34267, "lng": 121.08071, "population": 300000}, {"name": "Santol", "lat": 15.16222, "lng": 120.5675, "population": 298976}, {"name": "Cainta", "lat": 14.5786, "lng": 121.1222, "population": 283172}, {"name": "Baguio", "lat": 16.41639, "lng": 120.59306, "population": 272714}, {"name": "Malolos", "lat": 14.8443, "lng": 120.81039, "population": 269809}, {"name": "Mantampay", "lat": 8.16667, "lng": 124.21667, "population": 265032}, {"name": "Bagong Silang", "lat": 14.7783, "lng": 121.04487, "population": 261729}, {"name": "Marawi City", "lat": 8.0034, "lng": 124.28395, "population": 259993}, {"name": "Tacloban", "lat": 11.24333, "lng": 125.00472, "population": 259353}, {"name": "San Fernando", "lat": 15.03425, "lng": 120.68445, "population": 251248}, {"name": "Libertad", "lat": 8.94417, "lng": 125.50194, "population": 250353}, {"name": "Navotas", "lat": 14.66667, "lng": 120.95, "population": 249463}, {"name": "Ormoc", "lat": 11.00639, "lng": 124.6075, "population": 238545}, {"name": "Batangas", "lat": 13.7567, "lng": 121.0584, "population": 237370}, {"name": "Magugpo Poblacion", "lat": 7.4475, "lng": 125.8046, "population": 233254}, {"name": "Taytay", "lat": 14.55883, "lng": 121.13285, "population": 231460}, {"name": "Lucena", "lat": 13.93139, "lng": 121.61722, "population": 228758}, {"name": "Meycauayan", "lat": 14.73694, "lng": 120.96083, "population": 228023}, {"name": "NIA Valencia", "lat": 7.90639, "lng": 125.09417, "population": 223620}, {"name": "Puerto Princesa", "lat": 9.73917, "lng": 118.73528, "population": 222673}, {"name": "Olongapo", "lat": 14.82917, "lng": 120.28278, "population": 221178}, {"name": "Binangonan", "lat": 14.4646, "lng": 121.1929, "population": 219204}, {"name": "Santa Rosa", "lat": 14.31222, "lng": 121.11139, "population": 216650}, {"name": "Commonwealth", "lat": 14.6969, "lng": 121.08006, "population": 215034}, {"name": "Lipa City", "lat": 13.9411, "lng": 121.1631, "population": 212287}, {"name": "Panabo", "lat": 7.30806, "lng": 125.68417, "population": 211242}, {"name": "Kabankalan", "lat": 9.9839, "lng": 122.81423, "population": 210893}, {"name": "Toledo", "lat": 10.3773, "lng": 123.6386, "population": 206692}, {"name": "Pagadian", "lat": 7.8257, "lng": 123.437, "population": 206483}, {"name": "Koronadal", "lat": 6.50306, "lng": 124.84694, "population": 201844}, {"name": "Bago City", "lat": 10.53333, "lng": 122.83333, "population": 192993}, {"name": "Panalanoy", "lat": 11.25111, "lng": 125.00639, "population": 189090}, {"name": "Mabalacat City", "lat": 15.22303, "lng": 120.57117, "population": 188050}, {"name": "Sorsogon", "lat": 12.97389, "lng": 123.99333, "population": 187670}, {"name": "Roxas City", "lat": 11.58528, "lng": 122.75111, "population": 185236}, {"name": "Legaspi", "lat": 13.14125, "lng": 123.74073, "population": 179481}, {"name": "Concepcion", "lat": 15.32546, "lng": 120.65723, "population": 178549}, {"name": "Naga", "lat": 13.61917, "lng": 123.18139, "population": 174931}, {"name": "Dagupan", "lat": 16.04313, "lng": 120.33325, "population": 171271}, {"name": "Tuguegarao", "lat": 17.61577, "lng": 121.72285, "population": 167297}, {"name": "Ilagan", "lat": 17.14854, "lng": 121.88924, "population": 164020}, {"name": "Pandi", "lat": 14.865, "lng": 120.95722, "population": 162725}, {"name": "Capas", "lat": 15.33117, "lng": 120.5898, "population": 162724}, {"name": "Mariveles", "lat": 14.43385, "lng": 120.48569, "population": 156200}, {"name": "Guyong", "lat": 14.8361, "lng": 120.97844, "population": 155391}, {"name": "Urdaneta", "lat": 15.97611, "lng": 120.57111, "population": 145935}, {"name": "San Jose", "lat": 12.35275, "lng": 121.06761, "population": 143495}, {"name": "La Trinidad", "lat": 16.455, "lng": 120.5875, "population": 142925}, {"name": "Norzagaray", "lat": 14.9109, "lng": 121.0493, "population": 140697}, {"name": "Gingoog", "lat": 8.82778, "lng": 125.09972, "population": 138895}, {"name": "Naga", "lat": 10.20898, "lng": 123.758, "population": 138727}, {"name": "Candelaria", "lat": 13.93111, "lng": 121.42333, "population": 137933}, {"name": "Baliuag", "lat": 14.95472, "lng": 120.89694, "population": 135679}, {"name": "Angono", "lat": 14.5266, "lng": 121.1536, "population": 134975}, {"name": "Rodriguez", "lat": 14.76011, "lng": 121.19993, "population": 134432}, {"name": "San Mateo", "lat": 14.6982, "lng": 121.1236, "population": 134327}, {"name": "San Juan", "lat": 14.6, "lng": 121.0333, "population": 134312}, {"name": "Talisay", "lat": 10.24472, "lng": 123.84944, "population": 133148}, {"name": "Muricay", "lat": 7.8275, "lng": 123.4782, "population": 132094}, {"name": "Bulaon", "lat": 15.08262, "lng": 120.66288, "population": 131818}, {"name": "Gapan", "lat": 15.3072, "lng": 120.9464, "population": 129610}, {"name": "Bayambang", "lat": 15.8127, "lng": 120.4557, "population": 129506}, {"name": "Cadiz", "lat": 10.9465, "lng": 123.288, "population": 129053}, {"name": "Rosario", "lat": 13.6323, "lng": 121.2207, "population": 128352}, {"name": "Pulong Santa Cruz", "lat": 14.27324, "lng": 121.07643, "population": 126844}, {"name": "Bayawan", "lat": 9.3649, "lng": 122.804, "population": 126744}, {"name": "Santa Cruz", "lat": 14.6, "lng": 120.98333, "population": 126735}, {"name": "Sultan Kudarat", "lat": 7.22889, "lng": 124.25778, "population": 124965}, {"name": "Hagonoy", "lat": 14.83413, "lng": 120.73271, "population": 123531}, {"name": "Tabuk", "lat": 17.47378, "lng": 121.46799, "population": 122771}, {"name": "Tabuk", "lat": 17.4084, "lng": 121.2785, "population": 122771}, {"name": "Calumpit", "lat": 14.91639, "lng": 120.76583, "population": 122187}, {"name": "Apalit", "lat": 14.95333, "lng": 120.77, "population": 121057}, {"name": "Plaridel", "lat": 14.88722, "lng": 120.85722, "population": 120939}, {"name": "Silang", "lat": 14.21567, "lng": 120.97137, "population": 119475}, {"name": "Malita", "lat": 6.415, "lng": 125.61167, "population": 118438}, {"name": "Guiguinto", "lat": 14.83333, "lng": 120.88333, "population": 118173}, {"name": "Manolo Fortich", "lat": 8.36972, "lng": 124.86444, "population": 118075}, {"name": "Midsayap", "lat": 7.19083, "lng": 124.53028, "population": 117365}, {"name": "Himamaylan", "lat": 10.09889, "lng": 122.87056, "population": 117286}, {"name": "Los Baños", "lat": 14.17025, "lng": 121.24181, "population": 117030}, {"name": "Tacurong", "lat": 6.6925, "lng": 124.67639, "population": 116945}, {"name": "Dinaig", "lat": 7.16985, "lng": 124.20836, "population": 116768}, {"name": "Digos", "lat": 6.74972, "lng": 125.35722, "population": 116122}, {"name": "Cavite City", "lat": 14.48369, "lng": 120.89878, "population": 115932}, {"name": "Tayabas", "lat": 14.0259, "lng": 121.5929, "population": 115318}, {"name": "Iriga City", "lat": 13.4324, "lng": 123.4115, "population": 115306}, {"name": "Quezon", "lat": 7.73028, "lng": 125.09889, "population": 114521}, {"name": "Dumaguete", "lat": 9.30646, "lng": 123.30769, "population": 113541}, {"name": "Carmona", "lat": 14.3132, "lng": 121.0576, "population": 112140}, {"name": "Laoag", "lat": 18.1978, "lng": 120.5957, "population": 112117}, {"name": "Pulilan", "lat": 14.90167, "lng": 120.84917, "population": 111384}, {"name": "Bayugan", "lat": 8.75611, "lng": 125.7675, "population": 110313}, {"name": "Maramag", "lat": 7.76333, "lng": 125.00528, "population": 109864}, {"name": "Talisay", "lat": 10.7375, "lng": 122.9666, "population": 109204}, {"name": "Santiago", "lat": 16.68808, "lng": 121.5487, "population": 108414}, {"name": "Santa Cruz", "lat": 14.2814, "lng": 121.4161, "population": 108145}, {"name": "Catbalogan", "lat": 11.77528, "lng": 124.88611, "population": 107896}, {"name": "Bagong Silangan", "lat": 14.706, "lng": 121.108, "population": 106886}, {"name": "Paniqui", "lat": 15.6689, "lng": 120.5806, "population": 106190}, {"name": "Mati", "lat": 6.95508, "lng": 126.21655, "population": 105908}, {"name": "Tanza", "lat": 14.6753, "lng": 120.9389, "population": 105510}, {"name": "Isulan", "lat": 6.62944, "lng": 124.605, "population": 101455}, {"name": "Jolo", "lat": 6.05222, "lng": 121.00222, "population": 101002}, {"name": "Calasiao", "lat": 16.0111, "lng": 120.36, "population": 100686}, {"name": "Bislig", "lat": 8.21528, "lng": 126.31639, "population": 99872}, {"name": "Bocaue", "lat": 14.79833, "lng": 120.92611, "population": 98649}, {"name": "Catarman", "lat": 12.4989, "lng": 124.6377, "population": 97738}, {"name": "Escalante", "lat": 10.84028, "lng": 123.49917, "population": 97050}, {"name": "Monkayo", "lat": 7.81528, "lng": 126.05444, "population": 96405}, {"name": "General Trias", "lat": 14.38694, "lng": 120.88167, "population": 96022}, {"name": "Daanbantayan", "lat": 11.24681, "lng": 124.01462, "population": 95080}, {"name": "Dipolog", "lat": 8.56697, "lng": 123.33471, "population": 93549}, {"name": "Ozamiz City", "lat": 8.1481, "lng": 123.8405, "population": 93082}, {"name": "Banco Filipino Homes", "lat": 14.43379, "lng": 121.02231, "population": 92752}, {"name": "Surallah", "lat": 6.37527, "lng": 124.74521, "population": 91412}, {"name": "Sablayan", "lat": 12.8346, "lng": 120.769, "population": 91406}, {"name": "Prosperidad", "lat": 8.58, "lng": 125.89639, "population": 90162}, {"name": "Alabel", "lat": 6.10179, "lng": 125.29048, "population": 90120}, {"name": "Calauan", "lat": 14.14989, "lng": 121.3152, "population": 89670}, {"name": "Polangui", "lat": 13.2923, "lng": 123.4855, "population": 89176}, {"name": "Kalibo (poblacion)", "lat": 11.70611, "lng": 122.36444, "population": 89127}, {"name": "Calabanga", "lat": 13.7068, "lng": 123.2087, "population": 88918}, {"name": "Mangaldan", "lat": 16.07, "lng": 120.4025, "population": 88818}, {"name": "Bais", "lat": 9.59111, "lng": 123.12278, "population": 88050}, {"name": "Arayat", "lat": 15.1505, "lng": 120.7697, "population": 87987}, {"name": "Surigao", "lat": 9.789, "lng": 125.495, "population": 87832}, {"name": "Tagaytay", "lat": 14.09532, "lng": 120.93355, "population": 87811}, {"name": "Dapitan", "lat": 8.6561, "lng": 123.4227, "population": 87699}, {"name": "Maco", "lat": 7.36194, "lng": 125.85528, "population": 87680}, {"name": "Bantayan", "lat": 11.1683, "lng": 123.7223, "population": 87394}, {"name": "Victorias", "lat": 10.90154, "lng": 123.0705, "population": 86510}, {"name": "Tagbilaran City", "lat": 9.65556, "lng": 123.85219, "population": 86411}, {"name": "Muñoz", "lat": 15.71611, "lng": 120.90306, "population": 85061}, {"name": "Tanjay", "lat": 9.5162, "lng": 123.158, "population": 84593}, {"name": "Binonga", "lat": 10.7719, "lng": 122.9817, "population": 83980}, {"name": "Marilao", "lat": 14.75778, "lng": 120.94833, "population": 83276}, {"name": "Bulacan", "lat": 14.79278, "lng": 120.87889, "population": 83101}, {"name": "San Fernando", "lat": 16.61591, "lng": 120.31663, "population": 83003}, {"name": "Malapatan", "lat": 5.96917, "lng": 125.28944, "population": 82577}, {"name": "Pagbilao", "lat": 13.96689, "lng": 121.69835, "population": 82132}, {"name": "Limay", "lat": 14.56194, "lng": 120.59833, "population": 81960}, {"name": "Lambayong", "lat": 6.51944, "lng": 125.04444, "population": 81288}, {"name": "Bustos", "lat": 14.95806, "lng": 120.91778, "population": 80565}, {"name": "Paco", "lat": 14.588, "lng": 120.993, "population": 79839}, {"name": "San Francisco", "lat": 8.53556, "lng": 125.95, "population": 79718}, {"name": "Kidapawan", "lat": 7.00833, "lng": 125.08944, "population": 79652}, {"name": "Tupi", "lat": 6.33444, "lng": 124.95278, "population": 78599}, {"name": "Bamban", "lat": 15.27386, "lng": 120.56683, "population": 78260}, {"name": "Daet", "lat": 14.1122, "lng": 122.9553, "population": 78142}, {"name": "Bauang", "lat": 16.53083, "lng": 120.33306, "population": 77670}, {"name": "Bagong Barrio", "lat": 14.66638, "lng": 120.99322, "population": 77490}, {"name": "Brookes Point", "lat": 8.77201, "lng": 117.8371, "population": 76715}, {"name": "Virac", "lat": 13.5848, "lng": 124.2374, "population": 75135}, {"name": "Alicia", "lat": 16.77936, "lng": 121.69734, "population": 74699}, {"name": "Sipalay", "lat": 9.75194, "lng": 122.40417, "population": 73847}, {"name": "Don Carlos", "lat": 7.68, "lng": 125.005, "population": 73592}, {"name": "Kawit", "lat": 14.44426, "lng": 120.90164, "population": 73210}, {"name": "Balanga", "lat": 14.67611, "lng": 120.53611, "population": 72954}, {"name": "Port Area", "lat": 14.58945, "lng": 120.96698, "population": 72605}, {"name": "Sagay", "lat": 10.94472, "lng": 123.42417, "population": 72153}, {"name": "La Paz", "lat": 15.44125, "lng": 120.72863, "population": 71978}, {"name": "Solana", "lat": 17.6528, "lng": 121.691, "population": 71475}, {"name": "Borongan", "lat": 11.60806, "lng": 125.43194, "population": 71431}, {"name": "Oroquieta", "lat": 8.4859, "lng": 123.8048, "population": 71373}, {"name": "Buenavista", "lat": 8.97694, "lng": 125.40889, "population": 70691}, {"name": "Mariano", "lat": 8.83333, "lng": 125.11667, "population": 70516}, {"name": "Danao", "lat": 10.52083, "lng": 124.02722, "population": 70270}, {"name": "Mauban", "lat": 14.191, "lng": 121.7309, "population": 70135}, {"name": "Indang", "lat": 14.19528, "lng": 120.87694, "population": 70092}, {"name": "Bongabon", "lat": 15.6321, "lng": 121.1448, "population": 69376}, {"name": "San Leonardo", "lat": 15.363, "lng": 120.9639, "population": 69180}, {"name": "Calauag", "lat": 13.9575, "lng": 122.288, "population": 68999}, {"name": "Magalang", "lat": 15.2151, "lng": 120.6596, "population": 68988}, {"name": "Libon", "lat": 13.2997, "lng": 123.4386, "population": 68846}, {"name": "Lupon", "lat": 6.89814, "lng": 126.00961, "population": 68717}, {"name": "Tanauan", "lat": 14.08627, "lng": 121.14975, "population": 68456}, {"name": "Aparri", "lat": 18.3566, "lng": 121.6406, "population": 68368}, {"name": "Calbayog City", "lat": 12.0668, "lng": 124.5962, "population": 67921}, {"name": "Angat", "lat": 14.9285, "lng": 121.03, "population": 67862}, {"name": "La Carlota", "lat": 10.4242, "lng": 122.9212, "population": 67740}, {"name": "Subic", "lat": 14.8787, "lng": 120.23194, "population": 67664}, {"name": "Rosales", "lat": 15.89444, "lng": 120.63278, "population": 67510}, {"name": "City of Isabela", "lat": 6.70407, "lng": 121.97117, "population": 67336}, {"name": "Dinalupihan", "lat": 14.87827, "lng": 120.45221, "population": 66670}, {"name": "Santa Cruz", "lat": 15.7654, "lng": 119.9092, "population": 66647}, {"name": "Calapan", "lat": 13.4117, "lng": 121.1803, "population": 66008}, {"name": "San Ildefonso", "lat": 15.0809, "lng": 120.941, "population": 65669}, {"name": "San Miguel", "lat": 15.1423, "lng": 120.97568, "population": 65661}, {"name": "Villasis", "lat": 15.90167, "lng": 120.58833, "population": 65086}, {"name": "Oas", "lat": 13.2593, "lng": 123.4963, "population": 64890}, {"name": "Talavera", "lat": 15.5883, "lng": 120.9192, "population": 64610}, {"name": "Enrique B. Magalona", "lat": 10.87879, "lng": 122.97707, "population": 64290}, {"name": "Polomolok", "lat": 6.22167, "lng": 125.06398, "population": 63987}, {"name": "Pateros", "lat": 14.5391, "lng": 121.0726, "population": 63840}, {"name": "Orion", "lat": 14.62056, "lng": 120.58167, "population": 63044}, {"name": "Nasugbu", "lat": 14.06694, "lng": 120.63181, "population": 62857}, {"name": "Tinongan", "lat": 10.215, "lng": 123.03528, "population": 62146}, {"name": "Minglanilla", "lat": 10.24498, "lng": 123.7964, "population": 62058}, {"name": "Malaybalay", "lat": 8.1575, "lng": 125.12778, "population": 61524}, {"name": "Tunasan", "lat": 14.37917, "lng": 121.0525, "population": 61374}, {"name": "Gubat", "lat": 12.92056, "lng": 124.12306, "population": 61095}, {"name": "Buluan", "lat": 6.72028, "lng": 124.80194, "population": 60931}, {"name": "Ualog", "lat": 10.57396, "lng": 123.3933, "population": 60548}, {"name": "Cogan", "lat": 10.59306, "lng": 124.01778, "population": 60230}, {"name": "Bambang", "lat": 16.3865, "lng": 121.1066, "population": 60146}, {"name": "Tanay", "lat": 14.4968, "lng": 121.2846, "population": 59950}, {"name": "Obando", "lat": 14.7098, "lng": 120.9362, "population": 59929}, {"name": "Balagtas", "lat": 14.81667, "lng": 120.86667, "population": 59826}, {"name": "Itogon", "lat": 16.36389, "lng": 120.67694, "population": 59736}, {"name": "Manaoag", "lat": 16.0438, "lng": 120.4861, "population": 59115}, {"name": "Jose Rizal", "lat": 8.87722, "lng": 117.50415, "population": 59040}, {"name": "Bañga", "lat": 6.42389, "lng": 124.77833, "population": 58855}, {"name": "Paombong", "lat": 14.83111, "lng": 120.78917, "population": 58453}, {"name": "Magsaysay", "lat": 6.76667, "lng": 125.18333, "population": 57936}, {"name": "Tabaco", "lat": 13.35861, "lng": 123.73361, "population": 57860}, {"name": "Santo Tomas", "lat": 14.1079, "lng": 121.14136, "population": 57438}, {"name": "Batac City", "lat": 18.0554, "lng": 120.56489, "population": 56781}, {"name": "Lingayen", "lat": 16.02182, "lng": 120.23194, "population": 56580}, {"name": "Masinloc", "lat": 15.5363, "lng": 119.9502, "population": 56579}, {"name": "Impasugong", "lat": 8.30972, "lng": 125.00194, "population": 55901}, {"name": "Lubao", "lat": 14.9405, "lng": 120.6011, "population": 55645}, {"name": "Naic", "lat": 14.31812, "lng": 120.76609, "population": 55195}, {"name": "Estancia", "lat": 11.4551, "lng": 123.152, "population": 54882}, {"name": "Burauen", "lat": 10.97556, "lng": 124.89278, "population": 54635}, {"name": "Sibonga", "lat": 10.0168, "lng": 123.6171, "population": 54610}, {"name": "Mercedes", "lat": 14.1093, "lng": 123.0109, "population": 53702}, {"name": "Zaragoza", "lat": 15.44903, "lng": 120.79627, "population": 53090}, {"name": "Patuto", "lat": 14.11667, "lng": 120.96667, "population": 52883}, {"name": "Kalamansig", "lat": 6.55187, "lng": 124.05111, "population": 52257}, {"name": "Maluñgun", "lat": 6.27917, "lng": 125.28167, "population": 52248}, {"name": "Victoria", "lat": 13.17722, "lng": 121.27806, "population": 52215}, {"name": "Cardona", "lat": 14.48646, "lng": 121.22752, "population": 51493}, {"name": "El Nido", "lat": 11.18583, "lng": 119.39556, "population": 51367}, {"name": "Siocon", "lat": 7.70611, "lng": 122.13528, "population": 51239}, {"name": "Bunawan", "lat": 8.16722, "lng": 125.99083, "population": 50999}, {"name": "Tubod", "lat": 8.0555, "lng": 123.7904, "population": 50395}, {"name": "Balayan", "lat": 13.93714, "lng": 120.73224, "population": 50115}, {"name": "Cabiao", "lat": 15.2488, "lng": 120.8548, "population": 49980}, {"name": "Morong", "lat": 14.51849, "lng": 121.23778, "population": 49589}, {"name": "Liloan", "lat": 10.3991, "lng": 123.9992, "population": 49198}, {"name": "Consolacion", "lat": 10.3766, "lng": 123.9573, "population": 48638}, {"name": "Vigan", "lat": 17.57472, "lng": 120.38694, "population": 48545}, {"name": "Inabanga", "lat": 10.0307, "lng": 124.0671, "population": 48534}, {"name": "Norala", "lat": 6.5225, "lng": 124.65917, "population": 48499}, {"name": "Bangued", "lat": 17.60833, "lng": 120.63806, "population": 48331}, {"name": "Bayombong", "lat": 16.4812, "lng": 121.1497, "population": 48199}, {"name": "Masbate", "lat": 12.37169, "lng": 123.62494, "population": 47490}, {"name": "Upper Bicutan", "lat": 14.4996, "lng": 121.0507, "population": 47397}, {"name": "Candaba", "lat": 15.0956, "lng": 120.8267, "population": 47326}, {"name": "Santa Ana", "lat": 15.0955, "lng": 120.767, "population": 47158}, {"name": "Noveleta", "lat": 14.42922, "lng": 120.87989, "population": 46172}, {"name": "Bugo", "lat": 8.50833, "lng": 124.75944, "population": 45787}, {"name": "Vinzons", "lat": 14.1737, "lng": 122.9066, "population": 45173}, {"name": "Sariaya", "lat": 13.9624, "lng": 121.5265, "population": 44977}, {"name": "Parang", "lat": 7.37035, "lng": 124.26973, "population": 44930}, {"name": "Orani", "lat": 14.8006, "lng": 120.5371, "population": 44877}, {"name": "Canlaon", "lat": 10.38697, "lng": 123.2227, "population": 44851}, {"name": "Hinatuan", "lat": 8.37222, "lng": 126.33417, "population": 44475}, {"name": "Amadeo", "lat": 14.17056, "lng": 120.92361, "population": 44190}, {"name": "Binmaley", "lat": 16.03232, "lng": 120.26904, "population": 44026}, {"name": "Mexico", "lat": 15.0646, "lng": 120.7198, "population": 43694}, {"name": "Samal", "lat": 7.07444, "lng": 125.70833, "population": 43526}, {"name": "Pinamalayan", "lat": 13.04603, "lng": 121.46205, "population": 43521}, {"name": "Passi", "lat": 11.10778, "lng": 122.64194, "population": 42794}, {"name": "Recodo", "lat": 6.95194, "lng": 121.96361, "population": 42788}, {"name": "Compostela", "lat": 7.67306, "lng": 126.08889, "population": 42563}, {"name": "Maragondon", "lat": 14.2733, "lng": 120.7377, "population": 41977}, {"name": "Masantol", "lat": 14.896, "lng": 120.7092, "population": 41278}, {"name": "Tagbina", "lat": 8.45194, "lng": 126.17139, "population": 41157}, {"name": "Malilipot", "lat": 13.3188, "lng": 123.7385, "population": 41066}, {"name": "Gerona", "lat": 15.6065, "lng": 120.5978, "population": 40914}, {"name": "Samal", "lat": 14.76778, "lng": 120.54306, "population": 40843}, {"name": "Carcar", "lat": 10.1061, "lng": 123.6402, "population": 40739}, {"name": "Mamatid", "lat": 14.2349, "lng": 121.15902, "population": 40271}, {"name": "Taal", "lat": 13.87992, "lng": 120.92311, "population": 39745}, {"name": "Jaen", "lat": 15.3275, "lng": 120.9192, "population": 39700}, {"name": "Camiling", "lat": 15.6866, "lng": 120.4128, "population": 39655}, {"name": "Hinigaran", "lat": 10.2706, "lng": 122.8507, "population": 39636}, {"name": "San Pascual", "lat": 13.81045, "lng": 121.022, "population": 39395}, {"name": "Pantubig", "lat": 14.96806, "lng": 120.95472, "population": 39285}, {"name": "Talipapa", "lat": 14.6857, "lng": 121.0269, "population": 39244}, {"name": "Papaya", "lat": 15.32016, "lng": 120.83574, "population": 38640}, {"name": "San Antonio", "lat": 14.94659, "lng": 120.08673, "population": 38617}, {"name": "Binalbagan", "lat": 10.1948, "lng": 122.8581, "population": 38587}, {"name": "Calaca", "lat": 13.93244, "lng": 120.81327, "population": 37443}, {"name": "Del Pilar", "lat": 15.03601, "lng": 120.69935, "population": 37329}, {"name": "Pandan", "lat": 11.74479, "lng": 122.10027, "population": 37325}, {"name": "Bantay", "lat": 17.58472, "lng": 120.38917, "population": 37088}, {"name": "Mendez-Nuñez", "lat": 14.12861, "lng": 120.90583, "population": 36518}, {"name": "Ramon", "lat": 16.78416, "lng": 121.53504, "population": 36307}, {"name": "Solano", "lat": 16.51918, "lng": 121.18124, "population": 36222}, {"name": "Bel Air", "lat": 14.5594, "lng": 121.0258, "population": 36007}, {"name": "Tagudin", "lat": 16.9355, "lng": 120.4442, "population": 35791}, {"name": "San Jose", "lat": 13.35, "lng": 123.55, "population": 35768}, {"name": "Abucay", "lat": 14.73347, "lng": 120.53358, "population": 35508}, {"name": "Jalajala", "lat": 14.353, "lng": 121.3225, "population": 34901}, {"name": "Teresa", "lat": 14.5612, "lng": 121.2195, "population": 34716}, {"name": "Pila", "lat": 14.2325, "lng": 121.3648, "population": 34383}, {"name": "Manapla", "lat": 10.95803, "lng": 123.123, "population": 34312}, {"name": "San Nicolas", "lat": 18.1725, "lng": 120.5953, "population": 34237}, {"name": "Aliaga", "lat": 15.5, "lng": 120.843, "population": 34020}, {"name": "Baclaran", "lat": 14.53194, "lng": 120.99417, "population": 33850}, {"name": "Hermosa", "lat": 14.8314, "lng": 120.5081, "population": 33714}, {"name": "Bauan", "lat": 13.7917, "lng": 121.0085, "population": 33560}, {"name": "Bay", "lat": 14.18368, "lng": 121.28554, "population": 33547}, {"name": "Jetafe", "lat": 10.14722, "lng": 124.15389, "population": 33485}, {"name": "San Luis", "lat": 15.0401, "lng": 120.7883, "population": 33467}, {"name": "Dupax Del Norte", "lat": 16.3079, "lng": 121.1062, "population": 33295}, {"name": "General Tinio", "lat": 15.35075, "lng": 121.04773, "population": 32875}, {"name": "Jagna", "lat": 9.6531, "lng": 124.3697, "population": 32566}, {"name": "Guimba", "lat": 15.6605, "lng": 120.7683, "population": 32306}, {"name": "Quiapo", "lat": 14.6, "lng": 120.9833, "population": 32236}, {"name": "San Narciso", "lat": 15.0143, "lng": 120.0803, "population": 32180}, {"name": "Kabacan", "lat": 7.10667, "lng": 124.82917, "population": 31769}, {"name": "Alaminos", "lat": 14.06391, "lng": 121.24649, "population": 31427}, {"name": "Maluso", "lat": 6.543, "lng": 121.8753, "population": 31374}, {"name": "General Salipada K. Pendatun", "lat": 6.82626, "lng": 124.72171, "population": 31263}, {"name": "Cabadbaran", "lat": 9.12261, "lng": 125.53549, "population": 31114}, {"name": "Pagaluñgan", "lat": 7.14167, "lng": 124.38056, "population": 31052}, {"name": "Lucban", "lat": 14.11356, "lng": 121.55574, "population": 30992}, {"name": "Aglipay", "lat": 16.4889, "lng": 121.645, "population": 30714}, {"name": "Paraiso", "lat": 10.8849, "lng": 123.3627, "population": 30494}, {"name": "Pililla", "lat": 14.4854, "lng": 121.3062, "population": 30408}, {"name": "Tagoloan", "lat": 8.53954, "lng": 124.75411, "population": 30390}, {"name": "Lumbang", "lat": 14.2973, "lng": 121.4598, "population": 30269}, {"name": "Buhi", "lat": 13.4322, "lng": 123.517, "population": 30126}, {"name": "Malvar", "lat": 14.04472, "lng": 121.15861, "population": 29880}, {"name": "Aringay", "lat": 16.394, "lng": 120.3545, "population": 29825}, {"name": "Tangub", "lat": 8.0618, "lng": 123.7477, "population": 29721}, {"name": "Bagong Pagasa", "lat": 14.6627, "lng": 121.0328, "population": 29389}, {"name": "Atimonan", "lat": 14.0027, "lng": 121.92078, "population": 29356}, {"name": "Cordova", "lat": 10.24394, "lng": 123.94222, "population": 29289}, {"name": "Mapun", "lat": 6.9747, "lng": 118.5144, "population": 29218}, {"name": "San Simon", "lat": 14.9996, "lng": 120.7808, "population": 29049}, {"name": "Tandag", "lat": 9.07833, "lng": 126.19861, "population": 29011}, {"name": "Agoo", "lat": 16.08333, "lng": 120.1, "population": 28972}, {"name": "Bah-Bah", "lat": 8.60722, "lng": 125.91444, "population": 28643}, {"name": "Pandacaqui", "lat": 15.1719, "lng": 120.65457, "population": 28603}, {"name": "Bulan", "lat": 12.67139, "lng": 123.875, "population": 28529}, {"name": "Majayjay", "lat": 14.1463, "lng": 121.4729, "population": 28504}, {"name": "Narra", "lat": 9.26877, "lng": 118.4043, "population": 28342}, {"name": "Burgos", "lat": 15.72892, "lng": 120.57224, "population": 28178}, {"name": "Sibulan", "lat": 9.3584, "lng": 123.285, "population": 28079}, {"name": "Santa Maria", "lat": 16.9518, "lng": 120.4445, "population": 28002}, {"name": "Sultan sa Barongis", "lat": 6.8, "lng": 124.63667, "population": 27929}, {"name": "Peñaranda", "lat": 15.35116, "lng": 121.00393, "population": 27465}, {"name": "Pulupandan", "lat": 10.51784, "lng": 122.80259, "population": 27363}, {"name": "Castillejos", "lat": 14.93363, "lng": 120.19785, "population": 27301}, {"name": "Iba", "lat": 15.3276, "lng": 119.978, "population": 26935}, {"name": "Paete", "lat": 14.3647, "lng": 121.4829, "population": 26855}, {"name": "Catanauan", "lat": 13.5926, "lng": 122.3215, "population": 26804}, {"name": "San Jose", "lat": 10.18, "lng": 125.56833, "population": 26735}, {"name": "Bongao", "lat": 5.02917, "lng": 119.77306, "population": 26518}, {"name": "Santa Catalina", "lat": 9.3337, "lng": 122.8637, "population": 26457}, {"name": "Sanchez-Mira", "lat": 18.56163, "lng": 121.23189, "population": 26292}, {"name": "San Antonio", "lat": 15.3062, "lng": 120.856, "population": 26247}, {"name": "Rizal", "lat": 15.7118, "lng": 121.1061, "population": 26201}, {"name": "Telabastagan", "lat": 15.11854, "lng": 120.60773, "population": 25935}, {"name": "Maao", "lat": 10.4896, "lng": 122.9907, "population": 25837}, {"name": "Lopez", "lat": 13.884, "lng": 122.2604, "population": 25752}, {"name": "Nabua", "lat": 13.4075, "lng": 123.3724, "population": 25687}, {"name": "Concepcion Ibaba", "lat": 13.92309, "lng": 121.46099, "population": 25628}, {"name": "Pangil", "lat": 14.4033, "lng": 121.46506, "population": 25318}, {"name": "Cabagan", "lat": 17.42782, "lng": 121.76955, "population": 25304}, {"name": "Ayala Alabang", "lat": 14.40599, "lng": 121.02222, "population": 25115}, {"name": "Talisay", "lat": 14.0925, "lng": 121.02194, "population": 24969}, {"name": "Baggabag B", "lat": 16.50588, "lng": 121.19014, "population": 24967}, {"name": "Manibaug Pasig", "lat": 15.09621, "lng": 120.56445, "population": 24618}, {"name": "Nagcarlan", "lat": 14.1364, "lng": 121.4165, "population": 24560}, {"name": "Victoria", "lat": 14.2277, "lng": 121.3292, "population": 24456}, {"name": "La Castellana", "lat": 10.3239, "lng": 123.0215, "population": 24407}, {"name": "Pio", "lat": 15.04741, "lng": 120.51891, "population": 24345}, {"name": "General Emilio Aguinaldo", "lat": 14.18417, "lng": 120.79583, "population": 24264}, {"name": "Glan", "lat": 5.82417, "lng": 125.20333, "population": 24256}, {"name": "Mamburao", "lat": 13.2233, "lng": 120.596, "population": 23892}, {"name": "Palayan City", "lat": 15.5415, "lng": 121.0848, "population": 23742}, {"name": "Al-Barka", "lat": 6.48623, "lng": 122.17552, "population": 23736}, {"name": "San Fernando", "lat": 10.1624, "lng": 123.7076, "population": 23706}, {"name": "Bogo", "lat": 11.0517, "lng": 124.0055, "population": 23562}, {"name": "Asia", "lat": 9.5506, "lng": 122.5164, "population": 23546}, {"name": "Bontoc", "lat": 17.08731, "lng": 120.97685, "population": 23466}, {"name": "Culion", "lat": 11.8904, "lng": 120.0222, "population": 23213}, {"name": "Pinamungahan", "lat": 10.2708, "lng": 123.5839, "population": 23068}, {"name": "Mansalay", "lat": 12.52044, "lng": 121.43851, "population": 23044}, {"name": "Botolan", "lat": 15.2896, "lng": 120.0245, "population": 22994}, {"name": "Guihulñgan", "lat": 10.11947, "lng": 123.27287, "population": 22931}, {"name": "Apas", "lat": 10.34076, "lng": 123.90261, "population": 22566}, {"name": "Gumaca", "lat": 13.921, "lng": 122.1002, "population": 22496}, {"name": "Bignay Uno", "lat": 13.86445, "lng": 121.48792, "population": 22401}, {"name": "Balamban", "lat": 10.5039, "lng": 123.7156, "population": 22283}, {"name": "Guiset East", "lat": 16.06667, "lng": 120.68333, "population": 21994}, {"name": "Loma de Gato", "lat": 14.78869, "lng": 120.99889, "population": 21990}, {"name": "Malanday", "lat": 14.7069, "lng": 121.1306, "population": 21901}, {"name": "Lake Sebu", "lat": 6.22482, "lng": 124.71042, "population": 21767}, {"name": "Porac", "lat": 15.0711, "lng": 120.5423, "population": 21660}, {"name": "Cuenca", "lat": 13.902, "lng": 121.0521, "population": 21558}, {"name": "Bansalan", "lat": 6.78611, "lng": 125.21333, "population": 21391}, {"name": "Inopacan", "lat": 10.4997, "lng": 124.7405, "population": 21389}, {"name": "Jose Pañganiban", "lat": 14.2906, "lng": 122.6917, "population": 21236}, {"name": "Dupax del Sur", "lat": 16.2838, "lng": 121.0896, "population": 21224}, {"name": "Sasmuan", "lat": 14.9438, "lng": 120.6229, "population": 21124}, {"name": "Molave", "lat": 8.0844, "lng": 123.491, "population": 21088}, {"name": "Goa", "lat": 13.6978, "lng": 123.4892, "population": 20936}, {"name": "Irosin", "lat": 12.70013, "lng": 124.03221, "population": 20716}, {"name": "New Corella", "lat": 7.5866, "lng": 125.8237, "population": 20574}, {"name": "Binondo", "lat": 14.603, "lng": 120.974, "population": 20491}, {"name": "Taloc", "lat": 10.5746, "lng": 122.8954, "population": 20409}, {"name": "Manay", "lat": 7.215, "lng": 126.53972, "population": 20336}, {"name": "Baras", "lat": 14.51691, "lng": 121.2658, "population": 20250}, {"name": "Danao", "lat": 9.55421, "lng": 123.75648, "population": 20245}, {"name": "Sampaloc", "lat": 14.5402, "lng": 121.3602, "population": 20157}, {"name": "Ternate", "lat": 14.2897, "lng": 120.7168, "population": 20049}, {"name": "Pacol", "lat": 10.45, "lng": 122.81667, "population": 19839}, {"name": "Talitay", "lat": 7.03333, "lng": 124.7, "population": 19750}, {"name": "Suay", "lat": 10.0533, "lng": 122.8423, "population": 19672}, {"name": "Baao", "lat": 13.4549, "lng": 123.3653, "population": 19612}, {"name": "San Francisco", "lat": 15.35566, "lng": 120.84001, "population": 19570}, {"name": "Malabanban Norte", "lat": 13.94521, "lng": 121.43065, "population": 19471}, {"name": "Laur", "lat": 15.5865, "lng": 121.1834, "population": 19206}, {"name": "Ipil", "lat": 7.78444, "lng": 122.58611, "population": 19195}, {"name": "Lagawe", "lat": 16.79997, "lng": 121.11924, "population": 19124}, {"name": "Malanday", "lat": 14.71694, "lng": 120.95806, "population": 19060}, {"name": "Nunungan", "lat": 7.8236, "lng": 123.965, "population": 18827}, {"name": "Sumag", "lat": 10.60139, "lng": 122.91924, "population": 18752}, {"name": "Compostela", "lat": 10.455, "lng": 124.0106, "population": 18727}, {"name": "San Marcelino", "lat": 14.97418, "lng": 120.15733, "population": 18721}, {"name": "San Mariano", "lat": 7.5, "lng": 126.0, "population": 18668}, {"name": "San Miguel", "lat": 15.44397, "lng": 120.59923, "population": 18582}, {"name": "Quezon", "lat": 15.5512, "lng": 120.8147, "population": 18451}, {"name": "General Mamerto Natividad", "lat": 15.6025, "lng": 121.0515, "population": 18393}, {"name": "Maasin", "lat": 10.13272, "lng": 124.84082, "population": 18313}, {"name": "Veruela", "lat": 8.0731, "lng": 125.9558, "population": 18114}, {"name": "Labo", "lat": 14.1532, "lng": 122.8303, "population": 18105}, {"name": "Wao", "lat": 7.68333, "lng": 124.66667, "population": 17845}, {"name": "Pilar", "lat": 14.66, "lng": 120.56528, "population": 17831}, {"name": "Laguilayan", "lat": 6.67213, "lng": 124.52491, "population": 17764}, {"name": "Baybay", "lat": 10.6785, "lng": 124.8006, "population": 17668}, {"name": "Palo", "lat": 11.1575, "lng": 124.99083, "population": 17534}, {"name": "Esperanza", "lat": 11.7365, "lng": 124.042, "population": 17534}, {"name": "Carigara", "lat": 11.29811, "lng": 124.67895, "population": 17495}, {"name": "Murcia", "lat": 10.60516, "lng": 123.0417, "population": 17448}, {"name": "Maganoy", "lat": 6.86472, "lng": 124.44167, "population": 17394}, {"name": "Sitangkai", "lat": 4.66115, "lng": 119.39647, "population": 17200}, {"name": "Mahayag", "lat": 8.1183, "lng": 123.4455, "population": 17144}, {"name": "Bato", "lat": 13.3528, "lng": 123.3677, "population": 16939}, {"name": "Tiwi", "lat": 13.4585, "lng": 123.6805, "population": 16826}, {"name": "Santa Maria", "lat": 6.55361, "lng": 125.47083, "population": 16758}, {"name": "Laoang", "lat": 12.5698, "lng": 125.0141, "population": 16725}, {"name": "Nabunturan", "lat": 7.60778, "lng": 125.96639, "population": 16671}, {"name": "Roxas", "lat": 17.11894, "lng": 121.62014, "population": 16618}, {"name": "Tanauan", "lat": 11.10944, "lng": 125.01556, "population": 16567}, {"name": "Cabayangan", "lat": 7.40722, "lng": 125.73306, "population": 16539}, {"name": "Jasaan", "lat": 8.65417, "lng": 124.75556, "population": 16435}, {"name": "Loboc", "lat": 9.63833, "lng": 124.03482, "population": 16312}, {"name": "Zumarraga", "lat": 11.6388, "lng": 124.8417, "population": 16279}, {"name": "San Mateo", "lat": 16.88206, "lng": 121.58694, "population": 16233}, {"name": "Aurora", "lat": 13.3476, "lng": 122.5195, "population": 16178}, {"name": "Morong", "lat": 14.67889, "lng": 120.26611, "population": 16117}, {"name": "San Vicente", "lat": 15.2921, "lng": 120.65498, "population": 16116}, {"name": "Calatagan", "lat": 13.83224, "lng": 120.63219, "population": 16110}, {"name": "Novaliches Proper", "lat": 14.72259, "lng": 121.04616, "population": 16096}, {"name": "Trento", "lat": 8.04583, "lng": 126.06361, "population": 15916}, {"name": "Isabela", "lat": 10.2048, "lng": 122.9888, "population": 15897}, {"name": "Mankayan", "lat": 16.8632, "lng": 120.7829, "population": 15886}, {"name": "Abuyog", "lat": 10.747, "lng": 125.0107, "population": 15632}, {"name": "Calumpang", "lat": 14.6228, "lng": 121.0897, "population": 15602}, {"name": "Talacogon", "lat": 8.45611, "lng": 125.78417, "population": 15581}, {"name": "Diadi", "lat": 16.7262, "lng": 121.3589, "population": 15567}, {"name": "Boroon", "lat": 8.18278, "lng": 124.17701, "population": 15490}, {"name": "Santa Barbara", "lat": 16.0009, "lng": 120.4023, "population": 15445}, {"name": "Santa Cruz", "lat": 14.9127, "lng": 120.56659, "population": 15408}, {"name": "Romblon", "lat": 12.57513, "lng": 122.27081, "population": 15316}, {"name": "Tagas", "lat": 13.16667, "lng": 123.71667, "population": 15292}, {"name": "Lilio", "lat": 14.1313, "lng": 121.4362, "population": 15246}, {"name": "Roxas", "lat": 10.3215, "lng": 119.3451, "population": 15242}, {"name": "Magarao", "lat": 13.6604, "lng": 123.1869, "population": 15205}, {"name": "Dologon", "lat": 7.84083, "lng": 125.04444, "population": 15128}, {"name": "Domalanoan", "lat": 16.00292, "lng": 120.21154, "population": 15108}, {"name": "Ramos", "lat": 15.6653, "lng": 120.6406, "population": 15066}, {"name": "Babo-Pangulo", "lat": 15.08333, "lng": 120.51667, "population": 15066}, {"name": "Pikit", "lat": 7.05444, "lng": 124.67194, "population": 14998}, {"name": "Poblacion, San Felipe", "lat": 15.06222, "lng": 120.07, "population": 14981}, {"name": "Guiljungan", "lat": 9.9805, "lng": 122.6742, "population": 14876}, {"name": "Lusacan", "lat": 13.95523, "lng": 121.34477, "population": 14870}, {"name": "New Visayas", "lat": 7.52333, "lng": 125.62333, "population": 14758}, {"name": "Agusan", "lat": 8.49056, "lng": 124.73722, "population": 14756}, {"name": "Lalig", "lat": 13.98255, "lng": 121.32647, "population": 14729}, {"name": "Sangali", "lat": 7.06944, "lng": 122.20139, "population": 14727}, {"name": "Santa Elena", "lat": 14.17023, "lng": 122.38246, "population": 14641}, {"name": "Buayan", "lat": 6.11639, "lng": 125.23472, "population": 14607}, {"name": "Margosatubig", "lat": 7.5777, "lng": 123.1658, "population": 14605}, {"name": "Kansipati", "lat": 6.00111, "lng": 121.23444, "population": 14552}, {"name": "Bigaa", "lat": 13.1993, "lng": 123.7566, "population": 14510}, {"name": "Kalilangan", "lat": 7.74514, "lng": 124.74777, "population": 14456}, {"name": "Belison", "lat": 10.8384, "lng": 121.9605, "population": 14433}, {"name": "Eustaquio Lopez", "lat": 10.8195, "lng": 123.0412, "population": 14408}, {"name": "Oton", "lat": 10.69306, "lng": 122.47361, "population": 14395}, {"name": "Roxas", "lat": 12.5835, "lng": 121.5176, "population": 14335}, {"name": "Dalipuga", "lat": 8.31583, "lng": 124.25472, "population": 14242}, {"name": "Bacacay", "lat": 13.2934, "lng": 123.7919, "population": 14109}, {"name": "Bulihan", "lat": 14.2782, "lng": 120.99503, "population": 13979}, {"name": "Dalican", "lat": 6.96667, "lng": 124.4, "population": 13918}, {"name": "Ocaña", "lat": 10.0656, "lng": 123.6244, "population": 13898}, {"name": "Makilala", "lat": 6.95167, "lng": 125.09694, "population": 13829}, {"name": "Manggahan", "lat": 14.29196, "lng": 120.90145, "population": 13825}, {"name": "Bansud", "lat": 12.865, "lng": 121.45639, "population": 13758}, {"name": "Casisang", "lat": 8.13806, "lng": 125.125, "population": 13722}, {"name": "Bula", "lat": 13.4701, "lng": 123.278, "population": 13694}, {"name": "Maranding", "lat": 7.9248, "lng": 123.7715, "population": 13694}, {"name": "Magapit, Aguiguican", "lat": 18.10788, "lng": 121.67705, "population": 13659}, {"name": "Nibaliw Central", "lat": 16.1275, "lng": 120.4027, "population": 13631}, {"name": "Lianga", "lat": 8.63361, "lng": 126.09472, "population": 13623}, {"name": "Pagsañgahan", "lat": 13.21583, "lng": 122.54306, "population": 13573}, {"name": "Minalin", "lat": 14.9676, "lng": 120.6828, "population": 13527}, {"name": "Pio Duran", "lat": 13.02928, "lng": 123.44496, "population": 13249}, {"name": "Buco", "lat": 14.08323, "lng": 120.99016, "population": 13217}, {"name": "Tucuran", "lat": 7.8524, "lng": 123.5743, "population": 13148}, {"name": "Payocpoc Sur", "lat": 16.49444, "lng": 120.32806, "population": 13107}, {"name": "Lutayan", "lat": 6.6189, "lng": 124.88156, "population": 13080}, {"name": "Codcod", "lat": 10.46337, "lng": 123.2495, "population": 13026}, {"name": "Toboso", "lat": 10.71435, "lng": 123.5162, "population": 13006}, {"name": "Labuan", "lat": 7.09972, "lng": 121.90417, "population": 12949}, {"name": "Sipocot", "lat": 13.768, "lng": 122.9762, "population": 12916}, {"name": "Janiuay", "lat": 10.9493, "lng": 122.5061, "population": 12896}, {"name": "Agutaya", "lat": 11.148, "lng": 120.9417, "population": 12867}, {"name": "Malandag", "lat": 6.3103, "lng": 125.24756, "population": 12867}, {"name": "Urbiztondo", "lat": 15.8227, "lng": 120.3295, "population": 12734}, {"name": "Tigbauan", "lat": 10.67466, "lng": 122.3776, "population": 12659}, {"name": "Caburan", "lat": 5.91806, "lng": 125.64111, "population": 12618}, {"name": "Magsaysay", "lat": 9.3859, "lng": 118.5133, "population": 12603}, {"name": "Project 6", "lat": 14.6591, "lng": 121.0395, "population": 12595}, {"name": "Siasi", "lat": 5.5462, "lng": 120.8145, "population": 12566}, {"name": "South Upi", "lat": 6.83333, "lng": 124.15, "population": 12538}, {"name": "Tigaon", "lat": 13.6331, "lng": 123.4968, "population": 12509}, {"name": "Guihing Proper", "lat": 6.68444, "lng": 125.3525, "population": 12466}, {"name": "Barra", "lat": 8.51028, "lng": 124.60444, "population": 12442}, {"name": "San Mariano", "lat": 16.98265, "lng": 122.01404, "population": 12441}, {"name": "Mabitac", "lat": 14.4259, "lng": 121.429, "population": 12398}, {"name": "Mangatarem", "lat": 15.7874, "lng": 120.2921, "population": 12392}, {"name": "Amuñgan", "lat": 15.3652, "lng": 119.9582, "population": 12357}, {"name": "Balabag", "lat": 11.97, "lng": 121.91917, "population": 12296}, {"name": "Buluangan", "lat": 10.38707, "lng": 123.3381, "population": 12249}, {"name": "Naval", "lat": 11.56056, "lng": 124.3975, "population": 12217}, {"name": "Palompon", "lat": 11.0508, "lng": 124.3843, "population": 12087}, {"name": "Biao", "lat": 7.16333, "lng": 125.52111, "population": 12043}, {"name": "Bugallon", "lat": 15.9528, "lng": 120.2155, "population": 12033}, {"name": "Bulalacao", "lat": 12.32535, "lng": 121.34351, "population": 12027}, {"name": "Mariana", "lat": 14.6172, "lng": 121.0361, "population": 11967}, {"name": "Nattapian", "lat": 17.67536, "lng": 121.70296, "population": 11867}, {"name": "Aguisan", "lat": 10.1603, "lng": 122.8615, "population": 11798}, {"name": "Pamplona", "lat": 9.4724, "lng": 123.1192, "population": 11772}, {"name": "Baculongan", "lat": 16.8, "lng": 120.8333, "population": 11742}, {"name": "Medellin", "lat": 11.1286, "lng": 123.9622, "population": 11741}, {"name": "Cambanugoy", "lat": 7.5413, "lng": 125.7553, "population": 11693}, {"name": "Libog", "lat": 13.2349, "lng": 123.7778, "population": 11692}, {"name": "Santa Rosa", "lat": 15.4238, "lng": 120.9378, "population": 11683}, {"name": "Quezon", "lat": 10.43617, "lng": 123.2604, "population": 11681}, {"name": "Barotac Nuevo", "lat": 10.89417, "lng": 122.70444, "population": 11641}, {"name": "Tayug", "lat": 16.0274, "lng": 120.7434, "population": 11611}, {"name": "Lun Pequeño", "lat": 6.03778, "lng": 125.28389, "population": 11541}, {"name": "Trapiche", "lat": 10.68417, "lng": 122.43222, "population": 11539}, {"name": "Manukan", "lat": 8.53333, "lng": 123.1, "population": 11523}, {"name": "Santa Ignacia", "lat": 15.6169, "lng": 120.4358, "population": 11477}, {"name": "Calintaan", "lat": 12.56667, "lng": 120.93333, "population": 11476}, {"name": "Titay", "lat": 7.8125, "lng": 122.53444, "population": 11468}, {"name": "Malaya", "lat": 14.3971, "lng": 121.3385, "population": 11442}, {"name": "Padada", "lat": 6.64111, "lng": 125.345, "population": 11439}, {"name": "Pigcawayan", "lat": 7.27722, "lng": 124.42556, "population": 11420}, {"name": "Sapang", "lat": 15.7032, "lng": 120.5245, "population": 11373}, {"name": "Bilog-Bilog", "lat": 14.11361, "lng": 121.08861, "population": 11342}, {"name": "Luna", "lat": 10.969, "lng": 123.2419, "population": 11312}, {"name": "Tibigan", "lat": 9.9518, "lng": 123.9622, "population": 11262}, {"name": "Candon", "lat": 17.19472, "lng": 120.45167, "population": 11236}, {"name": "Magapit", "lat": 18.13741, "lng": 121.66942, "population": 11235}, {"name": "Talibon", "lat": 10.14917, "lng": 124.325, "population": 11209}, {"name": "Mapandan", "lat": 16.0248, "lng": 120.4547, "population": 11165}, {"name": "Caminauit", "lat": 12.33135, "lng": 121.08251, "population": 11161}, {"name": "Lourdes", "lat": 14.96667, "lng": 120.68333, "population": 11155}, {"name": "Guadalupe", "lat": 10.1165, "lng": 123.6072, "population": 11121}, {"name": "San Narciso", "lat": 13.5677, "lng": 122.5667, "population": 11118}, {"name": "Tuyum", "lat": 9.9769, "lng": 122.5582, "population": 11117}, {"name": "Bulog", "lat": 15.9602, "lng": 120.4017, "population": 11103}, {"name": "Bangar", "lat": 16.8936, "lng": 120.4243, "population": 11068}, {"name": "Guadalupe", "lat": 10.45447, "lng": 123.3732, "population": 11053}, {"name": "Guiuan", "lat": 11.03088, "lng": 125.72342, "population": 11041}, {"name": "Del Monte", "lat": 14.6418, "lng": 121.0177, "population": 11035}, {"name": "Carranglan", "lat": 15.9613, "lng": 121.0641, "population": 11017}, {"name": "Lupao", "lat": 15.8793, "lng": 120.8983, "population": 11000}, {"name": "Damilag", "lat": 8.35472, "lng": 124.81222, "population": 11000}, {"name": "Quisao", "lat": 14.4347, "lng": 121.3344, "population": 10989}, {"name": "Kiamba", "lat": 5.98944, "lng": 124.62417, "population": 10979}, {"name": "Perrelos", "lat": 10.1169, "lng": 123.6738, "population": 10971}, {"name": "Buanoy", "lat": 10.46746, "lng": 123.6999, "population": 10955}, {"name": "Suyo", "lat": 16.9762, "lng": 120.5254, "population": 10943}, {"name": "President Roxas", "lat": 7.15444, "lng": 125.05583, "population": 10879}, {"name": "Halapitan", "lat": 7.9175, "lng": 125.33, "population": 10870}, {"name": "Pambujan", "lat": 12.5642, "lng": 124.9276, "population": 10812}, {"name": "Labangan", "lat": 7.8654, "lng": 123.5123, "population": 10780}, {"name": "Pulo", "lat": 15.246, "lng": 120.9285, "population": 10776}, {"name": "Cabinuangan", "lat": 7.68333, "lng": 126.03333, "population": 10776}, {"name": "Dao", "lat": 11.3937, "lng": 122.6856, "population": 10743}, {"name": "Astorga", "lat": 6.90722, "lng": 125.45583, "population": 10712}, {"name": "Pakil", "lat": 14.3835, "lng": 121.4786, "population": 10693}, {"name": "Masalukot Uno", "lat": 13.95533, "lng": 121.41887, "population": 10667}, {"name": "Katipunan", "lat": 7.5825, "lng": 122.83056, "population": 10637}, {"name": "Halayhay", "lat": 14.37389, "lng": 120.81333, "population": 10630}, {"name": "Claveria", "lat": 18.60742, "lng": 121.08322, "population": 10618}, {"name": "Baloc", "lat": 15.6435, "lng": 120.8852, "population": 10566}, {"name": "Pasacao", "lat": 13.5118, "lng": 123.0426, "population": 10531}, {"name": "San Jacinto", "lat": 16.0726, "lng": 120.4383, "population": 10529}, {"name": "Panacan", "lat": 9.24627, "lng": 118.4082, "population": 10526}, {"name": "Alaminos", "lat": 16.15611, "lng": 119.98111, "population": 10488}, {"name": "Placer", "lat": 9.65814, "lng": 125.60153, "population": 10443}, {"name": "Tantangan", "lat": 6.615, "lng": 124.74889, "population": 10337}, {"name": "Tinambac", "lat": 13.8164, "lng": 123.3261, "population": 10299}, {"name": "Ligao", "lat": 13.21697, "lng": 123.51924, "population": 10295}, {"name": "Rajal Norte", "lat": 15.44485, "lng": 120.86256, "population": 10281}, {"name": "Siquijor", "lat": 9.2142, "lng": 123.515, "population": 10259}, {"name": "Carmen", "lat": 15.88642, "lng": 120.59984, "population": 10250}, {"name": "Pototan", "lat": 10.9437, "lng": 122.6352, "population": 10195}, {"name": "Vallehermoso", "lat": 10.3349, "lng": 123.3259, "population": 10179}, {"name": "Cagsiay", "lat": 14.21667, "lng": 121.75, "population": 10173}, {"name": "Dulag", "lat": 10.9525, "lng": 125.03167, "population": 10151}, {"name": "Montevista", "lat": 7.69333, "lng": 125.98889, "population": 10147}, {"name": "Pasil", "lat": 17.38333, "lng": 121.13333, "population": 10109}, {"name": "Baganga", "lat": 7.57389, "lng": 126.56, "population": 10106}, {"name": "Mambajao", "lat": 9.2504, "lng": 124.7156, "population": 10058}, {"name": "Anuling", "lat": 6.03556, "lng": 121.00667, "population": 10039}, {"name": "Inayauan", "lat": 9.9005, "lng": 122.434, "population": 9963}, {"name": "Pilar", "lat": 11.487, "lng": 122.9963, "population": 9957}, {"name": "Bato", "lat": 10.32778, "lng": 124.79111, "population": 9952}, {"name": "Initao", "lat": 8.49972, "lng": 124.30389, "population": 9922}, {"name": "Barobo", "lat": 8.53528, "lng": 126.12139, "population": 9893}, {"name": "Balabac", "lat": 7.98363, "lng": 117.04868, "population": 9881}, {"name": "San Manuel", "lat": 17.02375, "lng": 121.63574, "population": 9865}, {"name": "Santa Cruz", "lat": 13.4758, "lng": 122.0275, "population": 9863}, {"name": "Dancalan", "lat": 9.9821, "lng": 122.7386, "population": 9863}, {"name": "Carmen", "lat": 7.36056, "lng": 125.70639, "population": 9833}, {"name": "Santa Cruz", "lat": 13.0736, "lng": 120.7226, "population": 9826}, {"name": "San Enrique", "lat": 10.4161, "lng": 122.8504, "population": 9818}, {"name": "Aguilar", "lat": 15.8884, "lng": 120.2378, "population": 9801}, {"name": "Sapu Padidu", "lat": 5.91722, "lng": 125.26694, "population": 9789}, {"name": "Matalam", "lat": 7.08639, "lng": 124.90056, "population": 9783}, {"name": "Cavinti", "lat": 14.24482, "lng": 121.50797, "population": 9758}, {"name": "Maddela", "lat": 16.3414, "lng": 121.6849, "population": 9751}, {"name": "Socorro", "lat": 9.61806, "lng": 125.96598, "population": 9743}, {"name": "Santa Rita Aplaya", "lat": 13.77173, "lng": 121.03492, "population": 9737}, {"name": "Bahay Pare", "lat": 15.03238, "lng": 120.88083, "population": 9726}, {"name": "Balingasag", "lat": 8.74417, "lng": 124.77694, "population": 9722}, {"name": "Laurel", "lat": 14.05542, "lng": 120.91932, "population": 9720}, {"name": "Batobato", "lat": 6.82522, "lng": 126.08458, "population": 9714}, {"name": "Nangka", "lat": 9.4023, "lng": 122.8244, "population": 9708}, {"name": "Parang", "lat": 5.9137, "lng": 120.9056, "population": 9681}, {"name": "Nalundan", "lat": 9.75, "lng": 123.06667, "population": 9674}, {"name": "Kapatagan", "lat": 7.9003, "lng": 123.7692, "population": 9664}, {"name": "Santo Niño", "lat": 6.435, "lng": 124.6975, "population": 9662}, {"name": "Vitali", "lat": 7.37111, "lng": 122.28861, "population": 9653}, {"name": "Jaclupan", "lat": 10.30138, "lng": 123.8165, "population": 9652}, {"name": "Enrile", "lat": 17.5596, "lng": 121.6974, "population": 9650}, {"name": "Basco", "lat": 20.44865, "lng": 121.97017, "population": 9647}, {"name": "Bacarra", "lat": 18.2529, "lng": 120.6125, "population": 9636}, {"name": "San Roque Dau First", "lat": 14.97711, "lng": 120.57688, "population": 9621}, {"name": "Santo Niño", "lat": 7.62361, "lng": 125.62528, "population": 9611}, {"name": "Tulunan", "lat": 6.83444, "lng": 124.87694, "population": 9584}, {"name": "Canubing No 2", "lat": 13.35, "lng": 121.13333, "population": 9569}, {"name": "Palangue", "lat": 14.28417, "lng": 120.81139, "population": 9567}, {"name": "Lu-uk", "lat": 5.9684, "lng": 121.3122, "population": 9558}, {"name": "San Nicolas", "lat": 15.5841, "lng": 120.6765, "population": 9526}, {"name": "Guagua", "lat": 14.9653, "lng": 120.6325, "population": 9519}, {"name": "Calatrava", "lat": 10.59496, "lng": 123.4838, "population": 9489}, {"name": "Quezon", "lat": 17.31303, "lng": 121.60654, "population": 9485}, {"name": "Loon", "lat": 9.7998, "lng": 123.7929, "population": 9484}, {"name": "Alfonso", "lat": 14.14083, "lng": 120.85389, "population": 9446}, {"name": "Ibaan", "lat": 13.8176, "lng": 121.133, "population": 9430}, {"name": "Dalumangcob", "lat": 7.21667, "lng": 124.3, "population": 9424}, {"name": "Cantilan", "lat": 9.33361, "lng": 125.9775, "population": 9408}, {"name": "Nasipit", "lat": 8.96917, "lng": 125.29472, "population": 9407}, {"name": "Magsaysay", "lat": 12.33333, "lng": 121.15, "population": 9407}, {"name": "Upi", "lat": 7.02583, "lng": 124.16667, "population": 9358}, {"name": "Cabaritan East", "lat": 18.41781, "lng": 121.48872, "population": 9348}, {"name": "Manalongon", "lat": 9.2209, "lng": 122.886, "population": 9321}, {"name": "Pulungmasle", "lat": 15.0004, "lng": 120.55774, "population": 9277}, {"name": "Dolores", "lat": 12.0371, "lng": 125.4825, "population": 9274}, {"name": "Lala", "lat": 7.97306, "lng": 123.74722, "population": 9273}, {"name": "Dos Hermanas", "lat": 10.7421, "lng": 123.0377, "population": 9270}, {"name": "Sison", "lat": 16.17389, "lng": 120.51528, "population": 9256}, {"name": "Balucuc", "lat": 14.95282, "lng": 120.81452, "population": 9214}, {"name": "Medina", "lat": 8.91222, "lng": 125.02444, "population": 9201}, {"name": "Lambakin", "lat": 14.75, "lng": 120.86667, "population": 9193}, {"name": "Bonawon", "lat": 9.134, "lng": 122.9193, "population": 9189}, {"name": "General Luna", "lat": 13.6866, "lng": 122.1709, "population": 9177}, {"name": "Real", "lat": 14.66397, "lng": 121.60412, "population": 9163}, {"name": "Aurora", "lat": 7.9506, "lng": 123.5826, "population": 9157}, {"name": "Payao", "lat": 10.1785, "lng": 122.9236, "population": 9137}, {"name": "San Isidro", "lat": 9.91667, "lng": 123.88333, "population": 9125}, {"name": "Gamay", "lat": 12.38542, "lng": 125.29791, "population": 9125}, {"name": "Andop", "lat": 7.86111, "lng": 125.75389, "population": 9095}, {"name": "Ambulong", "lat": 14.08804, "lng": 121.06127, "population": 9074}, {"name": "Tampakan", "lat": 6.49034, "lng": 125.08275, "population": 9048}, {"name": "Lagonglong", "lat": 8.80722, "lng": 124.79028, "population": 9043}, {"name": "Castañas", "lat": 13.8744, "lng": 121.5533, "population": 9040}, {"name": "Bangkirohan", "lat": 13.0553, "lng": 123.7468, "population": 9040}, {"name": "Palampas", "lat": 10.52506, "lng": 123.4208, "population": 9037}, {"name": "Corocotan", "lat": 7.3998, "lng": 125.7727, "population": 9025}, {"name": "Oras", "lat": 12.1406, "lng": 125.4397, "population": 9022}, {"name": "Sibulan", "lat": 6.93361, "lng": 125.46222, "population": 9021}, {"name": "Bogo", "lat": 9.85686, "lng": 123.56417, "population": 9019}, {"name": "Ragay", "lat": 13.8183, "lng": 122.7923, "population": 9000}, {"name": "Lunao", "lat": 8.85028, "lng": 125.05639, "population": 8995}, {"name": "San Francisco", "lat": 10.6461, "lng": 124.3816, "population": 8989}, {"name": "Paradahan", "lat": 14.32123, "lng": 120.86059, "population": 8977}, {"name": "Dumangas", "lat": 10.825, "lng": 122.713, "population": 8959}, {"name": "Rio Tuba", "lat": 8.50613, "lng": 117.43169, "population": 8944}, {"name": "Tungao", "lat": 8.77841, "lng": 125.5683, "population": 8910}, {"name": "Concepcion", "lat": 10.692, "lng": 123.0608, "population": 8903}, {"name": "Languyan", "lat": 5.2618, "lng": 120.0807, "population": 8900}, {"name": "Asingan", "lat": 16.0051, "lng": 120.6695, "population": 8887}, {"name": "Alcala", "lat": 15.84722, "lng": 120.52417, "population": 8883}, {"name": "Subic", "lat": 13.94859, "lng": 120.94013, "population": 8881}, {"name": "New Batu Batu", "lat": 5.06667, "lng": 119.88333, "population": 8881}, {"name": "Miagao", "lat": 10.6442, "lng": 122.2352, "population": 8881}, {"name": "Lepa", "lat": 15.88438, "lng": 120.45089, "population": 8877}, {"name": "Hungduan", "lat": 16.83566, "lng": 121.00524, "population": 8866}, {"name": "Cauayan", "lat": 9.9718, "lng": 122.6249, "population": 8855}, {"name": "Dapa", "lat": 9.75606, "lng": 126.05164, "population": 8823}, {"name": "Milaor", "lat": 13.5961, "lng": 123.1772, "population": 8809}, {"name": "Damulog", "lat": 7.48361, "lng": 124.94306, "population": 8789}, {"name": "Carmen", "lat": 7.20444, "lng": 124.79167, "population": 8759}, {"name": "Mercedes", "lat": 6.95861, "lng": 122.14833, "population": 8729}, {"name": "Coron", "lat": 11.9986, "lng": 120.2043, "population": 8723}, {"name": "Langcangan", "lat": 8.47944, "lng": 123.75583, "population": 8707}, {"name": "Ajuy", "lat": 11.1724, "lng": 123.0197, "population": 8695}, {"name": "Santo Cristo", "lat": 15.29683, "lng": 120.89025, "population": 8664}, {"name": "Balete", "lat": 14.01983, "lng": 121.09506, "population": 8662}, {"name": "Sampao", "lat": 7.59389, "lng": 125.66111, "population": 8648}, {"name": "Santa Lucia", "lat": 15.36806, "lng": 120.48643, "population": 8642}, {"name": "Bialong", "lat": 6.98056, "lng": 124.88889, "population": 8639}, {"name": "Santa Barbara", "lat": 10.82306, "lng": 122.53444, "population": 8629}, {"name": "Nieves", "lat": 15.32842, "lng": 120.94892, "population": 8617}, {"name": "Barotac Viejo", "lat": 11.04194, "lng": 122.85222, "population": 8611}, {"name": "Alicante", "lat": 10.89704, "lng": 123.0185, "population": 8607}, {"name": "Casiguran", "lat": 12.87374, "lng": 124.00759, "population": 8605}, {"name": "Tuy", "lat": 14.0183, "lng": 120.7296, "population": 8603}, {"name": "Isabel", "lat": 10.9267, "lng": 124.434, "population": 8597}, {"name": "Cuyapo", "lat": 15.78194, "lng": 120.66472, "population": 8595}, {"name": "Pilar", "lat": 12.9231, "lng": 123.6724, "population": 8591}, {"name": "Balete", "lat": 13.01917, "lng": 124.03194, "population": 8588}, {"name": "Naguilian", "lat": 17.02315, "lng": 121.83704, "population": 8560}, {"name": "Buug", "lat": 7.7294, "lng": 123.0598, "population": 8558}, {"name": "Alfonso Castañeda", "lat": 15.8006, "lng": 121.3054, "population": 8539}, {"name": "Conel", "lat": 6.20222, "lng": 125.18722, "population": 8519}, {"name": "Kalawit", "lat": 8.06667, "lng": 122.51667, "population": 8499}, {"name": "Maitum", "lat": 6.03917, "lng": 124.49861, "population": 8478}, {"name": "Katangawan", "lat": 6.17222, "lng": 125.22139, "population": 8476}, {"name": "Malangas", "lat": 7.63028, "lng": 123.03167, "population": 8473}, {"name": "Capoocan", "lat": 11.29333, "lng": 124.64194, "population": 8473}, {"name": "Naga", "lat": 7.77028, "lng": 122.75083, "population": 8461}, {"name": "San Miguel", "lat": 10.78, "lng": 122.46556, "population": 8438}, {"name": "Ligaya", "lat": 12.65993, "lng": 120.89231, "population": 8431}, {"name": "Awang", "lat": 7.15306, "lng": 124.22111, "population": 8417}, {"name": "Palapag", "lat": 12.5458, "lng": 125.1147, "population": 8342}, {"name": "Manicahan", "lat": 7.01944, "lng": 122.20111, "population": 8337}, {"name": "Lasang", "lat": 7.26694, "lng": 125.665, "population": 8318}, {"name": "Bolo", "lat": 13.78991, "lng": 120.98173, "population": 8310}, {"name": "Tampakan", "lat": 4.92278, "lng": 119.79389, "population": 8306}, {"name": "Banaybanay", "lat": 13.9331, "lng": 121.1151, "population": 8304}, {"name": "Sogod", "lat": 10.3847, "lng": 124.9814, "population": 8303}, {"name": "Tamugan", "lat": 7.23083, "lng": 125.37639, "population": 8291}, {"name": "Paracale", "lat": 14.2804, "lng": 122.7881, "population": 8290}, {"name": "Jordan", "lat": 10.65836, "lng": 122.5963, "population": 8255}, {"name": "Gupitan", "lat": 7.77583, "lng": 125.64056, "population": 8235}, {"name": "Sibul", "lat": 15.169, "lng": 121.0616, "population": 8225}, {"name": "Carmen", "lat": 9.8223, "lng": 124.1964, "population": 8214}, {"name": "Tuburan", "lat": 6.64389, "lng": 122.27361, "population": 8204}, {"name": "Datu Piang", "lat": 7.02833, "lng": 124.5025, "population": 8178}, {"name": "Bauan", "lat": 17.72256, "lng": 121.68028, "population": 8165}, {"name": "Binalonan", "lat": 16.0503, "lng": 120.5926, "population": 8145}, {"name": "Sagang", "lat": 10.3612, "lng": 123.0722, "population": 8136}, {"name": "Dalaguete", "lat": 9.7612, "lng": 123.5349, "population": 8135}, {"name": "Bolanon", "lat": 10.9171, "lng": 123.4734, "population": 8127}, {"name": "San Basilio", "lat": 15.03341, "lng": 120.58427, "population": 8125}, {"name": "Laminusa", "lat": 5.5549, "lng": 120.9136, "population": 8113}, {"name": "Salinungan Proper", "lat": 16.86906, "lng": 121.61454, "population": 8110}, {"name": "Kisolon", "lat": 8.33, "lng": 124.97694, "population": 8105}, {"name": "Alangalang", "lat": 11.20611, "lng": 124.84667, "population": 8096}, {"name": "Alejal", "lat": 7.38417, "lng": 125.66, "population": 8075}, {"name": "Echague", "lat": 16.70509, "lng": 121.67633, "population": 8058}, {"name": "San Pablo", "lat": 10.91234, "lng": 123.1418, "population": 8046}, {"name": "Molugan", "lat": 8.5375, "lng": 124.56222, "population": 8043}, {"name": "Miranda", "lat": 10.3047, "lng": 122.8778, "population": 8040}, {"name": "Pagsanghan", "lat": 11.9657, "lng": 124.7212, "population": 8024}, {"name": "Bulacnin", "lat": 13.9903, "lng": 121.139, "population": 7985}, {"name": "Talagutong", "lat": 6.26444, "lng": 125.66778, "population": 7983}, {"name": "Sigaboy", "lat": 6.65413, "lng": 126.07268, "population": 7981}, {"name": "Aritao", "lat": 16.2979, "lng": 121.0345, "population": 7971}, {"name": "Manticao", "lat": 8.40417, "lng": 124.28667, "population": 7956}, {"name": "Tubay", "lat": 9.16694, "lng": 125.52389, "population": 7946}, {"name": "Jaro", "lat": 11.18375, "lng": 124.78267, "population": 7935}, {"name": "Kibungan", "lat": 16.695, "lng": 120.6553, "population": 7912}, {"name": "Alabat", "lat": 14.101, "lng": 122.0125, "population": 7910}, {"name": "Llorente", "lat": 11.41194, "lng": 125.54583, "population": 7908}, {"name": "Silway 7", "lat": 6.17711, "lng": 125.12068, "population": 7893}, {"name": "Tubod", "lat": 7.37167, "lng": 125.64472, "population": 7871}, {"name": "Pontevedra", "lat": 10.3746, "lng": 122.8682, "population": 7865}, {"name": "Lumbia", "lat": 8.39583, "lng": 124.59389, "population": 7863}, {"name": "Talakag", "lat": 8.23361, "lng": 124.60028, "population": 7860}, {"name": "Quezon", "lat": 9.24111, "lng": 118.03139, "population": 7860}, {"name": "Basey", "lat": 11.28205, "lng": 125.06986, "population": 7844}, {"name": "Tibanbang", "lat": 6.63153, "lng": 126.10548, "population": 7838}, {"name": "Camingawan", "lat": 9.8958, "lng": 122.8625, "population": 7820}, {"name": "Pitogo", "lat": 13.7838, "lng": 122.0902, "population": 7817}, {"name": "Catmon", "lat": 10.71667, "lng": 124.0, "population": 7812}, {"name": "Mabini", "lat": 15.6, "lng": 120.98333, "population": 7810}, {"name": "Cataingan", "lat": 12.003, "lng": 123.992, "population": 7809}, {"name": "Tutay", "lat": 10.2463, "lng": 123.5805, "population": 7808}, {"name": "Olingan", "lat": 8.5381, "lng": 123.3216, "population": 7806}, {"name": "Luna", "lat": 9.737, "lng": 125.4976, "population": 7799}, {"name": "Tayud", "lat": 10.37991, "lng": 124.00522, "population": 7788}, {"name": "Tapilon", "lat": 11.2774, "lng": 124.0306, "population": 7786}, {"name": "Claveria", "lat": 8.61, "lng": 124.89472, "population": 7784}, {"name": "Asturias", "lat": 10.5669, "lng": 123.7161, "population": 7779}, {"name": "Minuyan", "lat": 10.51366, "lng": 123.1049, "population": 7771}, {"name": "Bugasan", "lat": 7.44083, "lng": 124.25917, "population": 7754}, {"name": "Taytay", "lat": 10.81788, "lng": 119.49851, "population": 7717}, {"name": "Mamungan", "lat": 8.11722, "lng": 124.21861, "population": 7700}, {"name": "Tagkawayan Sabang", "lat": 13.9909, "lng": 122.5298, "population": 7684}, {"name": "Colipapa", "lat": 9.4726, "lng": 122.5616, "population": 7680}, {"name": "Namayan", "lat": 14.5783, "lng": 121.0226, "population": 7670}, {"name": "Kananya", "lat": 11.1867, "lng": 124.5601, "population": 7647}, {"name": "Magnaga", "lat": 7.1694, "lng": 125.8931, "population": 7644}, {"name": "Mulanay", "lat": 13.52222, "lng": 122.40417, "population": 7643}, {"name": "San Jacinto", "lat": 12.5677, "lng": 123.7337, "population": 7637}, {"name": "Dolores", "lat": 14.02265, "lng": 121.41008, "population": 7633}, {"name": "Wañgan", "lat": 7.15972, "lng": 125.44528, "population": 7621}, {"name": "Nilombot", "lat": 16.0306, "lng": 120.43685, "population": 7605}, {"name": "Barili", "lat": 10.115, "lng": 123.5103, "population": 7588}, {"name": "Masaya", "lat": 14.15189, "lng": 121.2819, "population": 7587}, {"name": "Rizal", "lat": 12.97722, "lng": 123.91417, "population": 7577}, {"name": "Maya", "lat": 11.27442, "lng": 124.05526, "population": 7572}, {"name": "Dahay", "lat": 6.39067, "lng": 124.71464, "population": 7567}, {"name": "Culianin", "lat": 14.91511, "lng": 120.89847, "population": 7565}, {"name": "Carabalan", "lat": 10.0964, "lng": 122.946, "population": 7557}, {"name": "Cuyo", "lat": 10.8525, "lng": 121.00861, "population": 7549}, {"name": "Talisay", "lat": 14.1343, "lng": 122.9226, "population": 7544}, {"name": "Malinao Ilaya", "lat": 13.99611, "lng": 121.83577, "population": 7528}, {"name": "Sarangani", "lat": 5.40333, "lng": 125.46361, "population": 7506}, {"name": "Bacuyangan", "lat": 9.637, "lng": 122.4721, "population": 7506}, {"name": "Laiya", "lat": 13.68031, "lng": 121.40081, "population": 7504}, {"name": "Allen", "lat": 12.5006, "lng": 124.2849, "population": 7502}, {"name": "Lian", "lat": 14.03364, "lng": 120.64928, "population": 7496}, {"name": "Balite Segundo", "lat": 14.1832, "lng": 120.97433, "population": 7495}, {"name": "Tuding", "lat": 16.41085, "lng": 120.6422, "population": 7491}, {"name": "Tambulig", "lat": 8.0702, "lng": 123.5348, "population": 7488}, {"name": "Nagsaing", "lat": 15.98069, "lng": 120.33787, "population": 7482}, {"name": "Saguday", "lat": 16.5428, "lng": 121.5638, "population": 7464}, {"name": "San Jose", "lat": 15.0333, "lng": 120.7833, "population": 7461}, {"name": "Guinticgan", "lat": 11.5641, "lng": 123.1236, "population": 7452}, {"name": "Taligaman", "lat": 8.90444, "lng": 125.65583, "population": 7430}, {"name": "Mamala", "lat": 14.01667, "lng": 121.51667, "population": 7418}, {"name": "Villanueva", "lat": 8.58889, "lng": 124.77556, "population": 7415}, {"name": "Camias", "lat": 15.16679, "lng": 120.97416, "population": 7412}, {"name": "Hagonoy", "lat": 6.68333, "lng": 125.32556, "population": 7409}, {"name": "Dulao", "lat": 10.54176, "lng": 122.9383, "population": 7403}, {"name": "Sumpong", "lat": 8.16333, "lng": 125.11833, "population": 7399}, {"name": "Antipolo", "lat": 10.3565, "lng": 122.9646, "population": 7398}, {"name": "Agupit", "lat": 13.4225, "lng": 123.32472, "population": 7396}, {"name": "Zaragoza", "lat": 16.3871, "lng": 119.9443, "population": 7391}, {"name": "Lugait", "lat": 8.34111, "lng": 124.25917, "population": 7370}, {"name": "Taluksangay", "lat": 6.95417, "lng": 122.18389, "population": 7343}, {"name": "Lurugan", "lat": 8.01667, "lng": 124.96667, "population": 7336}, {"name": "Hilongos", "lat": 10.37444, "lng": 124.74972, "population": 7329}, {"name": "Siaton", "lat": 9.0648, "lng": 123.0339, "population": 7328}, {"name": "Lagonoy", "lat": 13.7342, "lng": 123.5207, "population": 7324}, {"name": "Dingalan", "lat": 15.3897, "lng": 121.3929, "population": 7315}, {"name": "Kalayaan", "lat": 14.35, "lng": 121.56667, "population": 7306}, {"name": "Alimodian", "lat": 10.82139, "lng": 122.43111, "population": 7302}, {"name": "Baracatan", "lat": 6.9675, "lng": 125.41583, "population": 7298}, {"name": "Sibalom", "lat": 10.79, "lng": 122.0178, "population": 7295}, {"name": "Batal", "lat": 16.6875, "lng": 121.60083, "population": 7274}, {"name": "Mabini", "lat": 10.79594, "lng": 123.4846, "population": 7270}, {"name": "Karungdong", "lat": 5.8844, "lng": 121.263, "population": 7269}, {"name": "Caranan", "lat": 13.5167, "lng": 123.0156, "population": 7265}, {"name": "Patin-ay", "lat": 8.55056, "lng": 125.93722, "population": 7263}, {"name": "Gabaldon", "lat": 15.4522, "lng": 121.3387, "population": 7259}, {"name": "Panitian", "lat": 9.0965, "lng": 118.0864, "population": 7258}, {"name": "President Roxas", "lat": 11.431, "lng": 122.9279, "population": 7240}, {"name": "Maigo", "lat": 8.1613, "lng": 123.9583, "population": 7235}, {"name": "Guimbal", "lat": 10.6633, "lng": 122.3228, "population": 7232}, {"name": "Suyan", "lat": 6.06028, "lng": 125.38528, "population": 7229}, {"name": "Gonzaga", "lat": 18.25937, "lng": 121.99495, "population": 7228}, {"name": "Leyte", "lat": 11.36687, "lng": 124.48239, "population": 7223}, {"name": "Kitcharao", "lat": 9.455, "lng": 125.57306, "population": 7213}, {"name": "Cabacungan", "lat": 10.3237, "lng": 123.1331, "population": 7200}, {"name": "Pamayanang University of Philippines Employment Housing Cooperative Subdivision", "lat": 14.34613, "lng": 120.97583, "population": 7200}, {"name": "Pañgobilian", "lat": 8.80111, "lng": 117.85944, "population": 7178}, {"name": "Matanao", "lat": 6.67917, "lng": 125.255, "population": 7171}, {"name": "Lugus", "lat": 5.70361, "lng": 120.82028, "population": 7167}, {"name": "Kulase", "lat": 5.9052, "lng": 120.9569, "population": 7148}, {"name": "Cut-cut Primero", "lat": 15.48277, "lng": 120.58604, "population": 7143}, {"name": "Olutanga", "lat": 7.31056, "lng": 122.84639, "population": 7133}, {"name": "Calatagan", "lat": 13.5885, "lng": 124.2065, "population": 7132}, {"name": "Quilo-quilo", "lat": 13.8638, "lng": 121.2209, "population": 7126}, {"name": "Clarin", "lat": 8.2023, "lng": 123.8582, "population": 7125}, {"name": "San Luis", "lat": 8.47806, "lng": 125.74389, "population": 7109}, {"name": "Balimbing", "lat": 5.0825, "lng": 119.96583, "population": 7102}, {"name": "Carusucan", "lat": 15.96589, "lng": 120.63598, "population": 7083}, {"name": "Lumbangan", "lat": 14.0524, "lng": 120.6667, "population": 7071}, {"name": "Dinahican", "lat": 14.71667, "lng": 121.71667, "population": 7062}, {"name": "Nabulao", "lat": 9.6616, "lng": 122.4577, "population": 7059}, {"name": "Tortosa", "lat": 10.93294, "lng": 123.09, "population": 7048}, {"name": "Bibiclat", "lat": 15.52186, "lng": 120.86235, "population": 7039}, {"name": "Pasong Kawayan Primero", "lat": 14.34317, "lng": 120.88157, "population": 7031}, {"name": "Malabag", "lat": 14.1552, "lng": 120.96547, "population": 7021}, {"name": "Kadingilan", "lat": 7.60111, "lng": 124.90861, "population": 7020}, {"name": "Bungad", "lat": 14.6481, "lng": 121.024, "population": 7014}, {"name": "Can-asujan", "lat": 10.1299, "lng": 123.6574, "population": 6994}, {"name": "Cabarroguis", "lat": 16.51105, "lng": 121.52118, "population": 6974}, {"name": "Pura", "lat": 15.6248, "lng": 120.648, "population": 6928}, {"name": "Lanot", "lat": 11.51917, "lng": 122.75722, "population": 6928}, {"name": "Gibong", "lat": 11.86338, "lng": 122.03941, "population": 6919}, {"name": "El Salvador", "lat": 8.56306, "lng": 124.5225, "population": 6904}, {"name": "Patnanungan", "lat": 14.78333, "lng": 122.18333, "population": 6901}, {"name": "Taytayan", "lat": 7.73389, "lng": 126.50194, "population": 6894}, {"name": "Malaiba", "lat": 10.33333, "lng": 123.31667, "population": 6888}, {"name": "Subusub", "lat": 16.22689, "lng": 120.49513, "population": 6887}, {"name": "Minapasoc", "lat": 10.69885, "lng": 123.349, "population": 6885}, {"name": "Cagayancillo", "lat": 9.57694, "lng": 121.20722, "population": 6884}, {"name": "Cabugao", "lat": 17.7931, "lng": 120.4578, "population": 6874}, {"name": "Kumalarang", "lat": 7.7478, "lng": 123.1445, "population": 6869}, {"name": "Dingras", "lat": 18.1032, "lng": 120.6967, "population": 6866}, {"name": "Pantao", "lat": 13.1944, "lng": 123.3271, "population": 6864}, {"name": "Puelay", "lat": 15.88683, "lng": 120.57358, "population": 6854}, {"name": "Panglao", "lat": 9.57806, "lng": 123.74583, "population": 6854}, {"name": "Coronon", "lat": 6.87917, "lng": 125.44889, "population": 6854}, {"name": "Kauswagan", "lat": 8.19167, "lng": 124.08472, "population": 6851}, {"name": "Sagpon", "lat": 13.15, "lng": 123.73333, "population": 6849}, {"name": "Tiglauigan", "lat": 10.9527, "lng": 123.3575, "population": 6848}, {"name": "Linamon", "lat": 8.18603, "lng": 124.16276, "population": 6848}, {"name": "San Vicente", "lat": 15.21324, "lng": 120.81901, "population": 6835}, {"name": "Moalboal", "lat": 9.94333, "lng": 123.39917, "population": 6832}, {"name": "Maulawin", "lat": 14.26667, "lng": 121.43333, "population": 6822}, {"name": "Lipayran", "lat": 11.0593, "lng": 123.6342, "population": 6813}, {"name": "Digal", "lat": 6.75306, "lng": 124.79639, "population": 6810}, {"name": "Maria Aurora", "lat": 15.7967, "lng": 121.4737, "population": 6807}, {"name": "Quezon", "lat": 14.0057, "lng": 122.1838, "population": 6804}, {"name": "Licab", "lat": 15.5439, "lng": 120.7634, "population": 6783}, {"name": "Curuan", "lat": 7.20528, "lng": 122.23306, "population": 6775}, {"name": "Salug", "lat": 8.11472, "lng": 122.78333, "population": 6774}, {"name": "Orong", "lat": 9.9373, "lng": 122.829, "population": 6772}, {"name": "Concepcion", "lat": 11.2161, "lng": 123.1073, "population": 6769}, {"name": "Bagontapay", "lat": 6.85889, "lng": 124.90889, "population": 6747}, {"name": "Sampaloc", "lat": 14.1627, "lng": 121.6396, "population": 6743}, {"name": "Ilog", "lat": 10.0266, "lng": 122.7684, "population": 6741}, {"name": "Calamba", "lat": 8.5587, "lng": 123.6425, "population": 6738}, {"name": "Bunguiao", "lat": 7.10444, "lng": 122.19639, "population": 6728}, {"name": "Matnog", "lat": 12.5878, "lng": 124.0875, "population": 6721}, {"name": "Binubusan", "lat": 13.96947, "lng": 120.63572, "population": 6714}, {"name": "Balogo", "lat": 10.8868, "lng": 124.7105, "population": 6704}, {"name": "Minante Segundo", "lat": 16.9022, "lng": 121.76191, "population": 6697}, {"name": "Bau", "lat": 7.40528, "lng": 124.64972, "population": 6672}, {"name": "Rimus", "lat": 16.8764, "lng": 120.3966, "population": 6670}, {"name": "Daraga", "lat": 13.1483, "lng": 123.7124, "population": 6664}, {"name": "Jimenez", "lat": 8.3365, "lng": 123.8383, "population": 6662}, {"name": "Barugo", "lat": 11.32417, "lng": 124.73833, "population": 6655}, {"name": "Badak", "lat": 6.84722, "lng": 124.72056, "population": 6653}, {"name": "Bulusan", "lat": 12.74936, "lng": 124.12087, "population": 6648}, {"name": "Magallanes", "lat": 9.02, "lng": 125.51722, "population": 6636}, {"name": "Dagumba-an", "lat": 8.15306, "lng": 124.59083, "population": 6635}, {"name": "Ponot", "lat": 8.452, "lng": 123.0222, "population": 6624}, {"name": "Cateel", "lat": 7.79139, "lng": 126.45333, "population": 6624}, {"name": "Inayagan", "lat": 10.23478, "lng": 123.769, "population": 6610}, {"name": "Santa Maria", "lat": 14.4719, "lng": 121.4286, "population": 6603}, {"name": "Sulop", "lat": 6.59861, "lng": 125.34361, "population": 6582}, {"name": "Burgos", "lat": 17.08914, "lng": 121.70254, "population": 6581}, {"name": "Nangka", "lat": 10.55, "lng": 123.96667, "population": 6580}, {"name": "Bone South", "lat": 16.2446, "lng": 120.9958, "population": 6573}, {"name": "Paringao", "lat": 16.57167, "lng": 120.32417, "population": 6570}, {"name": "Bonga", "lat": 13.2799, "lng": 123.7587, "population": 6566}, {"name": "Boac", "lat": 13.4463, "lng": 121.84, "population": 6566}, {"name": "Biao", "lat": 10.1088, "lng": 122.9772, "population": 6559}, {"name": "Polonoling", "lat": 6.28496, "lng": 124.9689, "population": 6550}, {"name": "Rancheria Payau", "lat": 7.8541, "lng": 123.1598, "population": 6540}, {"name": "Kibangay", "lat": 8.04972, "lng": 124.89306, "population": 6539}, {"name": "Dumingag", "lat": 8.16917, "lng": 123.35056, "population": 6534}, {"name": "Santa Barbara", "lat": 15.38494, "lng": 120.79611, "population": 6525}, {"name": "Caramutan", "lat": 15.92074, "lng": 120.61012, "population": 6524}, {"name": "Mayabon", "lat": 9.0961, "lng": 123.1738, "population": 6521}, {"name": "Salawagan", "lat": 7.70528, "lng": 125.115, "population": 6508}, {"name": "Balele", "lat": 14.06532, "lng": 121.09363, "population": 6496}, {"name": "Andres Bonifacio", "lat": 10.91667, "lng": 123.25, "population": 6494}, {"name": "Managok", "lat": 8.02889, "lng": 125.18861, "population": 6477}, {"name": "Caibiran", "lat": 11.57167, "lng": 124.58222, "population": 6462}, {"name": "San Vicente", "lat": 14.94594, "lng": 120.74852, "population": 6449}, {"name": "Cauayan", "lat": 15.15149, "lng": 120.67166, "population": 6436}, {"name": "Santol", "lat": 10.1725, "lng": 122.9947, "population": 6435}, {"name": "Cambuga", "lat": 13.61667, "lng": 122.45, "population": 6432}, {"name": "Salay", "lat": 8.85917, "lng": 124.78917, "population": 6428}, {"name": "Barahan", "lat": 13.0121, "lng": 120.762, "population": 6414}, {"name": "Lamba", "lat": 6.35025, "lng": 124.81974, "population": 6408}, {"name": "Lingig", "lat": 8.03889, "lng": 126.4125, "population": 6400}, {"name": "Madridejos", "lat": 9.79116, "lng": 123.3462, "population": 6387}, {"name": "Cuambog", "lat": 7.30861, "lng": 125.84806, "population": 6383}, {"name": "Pansol", "lat": 13.8866, "lng": 121.2432, "population": 6380}, {"name": "Atulayan", "lat": 17.6648, "lng": 121.6937, "population": 6374}, {"name": "Loacan", "lat": 16.55, "lng": 120.66667, "population": 6371}, {"name": "San Luis", "lat": 8.48333, "lng": 125.0, "population": 6357}, {"name": "Cayang", "lat": 11.06667, "lng": 123.98333, "population": 6353}, {"name": "Lasam", "lat": 18.06519, "lng": 121.60065, "population": 6352}, {"name": "Basiawan", "lat": 6.53417, "lng": 125.48694, "population": 6351}, {"name": "San Jose", "lat": 7.73667, "lng": 125.07028, "population": 6345}, {"name": "San Fernando", "lat": 13.5656, "lng": 123.1453, "population": 6345}, {"name": "Mambulo", "lat": 13.71667, "lng": 123.05, "population": 6319}, {"name": "Santa Ana", "lat": 18.46986, "lng": 122.14775, "population": 6315}, {"name": "Talugtug", "lat": 15.7778, "lng": 120.8111, "population": 6307}, {"name": "Tamnag", "lat": 6.57298, "lng": 124.88004, "population": 6302}, {"name": "Tago", "lat": 9.02111, "lng": 126.23167, "population": 6300}, {"name": "San Ignacio", "lat": 7.1189, "lng": 126.48838, "population": 6300}, {"name": "Tongouson", "lat": 5.0214, "lng": 120.1328, "population": 6267}, {"name": "Mayantoc", "lat": 15.6199, "lng": 120.377, "population": 6250}, {"name": "Babatngon", "lat": 11.4238, "lng": 124.8449, "population": 6237}, {"name": "Santo Rosario", "lat": 15.6447, "lng": 120.8612, "population": 6234}, {"name": "Culaba", "lat": 11.65778, "lng": 124.5425, "population": 6231}, {"name": "Reina Mercedes", "lat": 16.98545, "lng": 121.82664, "population": 6227}, {"name": "Malicboy", "lat": 13.98155, "lng": 121.78888, "population": 6224}, {"name": "Amas", "lat": 7.05694, "lng": 124.98389, "population": 6219}, {"name": "San Fernando", "lat": 12.4833, "lng": 123.7622, "population": 6211}, {"name": "Donsol", "lat": 12.9055, "lng": 123.5949, "population": 6198}, {"name": "Santa Catalina Sur", "lat": 13.87384, "lng": 121.43104, "population": 6195}, {"name": "Esperanza", "lat": 8.67694, "lng": 125.64694, "population": 6193}, {"name": "Buguias", "lat": 16.72267, "lng": 120.82834, "population": 6192}, {"name": "Candoni", "lat": 9.817, "lng": 122.6043, "population": 6191}, {"name": "Claveria", "lat": 12.9035, "lng": 123.2457, "population": 6185}, {"name": "Malalag", "lat": 6.59583, "lng": 125.39917, "population": 6180}, {"name": "Bayang", "lat": 7.79278, "lng": 124.19167, "population": 6176}, {"name": "Dingle", "lat": 10.9995, "lng": 122.6711, "population": 6172}, {"name": "Batarasa", "lat": 8.67335, "lng": 117.62795, "population": 6169}, {"name": "Barlig", "lat": 17.03725, "lng": 121.10384, "population": 6168}, {"name": "Zamboanguita", "lat": 9.1025, "lng": 123.1996, "population": 6164}, {"name": "Maninihon", "lat": 9.3711, "lng": 122.8405, "population": 6150}, {"name": "Manat", "lat": 7.5327, "lng": 126.0173, "population": 6148}, {"name": "Camp Flora", "lat": 13.3508, "lng": 122.6641, "population": 6146}, {"name": "Tabu", "lat": 9.8923, "lng": 122.7098, "population": 6143}, {"name": "Vito", "lat": 10.9031, "lng": 123.5154, "population": 6141}, {"name": "Loqueb Este", "lat": 15.94481, "lng": 120.44607, "population": 6141}, {"name": "Gloria", "lat": 12.98333, "lng": 121.46667, "population": 6137}, {"name": "Buenavista", "lat": 7.23611, "lng": 122.25528, "population": 6131}, {"name": "Bonbon", "lat": 10.2245, "lng": 123.5573, "population": 6122}, {"name": "Lamitan City", "lat": 6.6502, "lng": 122.12952, "population": 6114}, {"name": "Minien East", "lat": 15.97723, "lng": 120.48127, "population": 6111}, {"name": "Argao", "lat": 9.87944, "lng": 123.59556, "population": 6108}, {"name": "Cabatuan", "lat": 10.8794, "lng": 122.486, "population": 6106}, {"name": "Enrique Villanueva", "lat": 9.2761, "lng": 123.6468, "population": 6104}, {"name": "Punay", "lat": 5.96139, "lng": 121.19806, "population": 6099}, {"name": "San Isidro", "lat": 15.02116, "lng": 120.82019, "population": 6093}, {"name": "Salvacion", "lat": 7.99954, "lng": 126.1248, "population": 6090}, {"name": "San Jose", "lat": 9.80056, "lng": 118.75694, "population": 6079}, {"name": "Odiongan", "lat": 12.40167, "lng": 121.99194, "population": 6077}, {"name": "Mantalongon", "lat": 9.8106, "lng": 123.4617, "population": 6070}, {"name": "Nampicuan", "lat": 15.7314, "lng": 120.625, "population": 6058}, {"name": "Macalelon", "lat": 13.74694, "lng": 122.13861, "population": 6042}, {"name": "Dassun", "lat": 17.74517, "lng": 121.71137, "population": 6030}, {"name": "Liboro", "lat": 13.8245, "lng": 122.7295, "population": 6028}, {"name": "Butig", "lat": 7.72444, "lng": 124.30083, "population": 6016}, {"name": "Sinamar", "lat": 16.9, "lng": 121.56667, "population": 6012}, {"name": "Milagros", "lat": 12.21814, "lng": 123.50951, "population": 6009}, {"name": "Esperanza", "lat": 6.72306, "lng": 124.51972, "population": 6009}, {"name": "Santo Rosario", "lat": 15.43425, "lng": 120.88981, "population": 6005}, {"name": "Talaban", "lat": 10.1254, "lng": 122.8671, "population": 6003}, {"name": "Sultan Naga Dimaporo", "lat": 7.7959, "lng": 123.7145, "population": 6000}, {"name": "Bugang", "lat": 10.74185, "lng": 123.3933, "population": 6000}, {"name": "Mabini", "lat": 9.8649, "lng": 124.5215, "population": 5999}, {"name": "Punao", "lat": 10.56516, "lng": 123.408, "population": 5997}, {"name": "Patao", "lat": 11.2202, "lng": 123.6925, "population": 5997}, {"name": "San Manuel", "lat": 15.49053, "lng": 120.66543, "population": 5995}, {"name": "Manoc-Manoc", "lat": 11.94157, "lng": 121.94281, "population": 5991}, {"name": "Calabugao", "lat": 8.45639, "lng": 125.15889, "population": 5982}, {"name": "Talipaw", "lat": 5.91, "lng": 121.09444, "population": 5977}, {"name": "Buga", "lat": 10.71667, "lng": 122.26667, "population": 5975}, {"name": "Pitogo", "lat": 7.4546, "lng": 123.3111, "population": 5972}, {"name": "Santiago", "lat": 14.90371, "lng": 120.51134, "population": 5971}, {"name": "Placer", "lat": 11.8687, "lng": 123.9184, "population": 5969}, {"name": "Tinaan", "lat": 11.26667, "lng": 123.75, "population": 5959}, {"name": "Piat", "lat": 17.7905, "lng": 121.478, "population": 5958}, {"name": "Pantabangan", "lat": 15.8113, "lng": 121.1443, "population": 5956}, {"name": "Camaligan", "lat": 13.6224, "lng": 123.1667, "population": 5950}, {"name": "Cabcaben", "lat": 14.454, "lng": 120.5914, "population": 5949}, {"name": "Magtaking", "lat": 15.9854, "lng": 120.1832, "population": 5946}, {"name": "San Pascual", "lat": 13.12888, "lng": 122.97709, "population": 5939}, {"name": "Pagalungan", "lat": 7.05667, "lng": 124.70083, "population": 5932}, {"name": "Salapungan", "lat": 15.1339, "lng": 120.92794, "population": 5928}, {"name": "Pavia", "lat": 10.77611, "lng": 122.54556, "population": 5928}, {"name": "Can-Avid", "lat": 11.99528, "lng": 125.44722, "population": 5928}, {"name": "Culianan", "lat": 6.98028, "lng": 122.14667, "population": 5915}, {"name": "Claver", "lat": 9.5725, "lng": 125.73306, "population": 5906}, {"name": "San Jose", "lat": 17.15, "lng": 121.6, "population": 5905}, {"name": "Alegria", "lat": 9.46694, "lng": 125.57722, "population": 5891}, {"name": "Mambusao", "lat": 11.43355, "lng": 122.5982, "population": 5871}, {"name": "Balingcanaway", "lat": 15.48215, "lng": 120.68543, "population": 5870}, {"name": "Malasila", "lat": 6.94389, "lng": 125.12944, "population": 5864}, {"name": "Linabo", "lat": 8.05417, "lng": 125.155, "population": 5849}, {"name": "Maasim", "lat": 5.8575, "lng": 125.00611, "population": 5847}, {"name": "Matlang", "lat": 10.8902, "lng": 124.4554, "population": 5840}, {"name": "Natividad", "lat": 16.0443, "lng": 120.7987, "population": 5828}, {"name": "Sarrat", "lat": 18.1574, "lng": 120.647, "population": 5822}, {"name": "Santa Ines West", "lat": 15.55694, "lng": 120.46448, "population": 5821}, {"name": "Cabano", "lat": 10.5869, "lng": 122.7002, "population": 5812}, {"name": "Alegria", "lat": 12.3984, "lng": 124.3261, "population": 5811}, {"name": "Patnongon", "lat": 10.9132, "lng": 121.9937, "population": 5810}, {"name": "Baliton", "lat": 5.74361, "lng": 125.23639, "population": 5809}, {"name": "Tabango", "lat": 11.3077, "lng": 124.373, "population": 5806}, {"name": "Bilao", "lat": 11.488, "lng": 122.5599, "population": 5805}, {"name": "Macalong", "lat": 16.0137, "lng": 120.6586, "population": 5802}, {"name": "Lloren", "lat": 16.3331, "lng": 120.4329, "population": 5800}, {"name": "Libertad", "lat": 8.1075, "lng": 126.02639, "population": 5799}, {"name": "Pantay Na Matanda", "lat": 14.1175, "lng": 121.12111, "population": 5791}, {"name": "Lunas", "lat": 10.6402, "lng": 123.7525, "population": 5789}, {"name": "Talusan", "lat": 7.42667, "lng": 122.81028, "population": 5783}, {"name": "Baligang", "lat": 13.1537, "lng": 123.6432, "population": 5781}, {"name": "Kauit", "lat": 11.186, "lng": 123.9459, "population": 5771}, {"name": "Santa Ana", "lat": 8.51667, "lng": 124.78333, "population": 5770}, {"name": "Magatos", "lat": 7.55556, "lng": 125.72667, "population": 5770}, {"name": "Pasuquin", "lat": 18.3328, "lng": 120.6177, "population": 5768}, {"name": "Tamayo", "lat": 15.87746, "lng": 120.28455, "population": 5767}, {"name": "Lucapon", "lat": 15.6998, "lng": 119.932, "population": 5767}, {"name": "Gulod", "lat": 14.3449, "lng": 121.2177, "population": 5764}, {"name": "Aglayan", "lat": 8.055, "lng": 125.13417, "population": 5761}, {"name": "Buluang", "lat": 13.3068, "lng": 123.3425, "population": 5758}, {"name": "Bitin", "lat": 14.11647, "lng": 121.22194, "population": 5758}, {"name": "Binuangan", "lat": 8.91528, "lng": 124.78833, "population": 5754}, {"name": "Igpit", "lat": 8.51083, "lng": 124.58667, "population": 5753}, {"name": "Lubang", "lat": 13.85835, "lng": 120.12402, "population": 5750}, {"name": "Banisilan", "lat": 7.49083, "lng": 124.72417, "population": 5749}, {"name": "Glad", "lat": 7.14833, "lng": 124.51806, "population": 5746}, {"name": "Guisguis", "lat": 13.8738, "lng": 121.5189, "population": 5741}, {"name": "Suklayin", "lat": 15.7574, "lng": 121.5503, "population": 5734}, {"name": "New Washington", "lat": 11.6508, "lng": 122.4322, "population": 5731}, {"name": "Loreto", "lat": 8.18694, "lng": 125.85306, "population": 5730}, {"name": "Pansoy", "lat": 13.18177, "lng": 122.59989, "population": 5728}, {"name": "Sindangan", "lat": 8.2376, "lng": 122.9974, "population": 5718}, {"name": "Tamayong", "lat": 7.13306, "lng": 125.37972, "population": 5717}, {"name": "Yuni", "lat": 13.4124, "lng": 122.4846, "population": 5714}, {"name": "Libona", "lat": 8.33889, "lng": 124.73528, "population": 5713}, {"name": "Santa Justina", "lat": 13.3967, "lng": 123.4731, "population": 5712}, {"name": "Sulucan", "lat": 14.79448, "lng": 120.92594, "population": 5703}, {"name": "Tulay na Lupa", "lat": 14.0934, "lng": 122.7862, "population": 5693}, {"name": "Kampokpok", "lat": 11.2962, "lng": 124.405, "population": 5688}, {"name": "San Mariano", "lat": 15.32083, "lng": 120.87609, "population": 5686}, {"name": "Nagtipunan", "lat": 16.21667, "lng": 121.6, "population": 5682}, {"name": "Pinugay", "lat": 14.5967, "lng": 121.2623, "population": 5666}, {"name": "Bato", "lat": 10.80854, "lng": 123.3733, "population": 5665}, {"name": "Balsic", "lat": 14.85906, "lng": 120.4824, "population": 5661}, {"name": "Anonang", "lat": 11.0, "lng": 124.03333, "population": 5660}, {"name": "Upi", "lat": 17.08262, "lng": 121.83453, "population": 5647}, {"name": "Imelda", "lat": 7.64703, "lng": 122.95349, "population": 5640}, {"name": "La Libertad", "lat": 10.0266, "lng": 123.2335, "population": 5632}, {"name": "San Policarpio", "lat": 12.0686, "lng": 124.5695, "population": 5616}, {"name": "Libungan", "lat": 7.24083, "lng": 124.52, "population": 5606}, {"name": "Ungca", "lat": 10.75, "lng": 122.55, "population": 5599}, {"name": "Balangiga", "lat": 11.10972, "lng": 125.3875, "population": 5592}, {"name": "Pulung Santol", "lat": 15.04574, "lng": 120.56188, "population": 5591}, {"name": "Ballesteros", "lat": 18.4126, "lng": 121.5152, "population": 5591}, {"name": "Nato", "lat": 13.6105, "lng": 123.5356, "population": 5583}, {"name": "Obong", "lat": 9.741, "lng": 123.5098, "population": 5576}, {"name": "Simbahan", "lat": 6.3032, "lng": 120.5836, "population": 5573}, {"name": "Lopez Jaena", "lat": 10.8478, "lng": 123.4141, "population": 5573}, {"name": "Salvacion", "lat": 10.68333, "lng": 122.61667, "population": 5565}, {"name": "Rosario", "lat": 13.8635, "lng": 122.2731, "population": 5563}, {"name": "Calinog", "lat": 11.11667, "lng": 122.56667, "population": 5552}, {"name": "Cawayan", "lat": 13.3672, "lng": 122.5094, "population": 5549}, {"name": "Gamu", "lat": 17.04975, "lng": 121.83604, "population": 5545}, {"name": "Socorro", "lat": 13.0669, "lng": 121.39858, "population": 5543}, {"name": "Maria Cristina", "lat": 8.16604, "lng": 124.20396, "population": 5540}, {"name": "Langtad", "lat": 10.18568, "lng": 123.7344, "population": 5531}, {"name": "Rogongon", "lat": 8.23333, "lng": 124.33333, "population": 5530}, {"name": "San Andres", "lat": 14.05, "lng": 121.21667, "population": 5527}, {"name": "Novallas", "lat": 9.5117, "lng": 123.1225, "population": 5525}, {"name": "Masaya Sur", "lat": 16.50017, "lng": 121.74743, "population": 5523}, {"name": "Mainit", "lat": 9.535, "lng": 125.52306, "population": 5520}, {"name": "Columbio", "lat": 6.69639, "lng": 124.93722, "population": 5516}, {"name": "Bacag", "lat": 15.93, "lng": 120.58222, "population": 5509}, {"name": "Mabinay", "lat": 9.72722, "lng": 122.90167, "population": 5506}, {"name": "Busay", "lat": 10.5378, "lng": 122.886, "population": 5503}, {"name": "Polillo", "lat": 14.71699, "lng": 121.94889, "population": 5502}, {"name": "Lambunao", "lat": 11.05563, "lng": 122.4759, "population": 5500}, {"name": "Maydolong", "lat": 11.50021, "lng": 125.49811, "population": 5492}, {"name": "Tigpalay", "lat": 7.49479, "lng": 122.34496, "population": 5480}, {"name": "Santa Monica", "lat": 15.35771, "lng": 120.72006, "population": 5475}, {"name": "Semirara", "lat": 12.06967, "lng": 121.39861, "population": 5470}, {"name": "Bagong Sikat", "lat": 12.36745, "lng": 121.06171, "population": 5468}, {"name": "Nagbukel", "lat": 17.4471, "lng": 120.5247, "population": 5465}, {"name": "Santa Catalina Norte", "lat": 13.87083, "lng": 121.3575, "population": 5448}, {"name": "Talisayan", "lat": 6.98722, "lng": 121.92722, "population": 5445}, {"name": "Puro", "lat": 12.4841, "lng": 123.3827, "population": 5442}, {"name": "Napoles", "lat": 10.504, "lng": 122.8979, "population": 5440}, {"name": "Maguyam", "lat": 14.26277, "lng": 121.005, "population": 5437}, {"name": "Kajatian", "lat": 6.03111, "lng": 120.99194, "population": 5436}, {"name": "Cebuano", "lat": 6.38794, "lng": 124.96841, "population": 5430}, {"name": "Kinablangan", "lat": 7.6928, "lng": 126.54912, "population": 5423}, {"name": "Cabanglasan", "lat": 8.12139, "lng": 125.3275, "population": 5423}, {"name": "Mapalacsiao", "lat": 15.42831, "lng": 120.65252, "population": 5419}, {"name": "Bacuag", "lat": 9.60806, "lng": 125.63889, "population": 5419}, {"name": "Soyung", "lat": 16.7001, "lng": 121.6655, "population": 5418}, {"name": "Magpet", "lat": 7.10017, "lng": 125.11548, "population": 5414}, {"name": "Dumpay", "lat": 15.88295, "lng": 120.38899, "population": 5414}, {"name": "Bantilan", "lat": 14.75814, "lng": 121.66902, "population": 5406}, {"name": "Loreto", "lat": 10.36361, "lng": 125.57306, "population": 5397}, {"name": "Tajao", "lat": 10.3148, "lng": 123.5835, "population": 5394}, {"name": "Tabuan", "lat": 9.51556, "lng": 122.85056, "population": 5390}, {"name": "Mailag", "lat": 7.97028, "lng": 125.1375, "population": 5388}, {"name": "Putol", "lat": 13.9922, "lng": 120.7275, "population": 5387}, {"name": "Nailong", "lat": 11.0537, "lng": 124.0385, "population": 5379}, {"name": "Bantogon", "lat": 6.53333, "lng": 124.03333, "population": 5379}, {"name": "Monamon", "lat": 16.8833, "lng": 120.8833, "population": 5371}, {"name": "Taltal", "lat": 15.5878, "lng": 119.9455, "population": 5370}, {"name": "Bulalacao", "lat": 11.7435, "lng": 120.1715, "population": 5366}, {"name": "Lopez Jaena", "lat": 6.47591, "lng": 124.69828, "population": 5352}, {"name": "Inawayan", "lat": 6.96083, "lng": 125.47333, "population": 5345}, {"name": "Carpenter Hill", "lat": 6.44413, "lng": 124.88138, "population": 5344}, {"name": "Domampot", "lat": 16.0, "lng": 120.65, "population": 5340}, {"name": "Sumilao", "lat": 8.28722, "lng": 124.94556, "population": 5339}, {"name": "Dulangan", "lat": 11.4561, "lng": 122.9557, "population": 5339}, {"name": "Dorongan Punta", "lat": 15.81476, "lng": 120.32266, "population": 5336}, {"name": "La Libertad", "lat": 7.48028, "lng": 125.64722, "population": 5324}, {"name": "Infanta", "lat": 14.74495, "lng": 121.64953, "population": 5321}, {"name": "Bien Unido", "lat": 10.13729, "lng": 124.37761, "population": 5304}, {"name": "Ligaya", "lat": 15.5091, "lng": 121.2872, "population": 5299}, {"name": "Janopol", "lat": 14.08586, "lng": 121.09489, "population": 5297}, {"name": "Taysan", "lat": 13.8697, "lng": 121.0971, "population": 5296}, {"name": "Sanga-Sanga", "lat": 5.0725, "lng": 119.78528, "population": 5295}, {"name": "Litayan", "lat": 7.33583, "lng": 124.03472, "population": 5294}, {"name": "Bacolod", "lat": 8.11667, "lng": 123.91667, "population": 5294}, {"name": "Sual", "lat": 16.06682, "lng": 120.09414, "population": 5290}, {"name": "Liwan", "lat": 17.5191, "lng": 121.632, "population": 5286}, {"name": "Calibutbut", "lat": 15.11494, "lng": 120.59815, "population": 5282}, {"name": "La Granja", "lat": 10.4082, "lng": 122.9898, "population": 5277}, {"name": "Tabuc Pontevedra", "lat": 11.48333, "lng": 122.81667, "population": 5276}, {"name": "Ibabang Tayuman", "lat": 13.4042, "lng": 122.5165, "population": 5276}, {"name": "Lapuyan", "lat": 7.6379, "lng": 123.1944, "population": 5274}, {"name": "Vintar", "lat": 18.2284, "lng": 120.6475, "population": 5263}, {"name": "Eraan", "lat": 9.06289, "lng": 117.7016, "population": 5262}, {"name": "Pangyan", "lat": 5.70083, "lng": 125.28111, "population": 5261}, {"name": "Sampao", "lat": 6.87667, "lng": 124.59556, "population": 5259}, {"name": "Giporlos", "lat": 11.12, "lng": 125.44944, "population": 5258}, {"name": "Esperanza", "lat": 10.6995, "lng": 124.3143, "population": 5257}, {"name": "Pandasan", "lat": 7.2838, "lng": 125.8535, "population": 5254}, {"name": "Tapon", "lat": 10.0631, "lng": 123.4453, "population": 5245}, {"name": "Basud", "lat": 14.065, "lng": 122.9642, "population": 5232}, {"name": "Tartaro", "lat": 15.16667, "lng": 121.01667, "population": 5231}, {"name": "Jones", "lat": 16.5571, "lng": 121.7029, "population": 5227}, {"name": "La Union", "lat": 6.70413, "lng": 126.08798, "population": 5221}, {"name": "Aga", "lat": 14.0965, "lng": 120.80217, "population": 5218}, {"name": "Buayan", "lat": 7.26111, "lng": 124.52944, "population": 5216}, {"name": "Libertad", "lat": 8.25, "lng": 124.23333, "population": 5210}, {"name": "Hibaiyo", "lat": 10.2726, "lng": 123.321, "population": 5209}, {"name": "Cumadcad", "lat": 12.98056, "lng": 123.78917, "population": 5203}, {"name": "Entablado", "lat": 15.28661, "lng": 120.86302, "population": 5202}, {"name": "Muñoz East", "lat": 17.15754, "lng": 121.61354, "population": 5198}, {"name": "Mondragon", "lat": 12.5157, "lng": 124.7523, "population": 5198}, {"name": "Moog", "lat": 8.60111, "lng": 124.46583, "population": 5197}, {"name": "Tuban", "lat": 6.82278, "lng": 125.38694, "population": 5194}, {"name": "San Andres", "lat": 13.3227, "lng": 122.6779, "population": 5192}, {"name": "Bolong", "lat": 7.09833, "lng": 122.23917, "population": 5188}, {"name": "Dado", "lat": 7.05, "lng": 124.45972, "population": 5184}, {"name": "Pantijan No 2", "lat": 14.23306, "lng": 120.80056, "population": 5182}, {"name": "Janagdong", "lat": 13.9034, "lng": 121.5134, "population": 5174}, {"name": "Leon", "lat": 10.78085, "lng": 122.3894, "population": 5172}, {"name": "Tamontaka", "lat": 7.18056, "lng": 124.22556, "population": 5166}, {"name": "Conduaga", "lat": 8.862, "lng": 117.4893, "population": 5164}, {"name": "Panitan", "lat": 11.466, "lng": 122.7725, "population": 5156}, {"name": "Bulata", "lat": 9.8599, "lng": 122.4016, "population": 5151},