[{"name": "San Juan", "lat": 18.46633, "lng": -66.10572, "population": 418140}, {"name": "Bayamón", "lat": 18.39856, "lng": -66.15572, "population": 203499}, {"name": "Carolina", "lat": 18.38078, "lng": -65.95739, "population": 170404}, {"name": "Ponce", "lat": 18.01031, "lng": -66.62398, "population": 137491}, {"name": "Arecibo", "lat": 18.47245, "lng": -66.71573, "population": 87754}, {"name": "Caguas", "lat": 18.23412, "lng": -66.0485, "population": 86804}, {"name": "Guaynabo", "lat": 18.35745, "lng": -66.111, "population": 81360}, {"name": "Trujillo Alto", "lat": 18.35467, "lng": -66.00739, "population": 75243}, {"name": "Mayagüez", "lat": 18.20107, "lng": -67.13962, "population": 73077}, {"name": "Fajardo", "lat": 18.32579, "lng": -65.65238, "population": 32124}, {"name": "Levittown", "lat": 18.44995, "lng": -66.18156, "population": 29785}, {"name": "Vega Baja", "lat": 18.44439, "lng": -66.38767, "population": 29325}, {"name": "Cataño", "lat": 18.44134, "lng": -66.11822, "population": 28093}, {"name": "Barceloneta", "lat": 18.4505, "lng": -66.53851, "population": 22322}, {"name": "Guayama", "lat": 17.98413, "lng": -66.11378, "population": 21575}, {"name": "Humacao", "lat": 18.14968, "lng": -65.82738, "population": 20387}, {"name": "Yauco", "lat": 18.03496, "lng": -66.8499, "population": 20295}, {"name": "Cayey", "lat": 18.11191, "lng": -66.166, "population": 18494}, {"name": "Candelaria", "lat": 18.40411, "lng": -66.20878, "population": 17631}, {"name": "Manatí", "lat": 18.42745, "lng": -66.49212, "population": 16092}, {"name": "Aguadilla", "lat": 18.42745, "lng": -67.15407, "population": 16073}, {"name": "Río Grande", "lat": 18.38023, "lng": -65.83127, "population": 13467}, {"name": "Dorado", "lat": 18.45883, "lng": -66.26767, "population": 13117}, {"name": "Isabela", "lat": 18.50078, "lng": -67.02435, "population": 12505}, {"name": "San Germán", "lat": 18.08163, "lng": -67.0449, "population": 12055}, {"name": "Vega Alta", "lat": 18.41217, "lng": -66.33128, "population": 12036}, {"name": "Coamo", "lat": 18.07996, "lng": -66.35795, "population": 11940}, {"name": "Hormigueros", "lat": 18.13968, "lng": -67.1274, "population": 11934}, {"name": "San Sebastián", "lat": 18.33662, "lng": -66.99018, "population": 11590}, {"name": "Corozal", "lat": 18.34106, "lng": -66.31684, "population": 11297}, {"name": "Cabo Rojo", "lat": 18.08663, "lng": -67.14573, "population": 10839}, {"name": "Utuado", "lat": 18.26551, "lng": -66.70045, "population": 9844}, {"name": "Pájaros", "lat": 18.36856, "lng": -66.21683, "population": 9466}, {"name": "Juana Díaz", "lat": 18.05246, "lng": -66.50656, "population": 9427}, {"name": "San Lorenzo", "lat": 18.1894, "lng": -65.961, "population": 9373}, {"name": "Isabel Segunda", "lat": 18.14913, "lng": -65.44266, "population": 9301}, {"name": "Guánica", "lat": 17.97163, "lng": -66.90795, "population": 9224}, {"name": "Gurabo", "lat": 18.2544, "lng": -65.97294, "population": 8973}, {"name": "Sabana Grande", "lat": 18.07774, "lng": -66.96045, "population": 8961}, {"name": "Aibonito", "lat": 18.13996, "lng": -66.266, "population": 8947}, {"name": "Juncos", "lat": 18.22746, "lng": -65.921, "population": 8905}, {"name": "Canovanas", "lat": 18.3751, "lng": -65.89934, "population": 8437}, {"name": "Luquillo", "lat": 18.37245, "lng": -65.71655, "population": 8326}, {"name": "San Isidro", "lat": 18.39217, "lng": -65.88544, "population": 8071}, {"name": "Campanilla", "lat": 18.42134, "lng": -66.23683, "population": 7757}, {"name": "Arroyo", "lat": 17.9658, "lng": -66.06128, "population": 7520}, {"name": "Santa Isabel", "lat": 17.96608, "lng": -66.40489, "population": 7260}, {"name": "Lares", "lat": 18.29467, "lng": -66.87712, "population": 7184}, {"name": "Yabucoa", "lat": 18.05052, "lng": -65.87933, "population": 6952}, {"name": "Peñuelas", "lat": 18.05635, "lng": -66.72156, "population": 6847}, {"name": "Las Piedras", "lat": 18.18301, "lng": -65.86627, "population": 6655}, {"name": "Ceiba", "lat": 18.44634, "lng": -66.35073, "population": 6576}, {"name": "San Antonio", "lat": 18.44884, "lng": -66.30267, "population": 6456}, {"name": "Salinas", "lat": 17.97747, "lng": -66.29795, "population": 6375}, {"name": "Ceiba", "lat": 18.26412, "lng": -65.6485, "population": 6277}, {"name": "Sabana Seca", "lat": 18.42689, "lng": -66.18461, "population": 6247}, {"name": "Puerto Real", "lat": 18.07496, "lng": -67.18712, "population": 6166}, {"name": "Añasco", "lat": 18.28273, "lng": -67.13962, "population": 6136}, {"name": "Estancias de Florida", "lat": 18.36662, "lng": -66.56962, "population": 5972}, {"name": "Candelaria Arenas", "lat": 18.41717, "lng": -66.21739, "population": 5854}, {"name": "Coco", "lat": 18.00719, "lng": -66.25933, "population": 5803}, {"name": "Punta Santiago", "lat": 18.16635, "lng": -65.74822, "population": 5803}, {"name": "Ingenio", "lat": 18.44217, "lng": -66.226, "population": 5664}, {"name": "Florida", "lat": 18.36245, "lng": -66.56128, "population": 5652}, {"name": "Hatillo", "lat": 18.48633, "lng": -66.82545, "population": 5622}, {"name": "Quebradillas", "lat": 18.47383, "lng": -66.93851, "population": 5620}, {"name": "Lajas", "lat": 18.04996, "lng": -67.05934, "population": 5255}, {"name": "Guayanilla", "lat": 18.01913, "lng": -66.79184, "population": 5213}, {"name": "Santa Barbara", "lat": 18.39356, "lng": -65.91878, "population": 5168}, {"name": "Adjuntas", "lat": 18.16274, "lng": -66.72212, "population": 5080}, {"name": "Eleanor Roosevelt", "lat": 18.41634, "lng": -66.06405, "population": 5075}, {"name": "Cidra", "lat": 18.17579, "lng": -66.16128, "population": 5067}, {"name": "Moca", "lat": 18.39467, "lng": -67.11324, "population": 4964}, {"name": "Aguilita", "lat": 18.0233, "lng": -66.53462, "population": 4922}, {"name": "Comerío", "lat": 18.21801, "lng": -66.226, "population": 4649}, {"name": "Naguabo", "lat": 18.21162, "lng": -65.73488, "population": 4643}, {"name": "Aguas Buenas", "lat": 18.2569, "lng": -66.10294, "population": 4576}, {"name": "Villalba", "lat": 18.12718, "lng": -66.49212, "population": 4555}, {"name": "Toa Alta", "lat": 18.38828, "lng": -66.24822, "population": 4483}, {"name": "Celada", "lat": 18.27162, "lng": -65.966, "population": 4435}, {"name": "Vieques", "lat": 18.42495, "lng": -65.83294, "population": 4325}, {"name": "Loíza", "lat": 18.43134, "lng": -65.88016, "population": 4311}, {"name": "Patillas", "lat": 18.00635, "lng": -66.01572, "population": 4247}, {"name": "Camuy", "lat": 18.48383, "lng": -66.8449, "population": 4240}, {"name": "Aguada", "lat": 18.37939, "lng": -67.18824, "population": 4040}, {"name": "Caban", "lat": 18.44328, "lng": -67.13601, "population": 3959}, {"name": "Bajadero", "lat": 18.42661, "lng": -66.68323, "population": 3877}, {"name": "Potala Pastillo", "lat": 17.99135, "lng": -66.49656, "population": 3819}, {"name": "Santo Domingo", "lat": 18.0633, "lng": -66.7524, "population": 3633}, {"name": "Coto Laurel", "lat": 18.04969, "lng": -66.55128, "population": 3606}, {"name": "Coquí", "lat": 17.97413, "lng": -66.22711, "population": 3590}, {"name": "Jayuya", "lat": 18.21857, "lng": -66.59156, "population": 3587}, {"name": "Luyando", "lat": 18.36439, "lng": -67.1574, "population": 3553}, {"name": "La Dolores", "lat": 18.3755, "lng": -65.85572, "population": 3534}, {"name": "Aguas Claras", "lat": 18.25273, "lng": -65.6535, "population": 3499}, {"name": "Jobos", "lat": 17.95524, "lng": -66.16544, "population": 3475}, {"name": "Luis Llorens Torres", "lat": 18.05691, "lng": -66.52684, "population": 3328}, {"name": "San José", "lat": 18.39828, "lng": -66.25572, "population": 3278}, {"name": "Ciales", "lat": 18.33606, "lng": -66.46878, "population": 3256}, {"name": "Campo Rico", "lat": 18.33717, "lng": -65.89794, "population": 3218}, {"name": "Capitanejo", "lat": 18.01454, "lng": -66.53372, "population": 3209}, {"name": "La Fermina", "lat": 18.17551, "lng": -65.8535, "population": 3177}, {"name": "Emajagua", "lat": 18.00052, "lng": -65.88266, "population": 3099}, {"name": "Barranquitas", "lat": 18.18662, "lng": -66.30628, "population": 3021}, {"name": "Imbery", "lat": 18.43689, "lng": -66.55239, "population": 3021}, {"name": "Corazón", "lat": 17.99274, "lng": -66.08489, "population": 2925}, {"name": "La Luisa", "lat": 18.44884, "lng": -66.50989, "population": 2887}, {"name": "Martorell", "lat": 18.07607, "lng": -65.89822, "population": 2884}, {"name": "Palmas", "lat": 17.98719, "lng": -66.02544, "population": 2829}, {"name": "Monserrate", "lat": 18.43661, "lng": -66.35961, "population": 2756}, {"name": "Galateo", "lat": 18.36245, "lng": -66.25878, "population": 2705}, {"name": "Luis M. Cintron", "lat": 18.29968, "lng": -65.63849, "population": 2634}, {"name": "Barahona", "lat": 18.35134, "lng": -66.44545, "population": 2632}, {"name": "Carrizales", "lat": 18.48189, "lng": -66.7899, "population": 2556}, {"name": "Olimpo", "lat": 18.00191, "lng": -66.10822, "population": 2493}, {"name": "Hato Candal", "lat": 18.37439, "lng": -65.78711, "population": 2453}, {"name": "Morovis", "lat": 18.32578, "lng": -66.40656, "population": 2414}, {"name": "Mariano Colón", "lat": 18.0233, "lng": -66.33239, "population": 2387}, {"name": "H. Rivera Colon", "lat": 18.34773, "lng": -66.27378, "population": 2379}, {"name": "Guayabal", "lat": 18.08135, "lng": -66.50128, "population": 2377}, {"name": "Tierras Nuevas Poniente", "lat": 18.46189, "lng": -66.4885, "population": 2366}, {"name": "Bairoa", "lat": 18.25912, "lng": -66.04044, "population": 2365}, {"name": "Río Lajas", "lat": 18.39467, "lng": -66.26767, "population": 2349}, {"name": "Rafael Gonzalez", "lat": 18.42745, "lng": -66.78684, "population": 2325}, {"name": "Palomas", "lat": 18.01358, "lng": -66.87323, "population": 2321}, {"name": "Los Llanos", "lat": 18.05524, "lng": -66.40573, "population": 2301}, {"name": "San Antonio", "lat": 18.49217, "lng": -67.09851, "population": 2300}, {"name": "Vázquez", "lat": 18.0658, "lng": -66.2385, "population": 2297}, {"name": "Suárez", "lat": 18.43022, "lng": -65.8535, "population": 2276}, {"name": "Tallaboa Alta", "lat": 18.05107, "lng": -66.70017, "population": 2243}, {"name": "Playita", "lat": 18.04469, "lng": -65.90738, "population": 2192}, {"name": "Maunabo", "lat": 18.00719, "lng": -65.89933, "population": 2154}, {"name": "La Alianza", "lat": 18.39745, "lng": -66.6024, "population": 2139}, {"name": "La Playa", "lat": 18.28745, "lng": -67.18685, "population": 2139}, {"name": "Brenas", "lat": 18.46717, "lng": -66.341, "population": 2104}, {"name": "Cacao", "lat": 18.43661, "lng": -66.93712, "population": 2068}, {"name": "Miranda", "lat": 18.38662, "lng": -66.38378, "population": 2057}, {"name": "Playa Fortuna", "lat": 18.37967, "lng": -65.74516, "population": 2037}, {"name": "Comunas", "lat": 18.08719, "lng": -65.84377, "population": 2027}, {"name": "Buena Vista", "lat": 17.99635, "lng": -66.05183, "population": 2026}, {"name": "Franquez", "lat": 18.34023, "lng": -66.42767, "population": 2021}, {"name": "Boquerón", "lat": 18.02691, "lng": -67.16907, "population": 2017}, {"name": "Lluveras", "lat": 18.0383, "lng": -66.90462, "population": 2005}, {"name": "Naranjito", "lat": 18.30079, "lng": -66.24489, "population": 2005}, {"name": "Ramos", "lat": 18.33967, "lng": -65.71266, "population": 2004}, {"name": "El Mangó", "lat": 18.23412, "lng": -65.87961, "population": 1979}, {"name": "Las Ollas", "lat": 18.014, "lng": -66.421, "population": 1949}, {"name": "Sabana", "lat": 18.46078, "lng": -66.3585, "population": 1946}, {"name": "Piedra Gorda", "lat": 18.43411, "lng": -66.88768, "population": 1927}, {"name": "Toa Baja", "lat": 18.44384, "lng": -66.25961, "population": 1889}, {"name": "Rafael Capo", "lat": 18.40717, "lng": -66.78212, "population": 1863}, {"name": "Mora", "lat": 18.463, "lng": -67.03268, "population": 1857}, {"name": "Sabana Eneas", "lat": 18.08607, "lng": -67.08101, "population": 1847}, {"name": "Jauca", "lat": 17.96913, "lng": -66.36572, "population": 1838}, {"name": "Pole Ojea", "lat": 17.97496, "lng": -67.18518, "population": 1829}, {"name": "Las Marias", "lat": 18.29328, "lng": -67.14629, "population": 1823}, {"name": "Sabana Hoyos", "lat": 18.43384, "lng": -66.61378, "population": 1823}, {"name": "Monte Grande", "lat": 18.08746, "lng": -67.1074, "population": 1817}, {"name": "G. L. Garcia", "lat": 18.12746, "lng": -66.10405, "population": 1798}, {"name": "Antón Ruiz", "lat": 18.18524, "lng": -65.8085, "population": 1764}, {"name": "Palomas", "lat": 18.23246, "lng": -66.25628, "population": 1742}, {"name": "Indios", "lat": 17.99413, "lng": -66.81934, "population": 1739}, {"name": "El Ojo", "lat": 18.00385, "lng": -66.39156, "population": 1713}, {"name": "Bayamon", "lat": 18.17774, "lng": -66.11322, "population": 1699}, {"name": "Mucarabones", "lat": 18.39078, "lng": -66.216, "population": 1690}, {"name": "Aceitunas", "lat": 18.44328, "lng": -67.0649, "population": 1688}, {"name": "Playita Cortada", "lat": 17.98497, "lng": -66.43906, "population": 1677}, {"name": "El Negro", "lat": 18.03747, "lng": -65.85127, "population": 1656}, {"name": "Parcelas Nuevas", "lat": 18.14024, "lng": -66.17239, "population": 1628}, {"name": "Central Aguirre", "lat": 17.95358, "lng": -66.22294, "population": 1588}, {"name": "Duque", "lat": 18.23669, "lng": -65.74172, "population": 1529}, {"name": "Pastos", "lat": 18.11774, "lng": -66.25878, "population": 1528}, {"name": "Corcovado", "lat": 18.45856, "lng": -66.77629, "population": 1527}, {"name": "Rafael Hernandez", "lat": 18.47133, "lng": -67.07907, "population": 1516}, {"name": "Rincón", "lat": 18.34023, "lng": -67.2499, "population": 1499}, {"name": "Daguao", "lat": 18.22635, "lng": -65.68322, "population": 1488}, {"name": "Culebra", "lat": 18.30301, "lng": -65.30099, "population": 1486}, {"name": "Pueblito del Rio", "lat": 18.22801, "lng": -65.86294, "population": 1481}, {"name": "Maria Antonia", "lat": 17.9783, "lng": -66.88934, "population": 1479}, {"name": "Yaurel", "lat": 18.02691, "lng": -66.05711, "population": 1468}, {"name": "Animas", "lat": 18.4455, "lng": -66.6349, "population": 1450}, {"name": "Espino", "lat": 18.27634, "lng": -67.11935, "population": 1422}, {"name": "Bajandas", "lat": 18.15774, "lng": -65.78155, "population": 1418}, {"name": "Río Blanco", "lat": 18.21829, "lng": -65.7885, "population": 1406}, {"name": "Jagual", "lat": 18.16163, "lng": -65.99544, "population": 1402}, {"name": "Coto Norte", "lat": 18.43078, "lng": -66.43989, "population": 1381}, {"name": "Candelero Arriba", "lat": 18.10191, "lng": -65.83683, "population": 1346}, {"name": "Parcelas La Milagrosa", "lat": 18.17079, "lng": -66.18822, "population": 1344}, {"name": "Benitez", "lat": 18.27357, "lng": -65.87905, "population": 1334}, {"name": "Liborio Negron Torres", "lat": 18.04302, "lng": -66.9424, "population": 1303}, {"name": "Stella", "lat": 18.32189, "lng": -67.24685, "population": 1293}, {"name": "Cayuco", "lat": 18.29106, "lng": -66.73934, "population": 1284}, {"name": "Bartolo", "lat": 18.36134, "lng": -65.8385, "population": 1260}, {"name": "Rosa Sanchez", "lat": 18.06163, "lng": -65.9135, "population": 1221}, {"name": "Boqueron", "lat": 18.20746, "lng": -65.8485, "population": 1218}, {"name": "Garrochales", "lat": 18.45356, "lng": -66.56628, "population": 1208}, {"name": "Palmer", "lat": 18.37051, "lng": -65.77405, "population": 1205}, {"name": "Fuig", "lat": 17.98774, "lng": -66.91601, "population": 1204}, {"name": "San Antonio", "lat": 18.43961, "lng": -66.93149, "population": 1203}, {"name": "Las Ochenta", "lat": 17.98469, "lng": -66.31795, "population": 1199}, {"name": "Río Cañas Abajo", "lat": 18.0383, "lng": -66.46767, "population": 1185}, {"name": "Maricao", "lat": 18.18079, "lng": -66.9799, "population": 1172}, {"name": "Palmarejo", "lat": 18.04024, "lng": -67.07685, "population": 1169}, {"name": "Juncal", "lat": 18.31384, "lng": -66.91907, "population": 1155}, {"name": "Palo Seco", "lat": 18.00747, "lng": -65.93683, "population": 1152}, {"name": "Tallaboa", "lat": 17.99497, "lng": -66.71629, "population": 1150}, {"name": "Sumidero", "lat": 18.21857, "lng": -66.12878, "population": 1145}, {"name": "La Parguera", "lat": 17.97497, "lng": -67.04657, "population": 1141}, {"name": "Santa Clara", "lat": 18.21461, "lng": -66.13201, "population": 1138}, {"name": "Parcelas Peñuelas", "lat": 17.99885, "lng": -66.34128, "population": 1132}, {"name": "Quebrada", "lat": 18.35662, "lng": -66.83212, "population": 1130}, {"name": "Lamboglia", "lat": 17.98136, "lng": -65.98572, "population": 1121}, {"name": "Bufalo", "lat": 18.41828, "lng": -66.57323, "population": 1108}, {"name": "Esperanza", "lat": 18.09719, "lng": -65.47071, "population": 1092}, {"name": "Palmarejo", "lat": 18.06802, "lng": -66.32545, "population": 1087}, {"name": "Magas Arriba", "lat": 18.01746, "lng": -66.76906, "population": 1063}, {"name": "La Plena", "lat": 18.04663, "lng": -66.20461, "population": 1036}, {"name": "Las Marías", "lat": 18.2519, "lng": -66.99212, "population": 1031}, {"name": "Peña Pobre", "lat": 18.21551, "lng": -65.82211, "population": 1024}, {"name": "Orocovis", "lat": 18.2269, "lng": -66.391, "population": 944}]