[{"name": "Asunción", "lat": -25.28646, "lng": -57.647, "population": 1482200}, {"name": "Ciudad del Este", "lat": -25.5036, "lng": -54.65067, "population": 301815}, {"name": "San Lorenzo", "lat": -25.33968, "lng": -57.50879, "population": 227876}, {"name": "Capiatá", "lat": -25.3552, "lng": -57.44545, "population": 198553}, {"name": "Lambaré", "lat": -25.34682, "lng": -57.60647, "population": 126377}, {"name": "Fernando de la Mora", "lat": -25.3386, "lng": -57.52167, "population": 120167}, {"name": "Limpio", "lat": -25.16611, "lng": -57.48562, "population": 96143}, {"name": "Nemby", "lat": -25.3949, "lng": -57.53574, "population": 94641}, {"name": "Pedro Juan Caballero", "lat": -22.54925, "lng": -55.7387, "population": 75109}, {"name": "Encarnación", "lat": -27.33176, "lng": -55.86662, "population": 74983}, {"name": "Mariano Roque Alonso", "lat": -25.20791, "lng": -57.53202, "population": 72008}, {"name": "Itauguá", "lat": -25.39258, "lng": -57.35421, "population": 64997}, {"name": "Villa Elisa", "lat": -25.3676, "lng": -57.59274, "population": 64099}, {"name": "Villa Hayes", "lat": -25.093, "lng": -57.52725, "population": 57217}, {"name": "Caacupé", "lat": -25.38575, "lng": -57.14217, "population": 56864}, {"name": "San Antonio", "lat": -25.42126, "lng": -57.54725, "population": 55754}, {"name": "Caaguazú", "lat": -25.47104, "lng": -56.01603, "population": 54808}, {"name": "Presidente Franco", "lat": -25.56384, "lng": -54.61097, "population": 54292}, {"name": "Coronel Oviedo", "lat": -25.44613, "lng": -56.43928, "population": 51286}, {"name": "Concepción", "lat": -23.39985, "lng": -57.43236, "population": 48123}, {"name": "Villarrica", "lat": -25.74946, "lng": -56.43518, "population": 41157}, {"name": "Pilar", "lat": -26.85874, "lng": -58.30639, "population": 32810}, {"name": "Yby Yaú", "lat": -22.96611, "lng": -56.54066, "population": 31290}, {"name": "Caazapá", "lat": -26.1966, "lng": -56.36786, "population": 23996}, {"name": "Filadelfia", "lat": -22.33936, "lng": -60.03157, "population": 19927}, {"name": "Itá", "lat": -25.50054, "lng": -57.36717, "population": 18459}, {"name": "San Juan Bautista", "lat": -26.67028, "lng": -57.14073, "population": 16593}, {"name": "Nueva Esperanza", "lat": -24.5076, "lng": -54.8551, "population": 12717}, {"name": "Ayolas", "lat": -27.38421, "lng": -56.83953, "population": 12061}, {"name": "Santa Rita", "lat": -25.79632, "lng": -55.08847, "population": 11823}, {"name": "Colonia General Alfredo Stroessner", "lat": -25.36395, "lng": -55.7069, "population": 11558}, {"name": "San Pedro de Ycuamandyyú", "lat": -24.08534, "lng": -57.08745, "population": 11548}, {"name": "Areguá", "lat": -25.31239, "lng": -57.38495, "population": 11222}, {"name": "San Isidro de Curuguaty", "lat": -24.47184, "lng": -55.69227, "population": 11095}, {"name": "Horqueta", "lat": -23.34323, "lng": -57.05212, "population": 10531}, {"name": "Lima", "lat": -23.88496, "lng": -56.47891, "population": 10367}, {"name": "Piribebuy", "lat": -25.46498, "lng": -57.04183, "population": 10337}, {"name": "Paraguarí", "lat": -25.62075, "lng": -57.14724, "population": 10079}, {"name": "Tobatí", "lat": -25.26111, "lng": -57.08329, "population": 9952}, {"name": "Ypacarai", "lat": -25.40777, "lng": -57.28889, "population": 9655}, {"name": "Capitán Bado", "lat": -23.26733, "lng": -55.53876, "population": 9114}, {"name": "Guarambaré", "lat": -25.49096, "lng": -57.45567, "population": 9065}, {"name": "Eusebio Ayala", "lat": -25.38276, "lng": -56.96088, "population": 8253}, {"name": "San Juan Nepomuceno", "lat": -26.11229, "lng": -55.93861, "population": 7893}, {"name": "Benjamín Aceval", "lat": -24.9974, "lng": -57.55239, "population": 7751}, {"name": "Doctor Juan León Mallorquín", "lat": -25.43053, "lng": -55.25412, "population": 7481}, {"name": "Salto del Guairá", "lat": -24.0633, "lng": -54.30763, "population": 7385}, {"name": "Santa Rosa", "lat": -26.8873, "lng": -56.84905, "population": 7257}, {"name": "Yaguarón", "lat": -25.56219, "lng": -57.28662, "population": 7181}, {"name": "Repatriación", "lat": -25.53515, "lng": -55.99242, "population": 7085}, {"name": "Obligado", "lat": -27.0555, "lng": -55.62731, "population": 6350}, {"name": "Emboscada", "lat": -25.12413, "lng": -57.34807, "population": 5911}, {"name": "Carapeguá", "lat": -25.76344, "lng": -57.24677, "population": 5784}, {"name": "San Pedro del Paraná", "lat": -26.83387, "lng": -56.20694, "population": 5722}, {"name": "Bella Vista", "lat": -22.12226, "lng": -56.51523, "population": 5653}, {"name": "Colonia Menno", "lat": -22.36667, "lng": -59.81667, "population": 5615}, {"name": "Nanawa", "lat": -25.2793, "lng": -57.70307, "population": 5587}, {"name": "Tomás Romero Pereira", "lat": -26.53115, "lng": -55.26046, "population": 5533}, {"name": "Puerto Vallemí", "lat": -22.15755, "lng": -57.95125, "population": 5332}, {"name": "Hohenau", "lat": -27.07315, "lng": -55.64247, "population": 5306}, {"name": "Quiindy", "lat": -25.97606, "lng": -57.23353, "population": 5137}, {"name": "Puerto Rosario", "lat": -24.44127, "lng": -57.14272, "population": 5123}, {"name": "San José de los Arroyos", "lat": -25.5331, "lng": -56.73233, "population": 5117}, {"name": "San Alberto", "lat": -24.96667, "lng": -54.9, "population": 4989}, {"name": "Doctor Juan Manuel Frutos", "lat": -25.3838, "lng": -55.83215, "population": 4797}, {"name": "Yuty", "lat": -26.61415, "lng": -56.24727, "population": 4774}, {"name": "Atyrá", "lat": -25.2794, "lng": -57.17289, "population": 4768}, {"name": "Altos", "lat": -25.26263, "lng": -57.25443, "population": 4763}, {"name": "Puerto Mayor Otaño", "lat": -26.4, "lng": -54.7, "population": 4701}, {"name": "San Bernardino", "lat": -25.31067, "lng": -57.29628, "population": 4651}, {"name": "Ybycuí", "lat": -26.02073, "lng": -57.0172, "population": 4629}, {"name": "Iturbe", "lat": -26.05508, "lng": -56.48463, "population": 4475}, {"name": "Carmelo Peralta", "lat": -21.67985, "lng": -57.90729, "population": 4402}, {"name": "La Paloma del Espíritu Santo", "lat": -24.12957, "lng": -54.61376, "population": 4383}, {"name": "Carmen del Paraná", "lat": -27.22232, "lng": -56.15243, "population": 4196}, {"name": "General Artigas", "lat": -26.93461, "lng": -56.22214, "population": 4073}, {"name": "Katueté", "lat": -24.24829, "lng": -54.75961, "population": 4070}, {"name": "Pirayú", "lat": -25.48415, "lng": -57.23612, "population": 4000}, {"name": "Fram", "lat": -26.98333, "lng": -55.88333, "population": 3916}, {"name": "Itacurubí del Rosario", "lat": -24.53541, "lng": -56.82352, "population": 3887}, {"name": "Itacurubí de la Cordillera", "lat": -25.46158, "lng": -56.85333, "population": 3576}, {"name": "Capiibary", "lat": -24.7319, "lng": -56.02052, "population": 3537}, {"name": "Yguazú", "lat": -25.46096, "lng": -55.00489, "population": 3363}, {"name": "Acahay", "lat": -25.91409, "lng": -57.11329, "population": 3205}, {"name": "Itakyry", "lat": -24.98401, "lng": -55.1493, "population": 3038}, {"name": "Abaí", "lat": -26.03848, "lng": -55.94685, "population": 3024}, {"name": "General Elizardo Aquino", "lat": -24.44548, "lng": -56.89942, "population": 2983}, {"name": "Nueva Italia", "lat": -25.6108, "lng": -57.46563, "population": 2841}, {"name": "Trinidad", "lat": -27.13103, "lng": -55.70584, "population": 2837}, {"name": "Colonia Neuland", "lat": -22.66667, "lng": -60.11667, "population": 2816}, {"name": "Villa Ygatimí", "lat": -24.12371, "lng": -55.64418, "population": 2809}, {"name": "Los Cedrales", "lat": -25.65668, "lng": -54.72272, "population": 2754}, {"name": "Antequera", "lat": -24.08526, "lng": -57.20221, "population": 2701}, {"name": "La Colmena", "lat": -25.88627, "lng": -56.84084, "population": 2551}, {"name": "Puerto Bahía Negra", "lat": -20.22966, "lng": -58.16857, "population": 2537}, {"name": "Jesús", "lat": -27.05598, "lng": -55.7413, "population": 2530}, {"name": "Capitán Miranda", "lat": -27.21946, "lng": -55.79837, "population": 2498}, {"name": "Fuerte Olimpo", "lat": -21.04153, "lng": -57.87377, "population": 2475}, {"name": "Carayaó", "lat": -25.1975, "lng": -56.39878, "population": 2473}, {"name": "Arroyos y Esteros", "lat": -25.05505, "lng": -57.09728, "population": 2455}, {"name": "General Eugenio A. Garay", "lat": -20.51667, "lng": -62.13333, "population": 2409}, {"name": "Tacuatí", "lat": -23.45767, "lng": -56.73672, "population": 2405}, {"name": "Colonia Mauricio José Troche", "lat": -25.56667, "lng": -56.28333, "population": 2368}, {"name": "Bella Vista", "lat": -27.0491, "lng": -55.5717, "population": 2334}, {"name": "Villa Florida", "lat": -26.41065, "lng": -57.12104, "population": 2305}, {"name": "Mbocayaty", "lat": -25.71938, "lng": -56.42179, "population": 2296}, {"name": "Caapucú", "lat": -26.23523, "lng": -57.18212, "population": 2284}, {"name": "Natalio", "lat": -26.75702, "lng": -55.13777, "population": 2252}, {"name": "Guajayvi", "lat": -24.53333, "lng": -56.40392, "population": 2247}, {"name": "San Cosme y Damián", "lat": -27.31922, "lng": -56.33223, "population": 2223}, {"name": "Mbuyapey", "lat": -26.21921, "lng": -56.75777, "population": 2201}, {"name": "Naranjal", "lat": -25.97432, "lng": -55.18661, "population": 2151}, {"name": "Santiago", "lat": -27.1431, "lng": -56.76803, "population": 2144}, {"name": "Santa María", "lat": -26.78371, "lng": -56.94333, "population": 2095}, {"name": "Yhú", "lat": -25.05784, "lng": -55.92267, "population": 2092}, {"name": "Colonia San Lorenzo", "lat": -26.49324, "lng": -54.79989, "population": 2000}, {"name": "Doctor Cecilio Báez", "lat": -25.06943, "lng": -56.24267, "population": 1977}, {"name": "Sapucaí", "lat": -25.66652, "lng": -56.95215, "population": 1932}, {"name": "Natalicio Talavera", "lat": -25.65378, "lng": -56.30933, "population": 1809}, {"name": "Minga Porá", "lat": -24.87544, "lng": -54.93395, "population": 1770}, {"name": "Pirapó", "lat": -26.85842, "lng": -55.54414, "population": 1756}, {"name": "San Joaquín", "lat": -25.02853, "lng": -56.0428, "population": 1745}, {"name": "Edelira", "lat": -26.76734, "lng": -55.27872, "population": 1698}, {"name": "Unión", "lat": -24.8079, "lng": -56.52148, "population": 1653}, {"name": "Itapé", "lat": -25.85172, "lng": -56.61385, "population": 1641}, {"name": "Caraguatay", "lat": -25.23844, "lng": -56.82693, "population": 1637}, {"name": "Belén", "lat": -23.46987, "lng": -57.26175, "population": 1621}, {"name": "Buena Vista", "lat": -26.18705, "lng": -56.08334, "population": 1580}, {"name": "Independencia", "lat": -25.691, "lng": -56.26781, "population": 1575}, {"name": "General José María Delgado", "lat": -27.09046, "lng": -56.52474, "population": 1544}, {"name": "Isla Pucú", "lat": -25.30853, "lng": -56.89911, "population": 1529}, {"name": "San Patricio", "lat": -26.97626, "lng": -56.8269, "population": 1525}, {"name": "Carlos Antonio López", "lat": -26.39853, "lng": -54.7569, "population": 1496}, {"name": "San Juan del Paraná", "lat": -27.30264, "lng": -55.96387, "population": 1492}, {"name": "Mbutuý", "lat": -24.97518, "lng": -56.30927, "population": 1466}, {"name": "General Higinio Morínigo", "lat": -25.95, "lng": -55.91667, "population": 1399}, {"name": "Yataity del Norte", "lat": -24.84752, "lng": -56.35538, "population": 1392}, {"name": "Corpus Christi", "lat": -24.0804, "lng": -54.93933, "population": 1387}, {"name": "Coronel Martínez", "lat": -25.75896, "lng": -56.61596, "population": 1359}, {"name": "General José Eduvigis Díaz", "lat": -27.20153, "lng": -58.3691, "population": 1345}, {"name": "San Miguel", "lat": -26.53599, "lng": -57.03928, "population": 1210}, {"name": "Colonia Nueva Germania", "lat": -23.91137, "lng": -56.70091, "population": 1206}, {"name": "Capitán Pablo Lagerenza", "lat": -19.91667, "lng": -60.78333, "population": 1200}, {"name": "Fulgencio Yegros", "lat": -26.45565, "lng": -56.40368, "population": 1140}, {"name": "Santa Elena", "lat": -25.41396, "lng": -56.79762, "population": 1137}, {"name": "Cerrito", "lat": -27.34215, "lng": -57.64119, "population": 1036}, {"name": "Chore", "lat": -24.18606, "lng": -56.58251, "population": 0}]