[{"name": "Saint-Denis", "lat": -20.88231, "lng": 55.4504, "population": 154765}, {"name": "Saint-Paul", "lat": -21.00961, "lng": 55.27134, "population": 105240}, {"name": "Saint-Pierre", "lat": -21.3393, "lng": 55.47811, "population": 84077}, {"name": "Le Tampon", "lat": -21.2766, "lng": 55.51766, "population": 81943}, {"name": "Saint-André", "lat": -20.96333, "lng": 55.65031, "population": 57150}, {"name": "Saint-Louis", "lat": -21.28585, "lng": 55.41124, "population": 53935}, {"name": "Saint-Joseph", "lat": -21.3777, "lng": 55.61691, "population": 38807}, {"name": "Saint-Benoît", "lat": -21.03795, "lng": 55.71546, "population": 37023}, {"name": "La Possession", "lat": -20.92909, "lng": 55.3348, "population": 35245}, {"name": "Saint-Leu", "lat": -21.17059, "lng": 55.28824, "population": 34893}, {"name": "Sainte-Marie", "lat": -20.89686, "lng": 55.55056, "population": 34344}, {"name": "Le Port", "lat": -20.93752, "lng": 55.29415, "population": 33336}, {"name": "Piton Saint-Leu", "lat": -21.21962, "lng": 55.31513, "population": 29278}, {"name": "Sainte-Suzanne", "lat": -20.90616, "lng": 55.60788, "population": 24293}, {"name": "L'Étang-Salé", "lat": -21.25, "lng": 55.38333, "population": 13836}, {"name": "Bras-Panon", "lat": -20.99667, "lng": 55.67823, "population": 13344}, {"name": "Petite-Île", "lat": -21.35327, "lng": 55.56427, "population": 12617}, {"name": "Les Avirons", "lat": -21.24063, "lng": 55.33685, "population": 11434}, {"name": "Salazie", "lat": -21.0271, "lng": 55.5395, "population": 7696}, {"name": "Les Trois-Bassins", "lat": -21.1, "lng": 55.3, "population": 7114}, {"name": "Entre-Deux", "lat": -21.23333, "lng": 55.46667, "population": 7105}, {"name": "Sainte-Rose", "lat": -21.12858, "lng": 55.79616, "population": 7035}, {"name": "La Plaine-des-Palmistes", "lat": -21.13425, "lng": 55.62819, "population": 6821}, {"name": "Cilaos", "lat": -21.13641, "lng": 55.47187, "population": 6225}, {"name": "Saint-Philippe", "lat": -21.36086, "lng": 55.7679, "population": 5441}, {"name": "La Mare", "lat": -20.8978, "lng": 55.53264, "population": 2189}]