[{"name": "Bucharest", "lat": 44.43225, "lng": 26.10626, "population": 1877155}, {"name": "Sector 3", "lat": 44.4234, "lng": 26.16874, "population": 385439}, {"name": "Iaşi", "lat": 47.16667, "lng": 27.6, "population": 378954}, {"name": "Sector 6", "lat": 44.43579, "lng": 26.01649, "population": 367760}, {"name": "Constanţa", "lat": 44.18073, "lng": 28.63432, "population": 317832}, {"name": "Sector 2", "lat": 44.4528, "lng": 26.13321, "population": 290507}, {"name": "Sector 4", "lat": 44.37571, "lng": 26.12085, "population": 287828}, {"name": "Cluj-Napoca", "lat": 46.76667, "lng": 23.6, "population": 286598}, {"name": "Sector 5", "lat": 44.38808, "lng": 26.07144, "population": 271575}, {"name": "Braşov", "lat": 45.64861, "lng": 25.60613, "population": 253200}, {"name": "Timişoara", "lat": 45.75372, "lng": 21.22571, "population": 250849}, {"name": "Craiova", "lat": 44.31667, "lng": 23.8, "population": 234140}, {"name": "Sector 1", "lat": 44.49239, "lng": 26.04831, "population": 225453}, {"name": "Galaţi", "lat": 45.43687, "lng": 28.05028, "population": 217851}, {"name": "Târgu Mureş", "lat": 46.54245, "lng": 24.55747, "population": 212752}, {"name": "Oradea", "lat": 47.0458, "lng": 21.91833, "population": 183105}, {"name": "Ploieşti", "lat": 44.95, "lng": 26.01667, "population": 180540}, {"name": "Arad", "lat": 46.18333, "lng": 21.31667, "population": 169065}, {"name": "Brăila", "lat": 45.27152, "lng": 27.97429, "population": 154686}, {"name": "Piteşti", "lat": 44.85, "lng": 24.86667, "population": 141275}, {"name": "Bacău", "lat": 46.56718, "lng": 26.91384, "population": 136087}, {"name": "Sibiu", "lat": 45.8, "lng": 24.15, "population": 134309}, {"name": "Satu Mare", "lat": 47.79926, "lng": 22.86255, "population": 112490}, {"name": "Baia Mare", "lat": 47.65729, "lng": 23.56808, "population": 108759}, {"name": "Buzău", "lat": 45.15, "lng": 26.83333, "population": 103481}, {"name": "Piatra Neamţ", "lat": 46.91667, "lng": 26.33333, "population": 102688}, {"name": "Râmnicu Vâlcea", "lat": 45.1, "lng": 24.36667, "population": 93151}, {"name": "Botoşani", "lat": 47.75, "lng": 26.66667, "population": 90010}, {"name": "Suceava", "lat": 47.63333, "lng": 26.25, "population": 84308}, {"name": "Reşiţa", "lat": 45.30083, "lng": 21.88917, "population": 81228}, {"name": "Drobeta-Turnu Severin", "lat": 44.62693, "lng": 22.65288, "population": 79865}, {"name": "Bistriţa", "lat": 47.13316, "lng": 24.50011, "population": 78877}, {"name": "Târgu Jiu", "lat": 45.05, "lng": 23.28333, "population": 73545}, {"name": "Hunedoara", "lat": 45.75, "lng": 22.9, "population": 69136}, {"name": "Roman", "lat": 46.92119, "lng": 26.92646, "population": 67819}, {"name": "Bârlad", "lat": 46.23175, "lng": 27.66907, "population": 67818}, {"name": "Deva", "lat": 45.88333, "lng": 22.9, "population": 67802}, {"name": "Târgovişte", "lat": 44.92543, "lng": 25.4567, "population": 66965}, {"name": "Focșani", "lat": 45.7, "lng": 27.18333, "population": 66648}, {"name": "Tulcea", "lat": 45.1787, "lng": 28.80501, "population": 65624}, {"name": "Alba Iulia", "lat": 46.06667, "lng": 23.58333, "population": 64227}, {"name": "Slatina", "lat": 44.43333, "lng": 24.36667, "population": 63487}, {"name": "Vaslui", "lat": 46.63333, "lng": 27.73333, "population": 63035}, {"name": "Giurgiu", "lat": 43.88664, "lng": 25.9627, "population": 54551}, {"name": "Mediaş", "lat": 46.16667, "lng": 24.35, "population": 53040}, {"name": "Zalău", "lat": 47.2, "lng": 23.05, "population": 52359}, {"name": "Sfântu Gheorghe", "lat": 45.86667, "lng": 25.78333, "population": 50080}, {"name": "Paşcani", "lat": 47.2469, "lng": 26.72291, "population": 45000}, {"name": "Petroşani", "lat": 45.41667, "lng": 23.36667, "population": 44187}, {"name": "Turda", "lat": 46.56667, "lng": 23.78333, "population": 43319}, {"name": "Medgidia", "lat": 44.25, "lng": 28.28333, "population": 43315}, {"name": "Lugoj", "lat": 45.68861, "lng": 21.90306, "population": 43243}, {"name": "Câmpina", "lat": 45.12619, "lng": 25.73496, "population": 41554}, {"name": "Slobozia", "lat": 44.5647, "lng": 27.3633, "population": 41550}, {"name": "Tecuci", "lat": 45.84973, "lng": 27.43441, "population": 41154}, {"name": "Sighetu Marmaţiei", "lat": 47.93195, "lng": 23.88603, "population": 40653}, {"name": "Alexandria", "lat": 43.98333, "lng": 25.33333, "population": 40390}, {"name": "Mangalia", "lat": 43.81623, "lng": 28.57656, "population": 39619}, {"name": "Râmnicu Sărat", "lat": 45.38333, "lng": 27.05, "population": 38526}, {"name": "Dej", "lat": 47.15, "lng": 23.86667, "population": 38033}, {"name": "Odorheiu Secuiesc", "lat": 46.3, "lng": 25.3, "population": 36532}, {"name": "Reghin-Sat", "lat": 46.78333, "lng": 24.71667, "population": 35490}, {"name": "Sighișoara", "lat": 46.22141, "lng": 24.79279, "population": 34537}, {"name": "Miercurea-Ciuc", "lat": 46.35, "lng": 25.8, "population": 34484}, {"name": "Caracal", "lat": 44.11667, "lng": 24.35, "population": 33761}, {"name": "Năvodari", "lat": 44.31667, "lng": 28.6, "population": 33106}, {"name": "Feteşti", "lat": 44.38333, "lng": 27.83333, "population": 32866}, {"name": "Curtea de Argeş", "lat": 45.13422, "lng": 24.67409, "population": 32178}, {"name": "Dorohoi", "lat": 47.95, "lng": 26.4, "population": 30776}, {"name": "Făgăraș", "lat": 45.85, "lng": 24.96667, "population": 30714}, {"name": "Lupeni", "lat": 45.36029, "lng": 23.23832, "population": 30488}, {"name": "Voluntari", "lat": 44.49002, "lng": 26.17338, "population": 30323}, {"name": "Săcele", "lat": 45.61674, "lng": 25.71101, "population": 29918}, {"name": "Fălticeni", "lat": 47.45, "lng": 26.3, "population": 29576}, {"name": "Huşi", "lat": 46.67361, "lng": 28.05944, "population": 29129}, {"name": "Mioveni", "lat": 44.95905, "lng": 24.94198, "population": 29062}, {"name": "Turnu Măgurele", "lat": 43.7469, "lng": 24.86846, "population": 28783}, {"name": "Târnăveni", "lat": 46.33191, "lng": 24.29662, "population": 28634}, {"name": "Aiud", "lat": 46.31006, "lng": 23.72128, "population": 28341}, {"name": "Caransebeş", "lat": 45.41667, "lng": 22.21667, "population": 27521}, {"name": "Roșiorii de Vede", "lat": 44.11667, "lng": 24.98333, "population": 27416}, {"name": "Sebeş", "lat": 45.95646, "lng": 23.571, "population": 27246}, {"name": "Borşa", "lat": 47.65527, "lng": 24.66328, "population": 26966}, {"name": "Câmpia Turzii", "lat": 46.55, "lng": 23.88333, "population": 26457}, {"name": "Petrila", "lat": 45.45, "lng": 23.41667, "population": 25234}, {"name": "Zărnești", "lat": 45.56093, "lng": 25.31787, "population": 24926}, {"name": "Cugir", "lat": 45.83651, "lng": 23.36998, "population": 24734}, {"name": "Moineşti", "lat": 46.47523, "lng": 26.48907, "population": 23981}, {"name": "Rădăuți", "lat": 47.85, "lng": 25.91667, "population": 23822}, {"name": "Fetești-Gară", "lat": 44.4196, "lng": 27.82536, "population": 23789}, {"name": "Gherla", "lat": 47.03333, "lng": 23.91667, "population": 23741}, {"name": "Comăneşti", "lat": 46.42135, "lng": 26.43645, "population": 23729}, {"name": "Olteniţa", "lat": 44.08333, "lng": 26.63333, "population": 22624}, {"name": "Motru", "lat": 44.80333, "lng": 22.97194, "population": 22319}, {"name": "Carei", "lat": 47.68333, "lng": 22.46667, "population": 20775}, {"name": "Orăştie", "lat": 45.83333, "lng": 23.2, "population": 20763}, {"name": "Buftea", "lat": 44.56139, "lng": 25.94889, "population": 20691}, {"name": "Drăgăşani", "lat": 44.65, "lng": 24.26667, "population": 20630}, {"name": "Balş", "lat": 44.35, "lng": 24.1, "population": 20626}, {"name": "Moreni", "lat": 44.98301, "lng": 25.64415, "population": 20596}, {"name": "Codlea", "lat": 45.7, "lng": 25.45, "population": 20534}, {"name": "Târgu Neamţ", "lat": 47.2, "lng": 26.36667, "population": 20473}, {"name": "Blaj", "lat": 46.17508, "lng": 23.91578, "population": 20371}, {"name": "Târgu Secuiesc", "lat": 46.0, "lng": 26.13333, "population": 20067}, {"name": "Corabia", "lat": 43.77513, "lng": 24.50146, "population": 20047}, {"name": "Băicoi", "lat": 45.03333, "lng": 25.85, "population": 19869}, {"name": "Gheorgheni", "lat": 46.72292, "lng": 25.60055, "population": 19777}, {"name": "Vulcan", "lat": 45.38333, "lng": 23.26667, "population": 19772}, {"name": "Câmpulung Moldovenesc", "lat": 47.53333, "lng": 25.56667, "population": 19765}, {"name": "Băileşti", "lat": 44.01667, "lng": 23.35, "population": 19599}, {"name": "Filiaşi", "lat": 44.55, "lng": 23.51667, "population": 18995}, {"name": "Calafat", "lat": 43.99069, "lng": 22.93328, "population": 18643}, {"name": "Cernavodă", "lat": 44.33957, "lng": 28.03273, "population": 18502}, {"name": "Buhuşi", "lat": 46.71667, "lng": 26.7, "population": 18395}, {"name": "Breaza", "lat": 45.18333, "lng": 25.66667, "population": 17949}, {"name": "Salonta", "lat": 46.8, "lng": 21.65, "population": 17561}, {"name": "Luduş", "lat": 46.48333, "lng": 24.1, "population": 17165}, {"name": "Urziceni", "lat": 44.71667, "lng": 26.63333, "population": 16770}, {"name": "Baia Sprie", "lat": 47.66189, "lng": 23.69215, "population": 16746}, {"name": "Bocşa", "lat": 45.37333, "lng": 21.70917, "population": 16349}, {"name": "Pantelimon", "lat": 44.45, "lng": 26.2, "population": 16206}, {"name": "Vatra Dornei", "lat": 47.35, "lng": 25.36667, "population": 16054}, {"name": "Brad", "lat": 46.13333, "lng": 22.78333, "population": 15988}, {"name": "Gura Humorului", "lat": 47.55, "lng": 25.9, "population": 15728}, {"name": "Şimleu Silvaniei", "lat": 47.23333, "lng": 22.8, "population": 15721}, {"name": "Mizil", "lat": 45.01667, "lng": 26.45, "population": 15532}, {"name": "Vişeu de Sus", "lat": 47.7079, "lng": 24.42953, "population": 15349}, {"name": "Ocna Mureş", "lat": 46.38333, "lng": 23.85, "population": 15316}, {"name": "Popeşti-Leordeni", "lat": 44.38333, "lng": 26.16667, "population": 15279}, {"name": "Râşnov", "lat": 45.58333, "lng": 25.45, "population": 15253}, {"name": "Zimnicea", "lat": 43.65638, "lng": 25.36454, "population": 15228}, {"name": "Adjud", "lat": 46.09911, "lng": 27.18143, "population": 15178}, {"name": "Cisnădie", "lat": 45.71667, "lng": 24.15, "population": 15042}, {"name": "Găeşti", "lat": 44.71667, "lng": 25.31667, "population": 15037}, {"name": "Sânpetru", "lat": 45.71082, "lng": 25.63678, "population": 15000}, {"name": "Pucioasa", "lat": 45.07807, "lng": 25.43232, "population": 14971}, {"name": "Dărmăneşti", "lat": 46.36667, "lng": 26.48333, "population": 14290}, {"name": "Vicovu de Sus", "lat": 47.93333, "lng": 25.68333, "population": 14077}, {"name": "Avrig", "lat": 45.71667, "lng": 24.38333, "population": 14032}, {"name": "Marghita", "lat": 47.35, "lng": 22.33333, "population": 13871}, {"name": "Simeria", "lat": 45.85, "lng": 23.01667, "population": 13827}, {"name": "Târgu Frumos", "lat": 47.2, "lng": 27.0, "population": 13797}, {"name": "Dăbuleni", "lat": 43.8, "lng": 24.08333, "population": 13641}, {"name": "Negreşti-Oaş", "lat": 47.86667, "lng": 23.43333, "population": 13456}, {"name": "Moldova Nouă", "lat": 44.7375, "lng": 21.66694, "population": 13263}, {"name": "Ovidiu", "lat": 44.258, "lng": 28.56083, "population": 13257}, {"name": "Comarnic", "lat": 45.25, "lng": 25.63333, "population": 13254}, {"name": "Târgu Ocna", "lat": 46.27899, "lng": 26.61301, "population": 13127}, {"name": "Sânnicolau Mare", "lat": 46.08333, "lng": 20.63333, "population": 12888}, {"name": "Ştefăneşti", "lat": 44.86506, "lng": 24.94961, "population": 12837}, {"name": "Pecica", "lat": 46.16667, "lng": 21.06667, "population": 12804}, {"name": "Chitila", "lat": 44.50806, "lng": 25.98222, "population": 12788}, {"name": "Călan", "lat": 45.73333, "lng": 22.98333, "population": 12782}, {"name": "Ţăndărei", "lat": 44.64128, "lng": 27.65635, "population": 12761}, {"name": "Sântana", "lat": 46.35, "lng": 21.5, "population": 12706}, {"name": "Poiana Mare", "lat": 43.91667, "lng": 23.06667, "population": 12633}, {"name": "Topliţa", "lat": 46.9243, "lng": 25.3519, "population": 12609}, {"name": "Scorniceşti", "lat": 44.56667, "lng": 24.55, "population": 12456}, {"name": "Orşova", "lat": 44.72299, "lng": 22.39619, "population": 12350}, {"name": "Oraviţa", "lat": 45.0325, "lng": 21.68944, "population": 12332}, {"name": "Rovinari", "lat": 44.91667, "lng": 23.18333, "population": 12259}, {"name": "Drăgăneşti-Olt", "lat": 44.16667, "lng": 24.53333, "population": 12056}, {"name": "Vălenii de Munte", "lat": 45.18333, "lng": 26.03333, "population": 12044}, {"name": "Jilava", "lat": 44.33333, "lng": 26.07806, "population": 12023}, {"name": "Holboca", "lat": 47.15, "lng": 27.7, "population": 11971}, {"name": "Sinaia", "lat": 45.35, "lng": 25.55, "population": 11918}, {"name": "Darabani", "lat": 48.18333, "lng": 26.58333, "population": 11890}, {"name": "Tomeşti", "lat": 47.11667, "lng": 27.68333, "population": 11828}, {"name": "Videle", "lat": 44.27806, "lng": 25.52444, "population": 11813}, {"name": "Storeşti", "lat": 47.55, "lng": 26.86667, "population": 11806}, {"name": "Urlaţi", "lat": 44.98333, "lng": 26.23333, "population": 11798}, {"name": "Bolintin Vale", "lat": 44.44889, "lng": 25.75778, "population": 11700}, {"name": "Matca", "lat": 45.85, "lng": 27.53333, "population": 11642}, {"name": "Strehaia", "lat": 44.61667, "lng": 23.2, "population": 11607}, {"name": "Oţelu Roşu", "lat": 45.53333, "lng": 22.36667, "population": 11482}, {"name": "Sovata", "lat": 46.58333, "lng": 25.06667, "population": 11465}, {"name": "Boldeşti-Scăeni", "lat": 45.03333, "lng": 26.03333, "population": 11460}, {"name": "Nehoiu", "lat": 45.41667, "lng": 26.3, "population": 11350}, {"name": "Belceşti", "lat": 47.3, "lng": 27.08333, "population": 11335}, {"name": "Hârlău", "lat": 47.43333, "lng": 26.9, "population": 11295}, {"name": "Pechea", "lat": 45.63333, "lng": 27.8, "population": 11287}, {"name": "Ianca", "lat": 45.13333, "lng": 27.45, "population": 11209}, {"name": "Jibou", "lat": 47.25896, "lng": 23.25651, "population": 11183}, {"name": "Lipova", "lat": 46.09085, "lng": 21.69628, "population": 11041}, {"name": "Topoloveni", "lat": 44.81667, "lng": 25.08333, "population": 11039}, {"name": "Dolhasca", "lat": 47.43333, "lng": 26.6, "population": 11025}, {"name": "Covasna", "lat": 45.85, "lng": 26.18333, "population": 10979}, {"name": "Lieşti", "lat": 45.61667, "lng": 27.51667, "population": 10956}, {"name": "Beclean", "lat": 47.18333, "lng": 24.18333, "population": 10909}, {"name": "Murfatlar", "lat": 44.18333, "lng": 28.41667, "population": 10906}, {"name": "Breaza de Sus", "lat": 45.19879, "lng": 25.65578, "population": 10903}, {"name": "Haţeg", "lat": 45.61667, "lng": 22.95, "population": 10865}, {"name": "Jimbolia", "lat": 45.79139, "lng": 20.71722, "population": 10860}, {"name": "Dofteana", "lat": 46.31667, "lng": 26.51667, "population": 10785}, {"name": "Beiuş", "lat": 46.66667, "lng": 22.35, "population": 10721}, {"name": "Costeşti", "lat": 44.66667, "lng": 24.88333, "population": 10654}, {"name": "Agnita", "lat": 45.96667, "lng": 24.61667, "population": 10505}, {"name": "Deleni", "lat": 47.46667, "lng": 26.88333, "population": 10484}, {"name": "Vladimirescu", "lat": 46.16628, "lng": 21.40102, "population": 10451}, {"name": "Bumbeşti-Jiu", "lat": 45.16667, "lng": 23.4, "population": 10445}, {"name": "Călineşti", "lat": 44.81667, "lng": 25.05, "population": 10419}, {"name": "Seini", "lat": 47.75, "lng": 23.28333, "population": 10382}, {"name": "Năsăud", "lat": 47.28333, "lng": 24.4, "population": 10380}, {"name": "Valea Călugărească", "lat": 44.96667, "lng": 26.15, "population": 10378}, {"name": "Otopeni", "lat": 44.55, "lng": 26.06667, "population": 10332}, {"name": "Măcin", "lat": 45.24371, "lng": 28.13564, "population": 10295}, {"name": "Bucov", "lat": 44.96667, "lng": 26.08333, "population": 10279}, {"name": "Aleşd", "lat": 47.06667, "lng": 22.41667, "population": 10264}, {"name": "Cormaia", "lat": 47.36667, "lng": 24.68333, "population": 10254}, {"name": "Victoria", "lat": 45.72968, "lng": 24.7028, "population": 10247}, {"name": "Valea lui Mihai", "lat": 47.51667, "lng": 22.15, "population": 10240}, {"name": "Săbăoani", "lat": 47.01135, "lng": 26.86536, "population": 10218}, {"name": "Filipeştii de Pădure", "lat": 45.0, "lng": 25.75, "population": 10169}, {"name": "Nicolae Bălcescu", "lat": 46.46667, "lng": 26.91667, "population": 10140}, {"name": "Ciurea", "lat": 47.05, "lng": 27.56667, "population": 10110}, {"name": "Babadag", "lat": 44.9, "lng": 28.71667, "population": 10101}, {"name": "Titu", "lat": 44.65, "lng": 25.53333, "population": 10081}, {"name": "Hârşova", "lat": 44.68555, "lng": 27.95009, "population": 10055}, {"name": "Ineu", "lat": 46.43372, "lng": 21.84048, "population": 10051}, {"name": "Negreşti", "lat": 46.83333, "lng": 27.43333, "population": 10043}, {"name": "Sascut", "lat": 46.2, "lng": 27.1, "population": 10031}, {"name": "Mihail Kogălniceanu", "lat": 44.36798, "lng": 28.46, "population": 9970}, {"name": "Uricani", "lat": 45.33731, "lng": 23.1524, "population": 9924}, {"name": "Buşteni", "lat": 45.4, "lng": 25.53333, "population": 9906}, {"name": "Homocea", "lat": 46.13333, "lng": 27.23333, "population": 9869}, {"name": "Poienile de sub Munte", "lat": 47.81667, "lng": 24.43333, "population": 9865}, {"name": "Liteni", "lat": 47.56667, "lng": 26.2, "population": 9833}, {"name": "Munteni", "lat": 45.93333, "lng": 27.43333, "population": 9760}, {"name": "Podu Iloaiei", "lat": 47.21667, "lng": 27.26667, "population": 9752}, {"name": "Cumpăna", "lat": 44.11667, "lng": 28.56667, "population": 9731}, {"name": "Modelu", "lat": 44.19574, "lng": 27.3872, "population": 9672}, {"name": "Iveşti", "lat": 45.68333, "lng": 27.51667, "population": 9671}, {"name": "Curtici", "lat": 46.35, "lng": 21.3, "population": 9615}, {"name": "Budeşti", "lat": 44.23472, "lng": 26.46583, "population": 9598}, {"name": "Oituz", "lat": 46.2, "lng": 26.61667, "population": 9596}, {"name": "Cristuru Secuiesc", "lat": 46.28333, "lng": 25.03333, "population": 9554}, {"name": "Borcea", "lat": 44.33333, "lng": 27.75, "population": 9546}, {"name": "Cernica", "lat": 44.41667, "lng": 26.28333, "population": 9530}, {"name": "Zorleni", "lat": 46.26667, "lng": 27.71667, "population": 9511}, {"name": "Eforie Sud", "lat": 44.02294, "lng": 28.64943, "population": 9498}, {"name": "Marginea", "lat": 47.81667, "lng": 25.81667, "population": 9488}, {"name": "Berca", "lat": 45.28333, "lng": 26.68333, "population": 9479}, {"name": "Tăşnad", "lat": 47.48333, "lng": 22.58333, "population": 9466}, {"name": "Şimian", "lat": 44.61417, "lng": 22.70722, "population": 9434}, {"name": "Baraolt", "lat": 46.07514, "lng": 25.60029, "population": 9429}, {"name": "Huedin", "lat": 46.86667, "lng": 23.05, "population": 9395}, {"name": "Măgurele", "lat": 44.35, "lng": 26.03333, "population": 9375}, {"name": "Băbeni", "lat": 44.96667, "lng": 24.23333, "population": 9350}, {"name": "Iernut", "lat": 46.45, "lng": 24.25, "population": 9343}, {"name": "Siret", "lat": 47.95, "lng": 26.06667, "population": 9246}, {"name": "Bărcăneşti", "lat": 44.88333, "lng": 26.05, "population": 9225}, {"name": "Brăneşti", "lat": 45.03333, "lng": 25.41667, "population": 9094}, {"name": "Preuteşti", "lat": 47.45, "lng": 26.41667, "population": 9048}, {"name": "Vadu Paşii", "lat": 45.16667, "lng": 26.9, "population": 9034}, {"name": "Întorsura Buzăului", "lat": 45.68333, "lng": 26.03333, "population": 9026}, {"name": "Cobadin", "lat": 44.08333, "lng": 28.21667, "population": 8979}, {"name": "Borleşti", "lat": 46.76667, "lng": 26.48333, "population": 8965}, {"name": "Moisei", "lat": 47.65562, "lng": 24.54011, "population": 8877}, {"name": "Puchenii Mari", "lat": 44.81667, "lng": 26.08333, "population": 8869}, {"name": "Lovrin", "lat": 45.96806, "lng": 20.77028, "population": 8851}, {"name": "Mărășești", "lat": 45.88333, "lng": 27.23333, "population": 8844}, {"name": "Panciu", "lat": 45.9, "lng": 27.08333, "population": 8810}, {"name": "Hotarele", "lat": 44.1725, "lng": 26.37028, "population": 8790}, {"name": "Ariceştii-Rahtivani", "lat": 44.95, "lng": 25.83333, "population": 8764}, {"name": "Bascov", "lat": 44.9, "lng": 24.81667, "population": 8759}, {"name": "Valu lui Traian", "lat": 44.16667, "lng": 28.46667, "population": 8733}, {"name": "Anina", "lat": 45.07944, "lng": 21.85694, "population": 8689}, {"name": "Roznov", "lat": 46.83333, "lng": 26.51667, "population": 8688}, {"name": "Apahida", "lat": 46.81667, "lng": 23.75, "population": 8658}, {"name": "Salcea", "lat": 47.65, "lng": 26.36667, "population": 8655}, {"name": "Târgu Cărbuneşti", "lat": 44.95, "lng": 23.51667, "population": 8646}, {"name": "Brăneşti", "lat": 44.45, "lng": 26.33333, "population": 8645}, {"name": "Dragalina", "lat": 44.43333, "lng": 27.31667, "population": 8642}, {"name": "Joiţa", "lat": 44.49417, "lng": 25.85389, "population": 8616}, {"name": "Verneşti", "lat": 45.21667, "lng": 26.73333, "population": 8603}, {"name": "Pipirig", "lat": 47.25, "lng": 26.06667, "population": 8569}, {"name": "Milcovul", "lat": 45.65, "lng": 27.25, "population": 8547}, {"name": "Recaş", "lat": 45.79889, "lng": 21.50083, "population": 8508}, {"name": "Călimăneşti", "lat": 45.23333, "lng": 24.33333, "population": 8485}, {"name": "Târgşoru Vechi", "lat": 44.86667, "lng": 25.91667, "population": 8460}, {"name": "Turceni", "lat": 44.68333, "lng": 23.36667, "population": 8458}, {"name": "Brazii de Sus", "lat": 44.86667, "lng": 26.01667, "population": 8406}, {"name": "Milişăuţi", "lat": 47.78333, "lng": 26.0, "population": 8399}, {"name": "Zlatna", "lat": 46.10633, "lng": 23.23162, "population": 8393}, {"name": "Popeşti", "lat": 47.23333, "lng": 22.41667, "population": 8386}, {"name": "Roata de Jos", "lat": 44.41083, "lng": 25.54333, "population": 8350}, {"name": "Bicaz", "lat": 46.91667, "lng": 26.06667, "population": 8340}, {"name": "Vidra", "lat": 44.26056, "lng": 26.16972, "population": 8322}, {"name": "Răzvad", "lat": 44.93333, "lng": 25.53333, "population": 8305}, {"name": "Potlogi", "lat": 44.55, "lng": 25.58333, "population": 8299}, {"name": "Tămăşeni", "lat": 46.98333, "lng": 26.93333, "population": 8292}, {"name": "Sadova", "lat": 43.9, "lng": 23.95, "population": 8277}, {"name": "Bragadiru", "lat": 44.37111, "lng": 25.9775, "population": 8274}, {"name": "Corbii Mari", "lat": 44.55, "lng": 25.5, "population": 8257}, {"name": "Sângeorz-Băi", "lat": 47.3685, "lng": 24.67212, "population": 8244}, {"name": "Băleni Sârbi", "lat": 44.81667, "lng": 25.63333, "population": 8231}, {"name": "Răuceşti", "lat": 47.25, "lng": 26.41667, "population": 8204}, {"name": "Orbeasca de Sus", "lat": 44.15, "lng": 25.31667, "population": 8203}, {"name": "Dragomireşti", "lat": 44.91667, "lng": 25.33333, "population": 8194}, {"name": "Chişineu-Criş", "lat": 46.52509, "lng": 21.51844, "population": 8171}, {"name": "Dumbrăveni", "lat": 46.23333, "lng": 24.56667, "population": 8167}, {"name": "Miroslava", "lat": 47.15, "lng": 27.51667, "population": 8127}, {"name": "Săveni", "lat": 47.95, "lng": 26.86667, "population": 8126}, {"name": "Dumbrăveni", "lat": 47.65, "lng": 26.41667, "population": 8110}, {"name": "Prejmer", "lat": 45.71667, "lng": 25.76667, "population": 8106}, {"name": "Chiajna", "lat": 44.46, "lng": 25.97333, "population": 8105}, {"name": "Burueneşti", "lat": 45.31667, "lng": 26.35, "population": 8101}, {"name": "Nădlac", "lat": 46.16667, "lng": 20.75, "population": 8067}, {"name": "Cudalbi", "lat": 45.78333, "lng": 27.7, "population": 8055}, {"name": "Baciu", "lat": 46.8, "lng": 23.51667, "population": 8046}, {"name": "Mărgineni-Munteni", "lat": 46.6, "lng": 26.9, "population": 8033}, {"name": "Odobeşti", "lat": 45.76667, "lng": 27.05, "population": 8026}, {"name": "Chirnogi", "lat": 44.11667, "lng": 26.56667, "population": 8022}, {"name": "Şiria", "lat": 46.26667, "lng": 21.63333, "population": 8004}, {"name": "Gătaia", "lat": 45.43111, "lng": 21.43, "population": 8002}, {"name": "Vorona Teodoru", "lat": 47.55, "lng": 26.6, "population": 7992}, {"name": "Cotnari", "lat": 47.35, "lng": 26.98333, "population": 7985}, {"name": "Balcani", "lat": 46.63333, "lng": 26.55, "population": 7958}, {"name": "Segarcea", "lat": 44.1, "lng": 23.75, "population": 7944}, {"name": "Poduri", "lat": 46.46667, "lng": 26.53333, "population": 7937}, {"name": "Câmpeni", "lat": 46.36667, "lng": 23.05, "population": 7932}, {"name": "Dărmăneşti", "lat": 44.91667, "lng": 25.78333, "population": 7919}, {"name": "Moţăţei", "lat": 44.08333, "lng": 23.2, "population": 7898}, {"name": "Corod", "lat": 45.9, "lng": 27.61667, "population": 7855}, {"name": "Piatra Şoimului", "lat": 46.83333, "lng": 26.43333, "population": 7848}, {"name": "Vasilaţi", "lat": 44.28778, "lng": 26.4475, "population": 7840}, {"name": "Răcăciuni", "lat": 46.33333, "lng": 26.98333, "population": 7839}, {"name": "1 Decembrie", "lat": 44.29083, "lng": 26.05806, "population": 7817}, {"name": "Peretu", "lat": 44.05, "lng": 25.08333, "population": 7816}, {"name": "Castelu", "lat": 44.25, "lng": 28.33333, "population": 7816}, {"name": "Văcăreşti", "lat": 44.85, "lng": 25.48333, "population": 7812}, {"name": "Filipeştii de Târg", "lat": 44.98333, "lng": 25.78333, "population": 7794}, {"name": "Adâncata", "lat": 47.73333, "lng": 26.3, "population": 7779}, {"name": "Pogoanele", "lat": 44.91667, "lng": 27.0, "population": 7777}, {"name": "Sângeorgiu de Mureş", "lat": 46.5696, "lng": 24.59453, "population": 7776}, {"name": "Suraia", "lat": 45.68333, "lng": 27.4, "population": 7770}, {"name": "Tismana", "lat": 45.05, "lng": 22.96667, "population": 7751}, {"name": "Gilău", "lat": 46.73245, "lng": 23.36174, "population": 7745}, {"name": "Plopeni", "lat": 45.04955, "lng": 25.95202, "population": 7718}, {"name": "Comana", "lat": 44.17056, "lng": 26.145, "population": 7717}, {"name": "Răducăneni", "lat": 46.95, "lng": 27.93333, "population": 7706}, {"name": "Brăhăşeştii de Sus", "lat": 46.05, "lng": 27.35, "population": 7692}, {"name": "Murgeni", "lat": 46.20444, "lng": 28.01972, "population": 7665}, {"name": "Ţibăneşti", "lat": 46.91667, "lng": 27.33333, "population": 7662}, {"name": "Blejoi", "lat": 45.0, "lng": 26.01667, "population": 7646}, {"name": "Buziaş", "lat": 45.64917, "lng": 21.60361, "population": 7625}, {"name": "Scobinţi", "lat": 47.402, "lng": 26.912, "population": 7618}, {"name": "Corneşti", "lat": 44.78333, "lng": 25.86667, "population": 7616}, {"name": "Ulmi", "lat": 44.48667, "lng": 25.78028, "population": 7606}, {"name": "Band", "lat": 46.58333, "lng": 24.38333, "population": 7599}, {"name": "Şomcuta Mare", "lat": 47.51667, "lng": 23.46667, "population": 7584}, {"name": "Fieni", "lat": 45.13333, "lng": 25.41667, "population": 7566}, {"name": "Amara", "lat": 44.61667, "lng": 27.31667, "population": 7557}, {"name": "Scheia", "lat": 47.65, "lng": 26.23333, "population": 7533}, {"name": "Floreşti", "lat": 45.05, "lng": 25.78333, "population": 7507}, {"name": "Mihăileşti", "lat": 44.32667, "lng": 25.90833, "population": 7506}, {"name": "Tuluceşti", "lat": 45.56667, "lng": 28.03333, "population": 7503}, {"name": "Sarichioi", "lat": 44.95, "lng": 28.85, "population": 7483}, {"name": "Sagna", "lat": 46.98333, "lng": 27.01667, "population": 7443}, {"name": "Asău", "lat": 46.44301, "lng": 26.40036, "population": 7438}, {"name": "Vidra", "lat": 45.91667, "lng": 26.9, "population": 7423}, {"name": "Floreşti", "lat": 46.74574, "lng": 23.49375, "population": 7397}, {"name": "Girov", "lat": 46.95, "lng": 26.51667, "population": 7396}, {"name": "Sărmaşu", "lat": 46.75, "lng": 24.16667, "population": 7371}, {"name": "Bixad", "lat": 47.93333, "lng": 23.4, "population": 7369}, {"name": "Doljeşti", "lat": 47.03333, "lng": 26.98333, "population": 7359}, {"name": "Băleşti", "lat": 45.01667, "lng": 23.21667, "population": 7333}, {"name": "Vadu Moldovei", "lat": 47.38333, "lng": 26.36667, "population": 7325}, {"name": "Însurăţei", "lat": 44.91667, "lng": 27.6, "population": 7309}, {"name": "Cornu Luncii", "lat": 47.46667, "lng": 26.15, "population": 7288}, {"name": "Bălan", "lat": 46.6505, "lng": 25.80834, "population": 7275}, {"name": "Vânători-Neamţ", "lat": 47.2, "lng": 26.31667, "population": 7270}, {"name": "Măieru", "lat": 47.4, "lng": 24.75, "population": 7259}, {"name": "Armăşeşti", "lat": 44.75, "lng": 26.58333, "population": 7243}, {"name": "Cajvana", "lat": 47.7, "lng": 25.96667, "population": 7236}, {"name": "Periş", "lat": 44.68472, "lng": 26.01389, "population": 7235}, {"name": "Glina", "lat": 44.38333, "lng": 26.25, "population": 7227}, {"name": "Tărlungeni", "lat": 45.63333, "lng": 25.75, "population": 7219}, {"name": "Cojasca", "lat": 44.71667, "lng": 25.85, "population": 7205}, {"name": "Ciacova", "lat": 45.50806, "lng": 21.12861, "population": 7205}, {"name": "Helegiu", "lat": 46.35, "lng": 26.75, "population": 7195}, {"name": "Măneşti", "lat": 44.86667, "lng": 25.85, "population": 7186}, {"name": "Halmeu", "lat": 47.96667, "lng": 23.01667, "population": 7184}, {"name": "Gruiu", "lat": 44.73333, "lng": 26.23333, "population": 7183}, {"name": "Udeşti", "lat": 47.56667, "lng": 26.41667, "population": 7177}, {"name": "Lumina", "lat": 44.28333, "lng": 28.56667, "population": 7168}, {"name": "Blăgeşti", "lat": 46.68333, "lng": 26.65, "population": 7165}, {"name": "Mălini", "lat": 47.46667, "lng": 26.08333, "population": 7163}, {"name": "Merei", "lat": 45.13333, "lng": 26.68333, "population": 7137}, {"name": "Pâncota", "lat": 46.33333, "lng": 21.7, "population": 7133}, {"name": "Făget", "lat": 45.85, "lng": 22.18333, "population": 7125}, {"name": "Cordun", "lat": 46.95, "lng": 26.86667, "population": 7124}, {"name": "Medieşu Aurit", "lat": 47.78333, "lng": 23.15, "population": 7122}, {"name": "Umbrăreşti", "lat": 45.71667, "lng": 27.46667, "population": 7116}, {"name": "Teiuş", "lat": 46.2, "lng": 23.68333, "population": 7112}, {"name": "Dăneţi", "lat": 43.98333, "lng": 24.05, "population": 7110}, {"name": "Dumbrava Roşie", "lat": 46.88333, "lng": 26.43333, "population": 7104}, {"name": "Ţibana", "lat": 46.98333, "lng": 27.33333, "population": 7098}, {"name": "Mărăcineni", "lat": 45.2, "lng": 26.8, "population": 7096}, {"name": "Vereşti", "lat": 47.6, "lng": 26.43333, "population": 7089}, {"name": "Copălău", "lat": 47.61667, "lng": 26.83333, "population": 7086}, {"name": "Vărbilău", "lat": 45.18333, "lng": 25.95, "population": 7084}, {"name": "Techirghiol", "lat": 44.05, "lng": 28.6, "population": 7083}, {"name": "Săcueni", "lat": 47.35, "lng": 22.1, "population": 7075}, {"name": "Cărpiniş", "lat": 45.78722, "lng": 20.90417, "population": 7071}, {"name": "Luncaviţa", "lat": 45.28333, "lng": 28.26667, "population": 7050}, {"name": "Ulmeni", "lat": 47.46667, "lng": 23.3, "population": 7047}, {"name": "Cogealac", "lat": 44.55, "lng": 28.56667, "population": 7046}, {"name": "Cioranii de Jos", "lat": 44.81667, "lng": 26.41667, "population": 7036}, {"name": "Griviţa", "lat": 44.73333, "lng": 27.28333, "population": 7032}, {"name": "Smeeni", "lat": 44.98333, "lng": 26.85, "population": 7015}, {"name": "Tileagd", "lat": 47.06667, "lng": 22.2, "population": 6994}, {"name": "Volovăţ", "lat": 47.81667, "lng": 25.9, "population": 6990}, {"name": "Mircea Vodă", "lat": 44.28333, "lng": 28.16667, "population": 6983}, {"name": "Todireşti", "lat": 47.31667, "lng": 26.83333, "population": 6970}, {"name": "Slănic", "lat": 45.25, "lng": 25.93333, "population": 6967}, {"name": "Feldru", "lat": 47.28333, "lng": 24.6, "population": 6967}, {"name": "Coşereni", "lat": 44.68333, "lng": 26.56667, "population": 6957}, {"name": "Ungureni-Jianu", "lat": 47.88333, "lng": 26.78333, "population": 6948}, {"name": "Vlăhiţa", "lat": 46.345, "lng": 25.527, "population": 6922}, {"name": "Dragodana", "lat": 44.73333, "lng": 25.35, "population": 6918}, {"name": "Dancu", "lat": 47.15417, "lng": 27.66623, "population": 6903}, {"name": "Izvoarele", "lat": 45.03333, "lng": 25.26667, "population": 6836}, {"name": "Livada", "lat": 47.86667, "lng": 23.13333, "population": 6833}, {"name": "Răcari", "lat": 44.63333, "lng": 25.73333, "population": 6828}, {"name": "Cleja", "lat": 46.41667, "lng": 26.9, "population": 6816}, {"name": "Siculeni", "lat": 46.41667, "lng": 25.75, "population": 6807}, {"name": "Dor Mărunt", "lat": 44.45, "lng": 26.91667, "population": 6806}, {"name": "Mirceşti", "lat": 47.08333, "lng": 26.83333, "population": 6797}, {"name": "Bucşani", "lat": 44.86667, "lng": 25.65, "population": 6797}, {"name": "Baloteşti", "lat": 44.61667, "lng": 26.11667, "population": 6795}, {"name": "Păuneşti", "lat": 46.03333, "lng": 27.1, "population": 6778}, {"name": "Doftana", "lat": 45.15, "lng": 25.8, "population": 6777}, {"name": "Bărbuleţu", "lat": 45.13333, "lng": 25.3, "population": 6777}, {"name": "Baia", "lat": 47.41667, "lng": 26.21667, "population": 6762}, {"name": "Popricani", "lat": 47.3, "lng": 27.51667, "population": 6752}, {"name": "Horezu", "lat": 45.15, "lng": 24.01667, "population": 6743}, {"name": "Vânju-Mare", "lat": 44.42528, "lng": 22.86972, "population": 6740}, {"name": "Praid", "lat": 46.55, "lng": 25.13333, "population": 6739}, {"name": "Oraşu Nou", "lat": 47.83333, "lng": 23.28333, "population": 6737}, {"name": "Arbore", "lat": 47.73333, "lng": 25.93333, "population": 6736}, {"name": "Văleni", "lat": 46.59488, "lng": 28.06461, "population": 6723}, {"name": "Poiana Lacului", "lat": 44.81667, "lng": 24.73333, "population": 6705}, {"name": "Afumaţi", "lat": 44.51667, "lng": 26.26667, "population": 6696}, {"name": "Laza", "lat": 46.65, "lng": 27.58333, "population": 6694}, {"name": "Turţ", "lat": 47.98333, "lng": 23.21667, "population": 6693}, {"name": "Pârjol", "lat": 46.58333, "lng": 26.6, "population": 6688}, {"name": "Călăraşi", "lat": 44.2051, "lng": 27.31356, "population": 6687}, {"name": "Crevedia", "lat": 44.6, "lng": 25.93333, "population": 6674}, {"name": "Fundulea", "lat": 44.46667, "lng": 26.51667, "population": 6668}, {"name": "Brezoi", "lat": 45.33797, "lng": 24.24863, "population": 6668}, {"name": "Leţcani", "lat": 47.18333, "lng": 27.41667, "population": 6642}, {"name": "Bălţăteşti", "lat": 47.11667, "lng": 26.3, "population": 6635}, {"name": "Călăraşi", "lat": 43.79312, "lng": 24.04403, "population": 6632}, {"name": "Agăş", "lat": 46.48333, "lng": 26.21667, "population": 6619}, {"name": "Vişina", "lat": 44.58333, "lng": 25.33333, "population": 6604}, {"name": "Dobroeşti", "lat": 44.45, "lng": 26.18333, "population": 6599}, {"name": "Starchiojd", "lat": 45.31667, "lng": 26.18333, "population": 6592}, {"name": "Broşteni", "lat": 47.23333, "lng": 25.7, "population": 6578}, {"name": "Albeşti", "lat": 47.7, "lng": 27.06667, "population": 6578}, {"name": "Plopşoru", "lat": 44.78333, "lng": 23.35, "population": 6576}, {"name": "Brebu Mânăstirei", "lat": 45.18333, "lng": 25.76667, "population": 6576}, {"name": "Periam", "lat": 46.05, "lng": 20.86667, "population": 6563}, {"name": "Borca", "lat": 47.18333, "lng": 25.76667, "population": 6556}, {"name": "Rediu", "lat": 47.21667, "lng": 27.5, "population": 6548}, {"name": "Lehliu-Gară", "lat": 44.43333, "lng": 26.85, "population": 6538}, {"name": "Ștei", "lat": 46.53333, "lng": 22.45, "population": 6529}, {"name": "Diosig", "lat": 47.3, "lng": 22.0, "population": 6529}, {"name": "Cosmeşti", "lat": 45.87017, "lng": 27.31115, "population": 6526}, {"name": "Corni", "lat": 47.65, "lng": 26.58333, "population": 6521}, {"name": "Frasin", "lat": 47.53333, "lng": 25.8, "population": 6519}, {"name": "Măgureni", "lat": 45.06667, "lng": 25.73333, "population": 6515}, {"name": "Botoroaga", "lat": 44.14833, "lng": 25.54472, "population": 6488}, {"name": "Lunca", "lat": 43.83333, "lng": 24.76667, "population": 6485}, {"name": "Gugeşti", "lat": 45.56667, "lng": 27.13333, "population": 6478}, {"name": "Ungheni", "lat": 46.48333, "lng": 24.46667, "population": 6449}, {"name": "Gherăeşti", "lat": 47.01667, "lng": 26.81667, "population": 6448}, {"name": "Călugăreni", "lat": 44.17167, "lng": 25.99556, "population": 6444}, {"name": "Vărăşti", "lat": 44.23778, "lng": 26.24861, "population": 6412}, {"name": "Ciprian Porumbescu", "lat": 47.56667, "lng": 26.06667, "population": 6405}, {"name": "Plosca", "lat": 44.03333, "lng": 25.13333, "population": 6404}, {"name": "Şărmăşag", "lat": 47.35, "lng": 22.83333, "population": 6400}, {"name": "Domneşti-Sârbi", "lat": 44.38333, "lng": 25.91667, "population": 6393}, {"name": "Hudeşti", "lat": 48.15, "lng": 26.5, "population": 6360}, {"name": "Telega", "lat": 45.13333, "lng": 25.78333, "population": 6358}, {"name": "Ardud", "lat": 47.63333, "lng": 22.88333, "population": 6357}, {"name": "Tamaşi", "lat": 46.48333, "lng": 26.98333, "population": 6330}, {"name": "Piatra Olt", "lat": 44.36667, "lng": 24.26667, "population": 6313}, {"name": "Feldioara", "lat": 45.81667, "lng": 25.6, "population": 6307}, {"name": "Sândominic", "lat": 46.584, "lng": 25.78028, "population": 6306}, {"name": "Viziru", "lat": 45.01667, "lng": 27.7, "population": 6305}, {"name": "Podari", "lat": 44.25, "lng": 23.78333, "population": 6302}, {"name": "Ighiu", "lat": 46.15, "lng": 23.51667, "population": 6294}, {"name": "Ghidigeni", "lat": 46.05, "lng": 27.5, "population": 6294}, {"name": "Tuzla", "lat": 44.0, "lng": 28.63333, "population": 6292}, {"name": "Lucieni", "lat": 44.85, "lng": 25.43333, "population": 6286}, {"name": "Vinga", "lat": 46.01667, "lng": 21.2, "population": 6283}, {"name": "Buzoeşti", "lat": 44.58333, "lng": 24.91667, "population": 6281}, {"name": "Gurghiu", "lat": 46.76667, "lng": 24.85, "population": 6277}, {"name": "Băbăiţa", "lat": 44.16667, "lng": 25.38333, "population": 6276}, {"name": "Zvoriştea", "lat": 47.83333, "lng": 26.28333, "population": 6275}, {"name": "Bosanci", "lat": 47.58333, "lng": 26.31667, "population": 6270}, {"name": "Bârsana", "lat": 47.81667, "lng": 24.06667, "population": 6266}, {"name": "Valea Stanciului", "lat": 43.98333, "lng": 23.86667, "population": 6264}, {"name": "Mihăeşti", "lat": 45.03333, "lng": 24.25, "population": 6263}, {"name": "Deta", "lat": 45.38889, "lng": 21.22444, "population": 6252}, {"name": "Stulpicani", "lat": 47.46667, "lng": 25.76667, "population": 6234}, {"name": "Crasna", "lat": 47.16667, "lng": 22.9, "population": 6233}, {"name": "Biled", "lat": 45.88639, "lng": 20.95889, "population": 6230}, {"name": "Remetea", "lat": 46.78333, "lng": 25.45, "population": 6225}, {"name": "Ruginoasa", "lat": 47.25, "lng": 26.85, "population": 6220}, {"name": "Rodna", "lat": 47.41667, "lng": 24.81667, "population": 6218}, {"name": "Gălăneşti", "lat": 47.91667, "lng": 25.8, "population": 6211}, {"name": "Băiculeşti", "lat": 45.06667, "lng": 24.7, "population": 6207}, {"name": "Cefa", "lat": 46.91667, "lng": 21.73333, "population": 6206}, {"name": "Mihail Kogălniceanu", "lat": 44.68333, "lng": 27.73333, "population": 6181}, {"name": "Fălciu", "lat": 46.29611, "lng": 28.14083, "population": 6178}, {"name": "Săcălaz", "lat": 45.75833, "lng": 21.11222, "population": 6176}, {"name": "Sebiş", "lat": 46.36667, "lng": 22.11667, "population": 6168}, {"name": "Voineşti", "lat": 47.06667, "lng": 27.41667, "population": 6161}, {"name": "Sâncraiu de Mureş", "lat": 46.55119, "lng": 24.52663, "population": 6161}, {"name": "Voineşti", "lat": 45.06667, "lng": 25.25, "population": 6159}, {"name": "Nicoreşti", "lat": 45.93223, "lng": 27.30866, "population": 6147}, {"name": "Târnova", "lat": 46.31667, "lng": 21.8, "population": 6146}, {"name": "Rucăr", "lat": 45.4, "lng": 25.16667, "population": 6142}, {"name": "Bolintin Deal", "lat": 44.45917, "lng": 25.82111, "population": 6139}, {"name": "Lespezi", "lat": 47.36667, "lng": 26.7, "population": 6138}, {"name": "Snagov", "lat": 44.7, "lng": 26.18333, "population": 6126}, {"name": "Suciu de Sus", "lat": 47.43333, "lng": 24.03333, "population": 6125}, {"name": "Mânăstirea", "lat": 44.21667, "lng": 26.9, "population": 6123}, {"name": "Abrud", "lat": 46.27406, "lng": 23.06339, "population": 6122}, {"name": "Sâncrăieni", "lat": 46.31439, "lng": 25.83941, "population": 6105}, {"name": "Corund", "lat": 46.46667, "lng": 25.18333, "population": 6091}, {"name": "Zăneşti", "lat": 46.81667, "lng": 26.55, "population": 6077}, {"name": "Rozavlea", "lat": 47.73333, "lng": 24.21667, "population": 6076}, {"name": "Gura Văii", "lat": 46.33333, "lng": 26.73333, "population": 6075}, {"name": "Frumuşica", "lat": 47.53333, "lng": 26.9, "population": 6069}, {"name": "Macea", "lat": 46.38333, "lng": 21.3, "population": 6056}, {"name": "Variaş", "lat": 46.01667, "lng": 20.95, "population": 6054}, {"name": "Hălchiu", "lat": 45.76667, "lng": 25.55, "population": 6051}, {"name": "Focuri", "lat": 47.35, "lng": 27.21667, "population": 6030}, {"name": "Islaz", "lat": 43.72006, "lng": 24.76436, "population": 6029}, {"name": "Potcoava", "lat": 44.48333, "lng": 24.65, "population": 6022}, {"name": "Băile Herculane", "lat": 44.87972, "lng": 22.4125, "population": 6022}, {"name": "Petreşti", "lat": 44.65, "lng": 25.33333, "population": 6020}, {"name": "Leordeni", "lat": 44.78333, "lng": 25.11667, "population": 6019}, {"name": "Săvineşti", "lat": 46.85, "lng": 26.46667, "population": 6012}, {"name": "Vama", "lat": 47.56667, "lng": 25.68333, "population": 5995}, {"name": "Scorţeni", "lat": 45.1, "lng": 25.85, "population": 5995}, {"name": "Tanacu", "lat": 46.68333, "lng": 27.81667, "population": 5986}, {"name": "Barcea", "lat": 45.75, "lng": 27.46667, "population": 5985}, {"name": "Poşta Câlnău", "lat": 45.23333, "lng": 26.85, "population": 5982}, {"name": "Berceni", "lat": 44.93333, "lng": 26.11667, "population": 5976}, {"name": "Pârscov", "lat": 45.28333, "lng": 26.55, "population": 5968}, {"name": "Vicovu de Jos", "lat": 47.9, "lng": 25.73333, "population": 5956}, {"name": "Teaca", "lat": 46.91667, "lng": 24.51667, "population": 5954}, {"name": "Ciupercenii Noi", "lat": 43.90972, "lng": 22.94833, "population": 5949}, {"name": "Gura Viţioarei", "lat": 45.15, "lng": 26.03333, "population": 5947}, {"name": "Corcova", "lat": 44.7, "lng": 23.05, "population": 5946}, {"name": "Lechinţa", "lat": 47.01667, "lng": 24.35, "population": 5939}, {"name": "Geoagiu", "lat": 45.91667, "lng": 23.2, "population": 5919}, {"name": "Cetate", "lat": 44.1, "lng": 23.05, "population": 5908}, {"name": "Aninoasa", "lat": 44.96667, "lng": 25.43333, "population": 5907}, {"name": "Adămuş", "lat": 46.3, "lng": 24.23333, "population": 5905}, {"name": "Făcăeni", "lat": 44.56667, "lng": 27.9, "population": 5893}, {"name": "Pănet", "lat": 46.55514, "lng": 24.46973, "population": 5880}, {"name": "Stănileşti", "lat": 46.61833, "lng": 28.17139, "population": 5874}, {"name": "Drăgăneşti", "lat": 45.78333, "lng": 27.46667, "population": 5874}, {"name": "Pietroşani", "lat": 45.18333, "lng": 24.85, "population": 5871}, {"name": "Amărăştii de Jos", "lat": 43.95, "lng": 24.16667, "population": 5870}, {"name": "Ditrău", "lat": 46.81667, "lng": 25.51667, "population": 5858}, {"name": "Urecheşti", "lat": 45.6, "lng": 27.06667, "population": 5855}, {"name": "Tălmaciu", "lat": 45.66714, "lng": 24.26464, "population": 5849}, {"name": "Roseţi", "lat": 44.21482, "lng": 27.44848, "population": 5843}, {"name": "Mihăeşti", "lat": 45.11667, "lng": 25.0, "population": 5825}, {"name": "Săsciori", "lat": 45.86667, "lng": 23.58333, "population": 5822}, {"name": "Hălăuceşti", "lat": 47.1, "lng": 26.8, "population": 5819}, {"name": "Dărmăneşti", "lat": 47.73333, "lng": 26.15, "population": 5817}, {"name": "Albeştii Pământeni", "lat": 45.20715, "lng": 24.66826, "population": 5815}, {"name": "Valea Moldovei", "lat": 47.46667, "lng": 26.03333, "population": 5814}, {"name": "Tulnici", "lat": 45.91667, "lng": 26.66667, "population": 5803}, {"name": "Şipote", "lat": 47.46667, "lng": 27.21667, "population": 5800}, {"name": "Bârla", "lat": 44.42606, "lng": 24.77743, "population": 5795}, {"name": "Gorneşti", "lat": 46.67129, "lng": 24.64757, "population": 5787}, {"name": "Viişoara", "lat": 46.55, "lng": 23.91667, "population": 5786}, {"name": "Vedea", "lat": 43.78333, "lng": 25.78333, "population": 5785}, {"name": "Tufeşti", "lat": 45.05, "lng": 27.81667, "population": 5784}, {"name": "Mugeni", "lat": 46.25, "lng": 25.21667, "population": 5784}, {"name": "Sânpetru Mare", "lat": 46.04515, "lng": 20.81834, "population": 5782}, {"name": "Jijila", "lat": 45.3, "lng": 28.15, "population": 5770}, {"name": "Calafindeşti", "lat": 47.85, "lng": 26.11667, "population": 5764}, {"name": "Todireşti", "lat": 47.7, "lng": 26.03333, "population": 5763}, {"name": "Runcu", "lat": 45.11667, "lng": 23.13333, "population": 5760}, {"name": "Maglavit", "lat": 44.03333, "lng": 23.1, "population": 5753}, {"name": "Truşeşti", "lat": 47.76667, "lng": 27.01667, "population": 5748}, {"name": "Secusigiu", "lat": 46.08333, "lng": 20.98333, "population": 5748}, {"name": "Copalnic Mănăştur", "lat": 47.5, "lng": 23.68333, "population": 5747}, {"name": "Dudeştii Vechi", "lat": 46.05, "lng": 20.48333, "population": 5746}, {"name": "Miercurea Nirajului", "lat": 46.53333, "lng": 24.8, "population": 5741}, {"name": "Ostroveni", "lat": 43.8, "lng": 23.9, "population": 5731}, {"name": "Mătăsaru", "lat": 44.71667, "lng": 25.41667, "population": 5722}, {"name": "Lunguleţu", "lat": 44.61667, "lng": 25.65, "population": 5718}, {"name": "Cochirleanca", "lat": 45.21667, "lng": 27.03333, "population": 5712}, {"name": "Albeşti-Paleologu", "lat": 44.95, "lng": 26.21667, "population": 5695}, {"name": "Bălceşti", "lat": 44.61667, "lng": 23.95, "population": 5683}, {"name": "Zetea", "lat": 46.38333, "lng": 25.36667, "population": 5670}, {"name": "Bereşti-Tazlău", "lat": 46.46667, "lng": 26.66667, "population": 5661}, {"name": "Sălişte", "lat": 45.79633, "lng": 23.88677, "population": 5660}, {"name": "Drajna de Jos", "lat": 45.21667, "lng": 26.05, "population": 5660}, {"name": "Mihai Viteazu", "lat": 46.53333, "lng": 23.75, "population": 5659}, {"name": "Erbiceni", "lat": 47.26667, "lng": 27.23333, "population": 5655}, {"name": "Tătăruşi", "lat": 47.35, "lng": 26.6, "population": 5651}, {"name": "Băneşti", "lat": 45.1, "lng": 25.76667, "population": 5636}, {"name": "Păltinoasa", "lat": 47.55, "lng": 25.95, "population": 5635}, {"name": "Joseni", "lat": 46.7, "lng": 25.5, "population": 5635}, {"name": "Mavrodin", "lat": 44.03333, "lng": 25.25, "population": 5628}, {"name": "Stolniceni-Prăjescu", "lat": 47.19858, "lng": 26.7481, "population": 5625}, {"name": "Tutova", "lat": 46.11667, "lng": 27.55, "population": 5619}, {"name": "Predeal", "lat": 45.5, "lng": 25.56667, "population": 5615}, {"name": "Corbeni", "lat": 45.3, "lng": 24.65, "population": 5613}, {"name": "Rupea", "lat": 46.03333, "lng": 25.21667, "population": 5610}, {"name": "Ştefăneşti-Sat", "lat": 47.79548, "lng": 27.19542, "population": 5607}, {"name": "Berbeşti", "lat": 44.98333, "lng": 23.88333, "population": 5606}, {"name": "Lenauheim", "lat": 45.87194, "lng": 20.79944, "population": 5605}, {"name": "Banca", "lat": 46.3, "lng": 27.8, "population": 5600}, {"name": "Fântânele", "lat": 46.1237, "lng": 21.3842, "population": 5597}, {"name": "Berezeni", "lat": 46.37611, "lng": 28.14778, "population": 5590}, {"name": "Negru Vodă", "lat": 43.81667, "lng": 28.2, "population": 5585}, {"name": "Băneasa", "lat": 44.04611, "lng": 26.06417, "population": 5582}, {"name": "Petricani", "lat": 47.16667, "lng": 26.46667, "population": 5580}, {"name": "Săveni", "lat": 44.6, "lng": 27.65, "population": 5579}, {"name": "Dobreşti", "lat": 46.85, "lng": 22.3, "population": 5573}, {"name": "Brusturi", "lat": 47.28333, "lng": 26.38333, "population": 5554}, {"name": "Perişoru", "lat": 44.45, "lng": 27.55, "population": 5535}, {"name": "Frăteşti", "lat": 43.96667, "lng": 25.96667, "population": 5527}, {"name": "Vânători", "lat": 45.73333, "lng": 27.25, "population": 5521}, {"name": "Podoleni", "lat": 46.8, "lng": 26.61667, "population": 5520}, {"name": "Ostrov", "lat": 44.11667, "lng": 27.36667, "population": 5516}, {"name": "Frătăuţii Noi", "lat": 47.94257, "lng": 25.84465, "population": 5512}, {"name": "Cristeşti", "lat": 46.5, "lng": 24.48333, "population": 5507}, {"name": "Tudor Vladimirescu", "lat": 45.56667, "lng": 27.65, "population": 5498}, {"name": "Vulcan", "lat": 45.63333, "lng": 25.41667, "population": 5493}, {"name": "Avrămeni", "lat": 48.01667, "lng": 26.95, "population": 5490}, {"name": "Colceag", "lat": 44.95, "lng": 26.35, "population": 5473}, {"name": "Râfov", "lat": 44.86667, "lng": 26.13333, "population": 5472}, {"name": "Crasna", "lat": 45.16667, "lng": 23.5, "population": 5466}, {"name": "Bratca", "lat": 46.93333, "lng": 22.61667, "population": 5462}, {"name": "Zărneşti", "lat": 45.3, "lng": 26.86667, "population": 5459}, {"name": "Gorgota", "lat": 44.78333, "lng": 26.08333, "population": 5459}, {"name": "Nimigea de Sus", "lat": 47.28333, "lng": 24.31667, "population": 5457}, {"name": "Găiseni", "lat": 44.515, "lng": 25.64528, "population": 5455}, {"name": "Piscu Vechi", "lat": 43.9, "lng": 23.16667, "population": 5445}, {"name": "Fundeni", "lat": 44.38333, "lng": 26.35, "population": 5443}, {"name": "Nuşfalău", "lat": 47.2, "lng": 22.73333, "population": 5436}, {"name": "Novaci", "lat": 44.30109, "lng": 25.98632, "population": 5431}, {"name": "Săgeata", "lat": 45.1, "lng": 26.98333, "population": 5427}, {"name": "Domnești", "lat": 44.39919, "lng": 25.91618, "population": 5423}, {"name": "Tătărani", "lat": 45.0, "lng": 25.26667, "population": 5422}, {"name": "Zagon", "lat": 45.76667, "lng": 26.11667, "population": 5416}, {"name": "Coşeşti", "lat": 45.06667, "lng": 24.86667, "population": 5416}, {"name": "Mătăsari", "lat": 44.85, "lng": 23.08333, "population": 5411}, {"name": "Cârţa", "lat": 46.53333, "lng": 25.75, "population": 5407}, {"name": "Griviţa", "lat": 46.15, "lng": 27.65, "population": 5405}, {"name": "Agigea", "lat": 44.09258, "lng": 28.61079, "population": 5405}, {"name": "Leu", "lat": 44.18333, "lng": 24.0, "population": 5404}, {"name": "Răşinari", "lat": 45.7, "lng": 24.06667, "population": 5403}, {"name": "Comişani", "lat": 44.88333, "lng": 25.58333, "population": 5401}, {"name": "Ţigăneşti", "lat": 43.9, "lng": 25.36667, "population": 5397}, {"name": "Todireşti", "lat": 46.85, "lng": 27.36667, "population": 5388}, {"name": "Grumăzeşti", "lat": 47.13333, "lng": 26.36667, "population": 5385}, {"name": "Greci", "lat": 45.18333, "lng": 28.23333, "population": 5384}, {"name": "Albeşti", "lat": 46.23333, "lng": 24.85, "population": 5382}, {"name": "Isaccea", "lat": 45.26667, "lng": 28.46667, "population": 5375}, {"name": "Budeşti", "lat": 45.05, "lng": 24.38333, "population": 5362}, {"name": "Recea", "lat": 47.63333, "lng": 23.51667, "population": 5360}, {"name": "Giarmata", "lat": 45.83833, "lng": 21.31083, "population": 5357}, {"name": "Căiuţi-Sat", "lat": 46.18333, "lng": 26.93333, "population": 5357}, {"name": "Suharău", "lat": 48.13333, "lng": 26.41667, "population": 5356}, {"name": "Gura Şuţii", "lat": 44.75, "lng": 25.51667, "population": 5355}, {"name": "Sihlea", "lat": 45.5, "lng": 27.11667, "population": 5354}, {"name": "Ciocăneşti", "lat": 44.6, "lng": 25.85, "population": 5354}, {"name": "Osica de Sus", "lat": 44.25, "lng": 24.31667, "population": 5351}, {"name": "Copşa Mică", "lat": 46.11667, "lng": 24.25, "population": 5349}, {"name": "Căianu Mic", "lat": 47.23333, "lng": 24.15, "population": 5340}, {"name": "Satulung", "lat": 47.56667, "lng": 23.43333, "population": 5334}, {"name": "Coţuşca", "lat": 48.13333, "lng": 26.85, "population": 5333}, {"name": "Şirna", "lat": 44.8, "lng": 25.95, "population": 5331}, {"name": "Certeze", "lat": 47.9, "lng": 23.46667, "population": 5330}, {"name": "Topraisar", "lat": 44.01667, "lng": 28.45, "population": 5329}, {"name": "Corbasca", "lat": 46.28333, "lng": 27.16667, "population": 5328}, {"name": "Tudor Vladimirescu", "lat": 45.21667, "lng": 27.8, "population": 5327}, {"name": "Celaru", "lat": 44.05, "lng": 24.13333, "population": 5326}, {"name": "Telciu", "lat": 47.43333, "lng": 24.4, "population": 5314}, {"name": "Măicăneşti", "lat": 45.5, "lng": 27.5, "population": 5312}, {"name": "Gogoşu", "lat": 44.37389, "lng": 22.59306, "population": 5309}, {"name": "Târgu Trotuş", "lat": 46.26667, "lng": 26.66667, "population": 5305}, {"name": "Straja", "lat": 47.91667, "lng": 25.55, "population": 5304}, {"name": "Mogoşoaia", "lat": 44.52917, "lng": 26.0, "population": 5304}, {"name": "Sânandrei", "lat": 45.85306, "lng": 21.16806, "population": 5302}, {"name": "Jebel", "lat": 45.55556, "lng": 21.21361, "population": 5298}, {"name": "Drăguşeni", "lat": 45.96667, "lng": 27.75, "population": 5297}, {"name": "Chiscani", "lat": 45.18333, "lng": 27.93333, "population": 5294}, {"name": "Ulmeni", "lat": 44.15, "lng": 26.71667, "population": 5285}, {"name": "Borduşani", "lat": 44.48333, "lng": 27.9, "population": 5285}, {"name": "Berzunţi", "lat": 46.4, "lng": 26.63333, "population": 5285}, {"name": "Băneasa", "lat": 44.06667, "lng": 27.7, "population": 5280}, {"name": "Sângeru", "lat": 45.13333, "lng": 26.35, "population": 5271}, {"name": "Pleniţa", "lat": 44.21667, "lng": 23.18333, "population": 5260}, {"name": "Perieni", "lat": 46.3, "lng": 27.61667, "population": 5258}, {"name": "Gârla-Mare", "lat": 44.20917, "lng": 22.775, "population": 5258}, {"name": "Livezi-Vale", "lat": 46.41667, "lng": 26.73333, "population": 5255}, {"name": "Poiana Câmpina", "lat": 45.127, "lng": 25.711, "population": 5254}, {"name": "Ţicleni", "lat": 44.88333, "lng": 23.4, "population": 5250}, {"name": "Ghimeş-Făget", "lat": 46.58333, "lng": 26.06667, "population": 5248}, {"name": "Lazuri", "lat": 47.85, "lng": 22.86667, "population": 5237}, {"name": "Trifeşti", "lat": 47.45, "lng": 27.51667, "population": 5232}, {"name": "Grădiştea", "lat": 44.23333, "lng": 27.21667, "population": 5232}, {"name": "Bucu", "lat": 44.60532, "lng": 27.49337, "population": 5232}, {"name": "Vurpăr", "lat": 46.0, "lng": 23.46667, "population": 5215}, {"name": "Odobeşti", "lat": 44.61667, "lng": 25.56667, "population": 5211}, {"name": "Frumuşiţa", "lat": 45.66667, "lng": 28.06667, "population": 5206}, {"name": "Ceptura de Sus", "lat": 45.01667, "lng": 26.31667, "population": 5204}, {"name": "Ţifeşti", "lat": 45.85, "lng": 27.1, "population": 5202}, {"name": "Vişeu de Jos", "lat": 47.72558, "lng": 24.36613, "population": 5201}, {"name": "Slatina", "lat": 47.45, "lng": 26.01667, "population": 5196}, {"name": "Măstăcani", "lat": 45.78333, "lng": 28.03333, "population": 5185}, {"name": "Ruscova", "lat": 47.79289, "lng": 24.28546, "population": 5183}, {"name": "Rediu", "lat": 46.75598, "lng": 26.56254, "population": 5182}, {"name": "Corbu", "lat": 44.38333, "lng": 28.65, "population": 5180}, {"name": "Bran", "lat": 45.51667, "lng": 25.35, "population": 5177}, {"name": "Zemeş", "lat": 46.58333, "lng": 26.41667, "population": 5171}, {"name": "Curcani", "lat": 44.2, "lng": 26.58333, "population": 5167}, {"name": "Drăgăneşti", "lat": 44.81667, "lng": 26.3, "population": 5156}, {"name": "Lunca de Jos", "lat": 46.56667, "lng": 25.98333, "population": 5152}, {"name": "Poiana Teiului", "lat": 47.1, "lng": 25.96667, "population": 5145}, {"name": "Bucecea", "lat": 47.76667, "lng": 26.43333, "population": 5143}, {"name": "Batăr", "lat": 46.7, "lng": 21.81667, "population": 5143}, {"name": "Faraoaní", "lat": 46.43333, "lng": 26.9, "population": 5141}, {"name": "Ernei", "lat": 46.60505, "lng": 24.64148, "population": 5141}, {"name": "Tudora", "lat": 47.51667, "lng": 26.63333, "population": 5139}, {"name": "Horodnic de Sus", "lat": 47.84012, "lng": 25.82354, "population": 5136}, {"name": "Jurilovca", "lat": 44.76667, "lng": 28.86667, "population": 5133}, {"name": "Drăguţeşti", "lat": 44.96667, "lng": 23.23333, "population": 5126}, {"name": "Deleşti", "lat": 46.7, "lng": 27.55, "population": 5122}, {"name": "Bodeşti", "lat": 47.03333, "lng": 26.41667, "population": 5122}, {"name": "Săliştea de Sus", "lat": 47.65, "lng": 24.35, "population": 5119}, {"name": "Frumuşani", "lat": 44.29611, "lng": 26.32556, "population": 5111}, {"name": "Dridu", "lat": 44.7, "lng": 26.45, "population": 5111}, {"name": "Dersca", "lat": 47.98333, "lng": 26.2, "population": 5105}, {"name": "Ceraşu", "lat": 45.31667, "lng": 26.03333, "population": 5105}, {"name": "Moceşti", "lat": 45.05, "lng": 26.25, "population": 5100}, {"name": "Felnac", "lat": 46.11667, "lng": 21.15, "population": 5097}, {"name": "Dobroteşti", "lat": 44.28333, "lng": 24.88333, "population": 5096}, {"name": "Moţca", "lat": 47.25, "lng": 26.61667, "population": 5095}, {"name": "Bradu", "lat": 44.78333, "lng": 24.9, "population": 5091}, {"name": "Izbiceni", "lat": 43.82222, "lng": 24.66331, "population": 5089}, {"name": "Stâlpeni", "lat": 45.05, "lng": 24.96667, "population": 5088}, {"name": "Havârna", "lat": 48.06667, "lng": 26.65, "population": 5088}, {"name": "Podu Turcului", "lat": 46.2, "lng": 27.38333, "population": 5081}, {"name": "Suseni", "lat": 46.66667, "lng": 25.55, "population": 5079}, {"name": "Sanislău", "lat": 47.63333, "lng": 22.33333, "population": 5072}, {"name": "Cavnic", "lat": 47.66667, "lng": 23.86667, "population": 5072}, {"name": "Padeş", "lat": 45.01667, "lng": 22.85, "population": 5071}, {"name": "Păuleşti", "lat": 45.00084, "lng": 25.95989, "population": 5069}, {"name": "Bezdead", "lat": 45.15, "lng": 25.51667, "population": 5067}, {"name": "Tărtăşeşti", "lat": 44.57722, "lng": 25.81278, "population": 5066}, {"name": "Radovanu", "lat": 44.2, "lng": 26.51667, "population": 5065}, {"name": "Lungani", "lat": 47.18333, "lng": 27.15, "population": 5065}, {"name": "Cornetu", "lat": 44.34167, "lng": 25.94083, "population": 5063}, {"name": "Bălţaţi", "lat": 47.21667, "lng": 27.15, "population": 5061}, {"name": "Slobozia Bradului", "lat": 45.5, "lng": 27.05, "population": 5060}, {"name": "Mireşu Mare", "lat": 47.5, "lng": 23.33333, "population": 5054}, {"name": "Puieşti", "lat": 46.42867, "lng": 27.48976, "population": 5050}, {"name": "Slobozia", "lat": 44.52527, "lng": 25.24263, "population": 5045}, {"name": "Fărcaşele", "lat": 44.15, "lng": 24.43333, "population": 5045}, {"name": "Moroeni", "lat": 45.21667, "lng": 25.43333, "population": 5042}, {"name": "Mihăileni", "lat": 47.96667, "lng": 26.15, "population": 5037}, {"name": "Duda", "lat": 46.74927, "lng": 28.04237, "population": 5037}, {"name": "Coşoveni", "lat": 44.25, "lng": 23.93333, "population": 5024}, {"name": "Trifeşti", "lat": 46.91667, "lng": 26.81667, "population": 5018}, {"name": "Băluşeni", "lat": 47.66667, "lng": 26.8, "population": 5017}, {"name": "Viişoara", "lat": 46.93333, "lng": 26.23333, "population": 5014}, {"name": "Ludeşti", "lat": 44.86667, "lng": 25.23333, "population": 5011}, {"name": "Răchitoasa", "lat": 46.43333, "lng": 27.36667, "population": 5009}, {"name": "Tritenii de Jos", "lat": 46.58333, "lng": 24.0, "population": 5008}, {"name": "Josenii Bârgăului", "lat": 47.21667, "lng": 24.68333, "population": 5006}, {"name": "Piscu", "lat": 45.5, "lng": 27.73333, "population": 5002}, {"name": "Odăi", "lat": 44.39272, "lng": 26.03537, "population": 5001}, {"name": "Aninoasa", "lat": 45.40924, "lng": 23.31505, "population": 4998}, {"name": "Ghindari", "lat": 46.5, "lng": 24.91667, "population": 4997}, {"name": "Malu Mare", "lat": 44.24182, "lng": 23.85321, "population": 4995}, {"name": "Clinceni", "lat": 44.37333, "lng": 25.95472, "population": 4995}, {"name": "Beceni", "lat": 45.38333, "lng": 26.78333, "population": 4992}, {"name": "Moldoviţa", "lat": 47.68333, "lng": 25.53333, "population": 4985}, {"name": "Lipăneşti", "lat": 45.05, "lng": 26.01667, "population": 4985}, {"name": "Topolog", "lat": 44.88333, "lng": 28.36667, "population": 4982}, {"name": "Fântânele", "lat": 46.41667, "lng": 24.75, "population": 4981}, {"name": "Desa", "lat": 43.86667, "lng": 23.03333, "population": 4981}, {"name": "Scoarţa", "lat": 45.01667, "lng": 23.45, "population": 4973}, {"name": "Ciorogârla", "lat": 44.4425, "lng": 25.88333, "population": 4968}, {"name": "Bălăuşeri", "lat": 46.4, "lng": 24.68333, "population": 4968}, {"name": "Ghimbav", "lat": 45.66667, "lng": 25.5, "population": 4967}, {"name": "Jiana Veche", "lat": 44.39083, "lng": 22.66861, "population": 4966}, {"name": "Vânătorii Mici", "lat": 44.49028, "lng": 25.55889, "population": 4965}, {"name": "Vlădeni", "lat": 47.71667, "lng": 26.51667, "population": 4963}, {"name": "Cislău", "lat": 45.25, "lng": 26.36667, "population": 4961}, {"name": "Azuga", "lat": 45.45, "lng": 25.55, "population": 4961}, {"name": "Strejnicu", "lat": 44.91676, "lng": 25.95109, "population": 4960}, {"name": "Lereşti", "lat": 45.33333, "lng": 25.06667, "population": 4960}, {"name": "Slănic-Moldova", "lat": 46.22308, "lng": 26.47413, "population": 4955}, {"name": "Mogoşeşti", "lat": 47.03333, "lng": 27.53333, "population": 4946}, {"name": "Schitu-Goleşti", "lat": 45.2, "lng": 25.0, "population": 4945}, {"name": "Bistra", "lat": 46.3782, "lng": 23.10081, "population": 4942}, {"name": "Baia", "lat": 44.71667, "lng": 28.66667, "population": 4938}, {"name": "Peciu Nou", "lat": 45.60639, "lng": 21.05778, "population": 4937}, {"name": "Bogaţi", "lat": 44.86667, "lng": 25.13333, "population": 4936}, {"name": "Ciocăneşti", "lat": 44.2, "lng": 27.06667, "population": 4931}, {"name": "Crevedia Mare", "lat": 44.42917, "lng": 25.62556, "population": 4927}, {"name": "Lunca", "lat": 47.61667, "lng": 26.98333, "population": 4921}, {"name": "Grăniceşti", "lat": 47.81667, "lng": 26.06667, "population": 4916}, {"name": "Hârtieşti", "lat": 45.11667, "lng": 25.1, "population": 4913}, {"name": "Fântânele", "lat": 47.51667, "lng": 26.31667, "population": 4913}, {"name": "Forăşti", "lat": 47.35, "lng": 26.46667, "population": 4912}, {"name": "Costuleni", "lat": 47.03333, "lng": 27.85, "population": 4911}, {"name": "Tătăranu", "lat": 45.51667, "lng": 27.31667, "population": 4904}, {"name": "Ogrezeni", "lat": 44.41972, "lng": 25.76833, "population": 4893}, {"name": "Letea Veche", "lat": 46.55, "lng": 26.95, "population": 4893}, {"name": "Hodac", "lat": 46.77967, "lng": 24.93667, "population": 4892}, {"name": "Botoşana", "lat": 47.68333, "lng": 25.95, "population": 4881}, {"name": "Mahmudia", "lat": 45.08333, "lng": 29.08333, "population": 4876}, {"name": "Hoghiz", "lat": 45.98333, "lng": 25.3, "population": 4876}, {"name": "Dragomireşti", "lat": 46.63333, "lng": 27.35, "population": 4868}, {"name": "Argetoaia", "lat": 44.51667, "lng": 23.36667, "population": 4862}, {"name": "Poienile", "lat": 46.93333, "lng": 27.18333, "population": 4861}, {"name": "Ghiroda", "lat": 45.76389, "lng": 21.30028, "population": 4857}, {"name": "Dulceşti", "lat": 46.96667, "lng": 26.76667, "population": 4856}, {"name": "Tia Mare", "lat": 43.86667, "lng": 24.63333, "population": 4853}, {"name": "Mitreni", "lat": 44.16667, "lng": 26.6, "population": 4831}, {"name": "Şelimbăr", "lat": 45.76667, "lng": 24.2, "population": 4829}, {"name": "Ciucsângeorgiu", "lat": 46.31667, "lng": 25.95, "population": 4821}, {"name": "Rusăneşti", "lat": 43.93333, "lng": 24.6, "population": 4819}, {"name": "Nicolae Bălcescu", "lat": 44.38333, "lng": 28.38333, "population": 4813}, {"name": "Măgurele", "lat": 45.1, "lng": 26.03333, "population": 4812}, {"name": "Galicea Mare", "lat": 44.1, "lng": 23.3, "population": 4812}, {"name": "Malnaş", "lat": 46.01667, "lng": 25.83333, "population": 4804}, {"name": "Pârgăreşti", "lat": 46.25, "lng": 26.65, "population": 4798}, {"name": "Sângeorgiu de Pădure", "lat": 46.43061, "lng": 24.84274, "population": 4794}, {"name": "Căşeiu", "lat": 47.18333, "lng": 23.86667, "population": 4791}, {"name": "Sita Buzăului", "lat": 45.65, "lng": 26.06667, "population": 4788}, {"name": "Codăeşti", "lat": 46.86667, "lng": 27.75, "population": 4785}, {"name": "Coteşti", "lat": 45.65, "lng": 27.05, "population": 4780}, {"name": "Botiz", "lat": 47.83333, "lng": 22.95, "population": 4779}, {"name": "Padina", "lat": 44.83333, "lng": 27.11667, "population": 4774}, {"name": "Galda de Jos", "lat": 46.18333, "lng": 23.61667, "population": 4772}, {"name": "Moviliţa", "lat": 44.65, "lng": 26.48333, "population": 4766}, {"name": "Odoreu", "lat": 47.8, "lng": 23.0, "population": 4765}, {"name": "Becicherecu Mic", "lat": 45.82917, "lng": 21.05139, "population": 4765}, {"name": "Mălureni", "lat": 45.1, "lng": 24.8, "population": 4762}, {"name": "Daneş", "lat": 46.21667, "lng": 24.7, "population": 4759}, {"name": "Măldăeni", "lat": 44.11667, "lng": 24.93333, "population": 4755}, {"name": "Cenei", "lat": 45.71583, "lng": 20.90389, "population": 4754}, {"name": "Izvoarele", "lat": 44.03389, "lng": 25.77472, "population": 4753}, {"name": "Jegălia", "lat": 44.3, "lng": 27.63333, "population": 4751}, {"name": "Cristeşti", "lat": 47.63333, "lng": 26.73333, "population": 4745}, {"name": "Comloşu Mare", "lat": 45.89056, "lng": 20.62722, "population": 4745}, {"name": "Suhaia", "lat": 43.73333, "lng": 25.25, "population": 4744}, {"name": "Şcheia", "lat": 46.93333, "lng": 27.51667, "population": 4742}, {"name": "Şuţeşti", "lat": 45.21667, "lng": 27.43333, "population": 4740}, {"name": "Drăgăneşti-Vlaşca", "lat": 44.10139, "lng": 25.59806, "population": 4740}, {"name": "Şeíca Mare", "lat": 46.01667, "lng": 24.15, "population": 4739}, {"name": "Poarta Albă", "lat": 44.21667, "lng": 28.4, "population": 4739}, {"name": "Boroaia", "lat": 47.35, "lng": 26.33333, "population": 4737}, {"name": "Ziduri", "lat": 45.3, "lng": 27.08333, "population": 4736}, {"name": "Buhoci", "lat": 46.56667, "lng": 27.01667, "population": 4736}, {"name": "Roşia", "lat": 45.81667, "lng": 24.31667, "population": 4733}, {"name": "Dumeşti", "lat": 47.18333, "lng": 27.35, "population": 4732}, {"name": "Zăbala", "lat": 45.9, "lng": 26.18333, "population": 4729}, {"name": "Independenţa", "lat": 45.48333, "lng": 27.75, "population": 4728}, {"name": "Doiceşti", "lat": 44.98333, "lng": 25.4, "population": 4727}, {"name": "Studina", "lat": 43.96667, "lng": 24.41667, "population": 4723}, {"name": "Băile Drânceni", "lat": 46.8151, "lng": 28.10222, "population": 4719}, {"name": "Acăţari", "lat": 46.47975, "lng": 24.63324, "population": 4719}, {"name": "Vinderei", "lat": 46.15, "lng": 27.8, "population": 4716}, {"name": "Plopii Slăviţeştí", "lat": 43.96667, "lng": 24.68333, "population": 4716}, {"name": "Bucești", "lat": 45.6525, "lng": 27.53008, "population": 4715}, {"name": "Prundu", "lat": 44.09472, "lng": 26.22694, "population": 4708}, {"name": "Costeşti", "lat": 45.05, "lng": 26.76667, "population": 4704}, {"name": "Ghelinţa", "lat": 45.95, "lng": 26.23333, "population": 4702}, {"name": "Niculiţel", "lat": 45.18333, "lng": 28.48333, "population": 4690}, {"name": "Repedea", "lat": 47.83333, "lng": 24.4, "population": 4688}, {"name": "Stănişeşti", "lat": 46.43333, "lng": 27.3, "population": 4684}, {"name": "Glodeanu-Sărat", "lat": 44.86667, "lng": 26.65, "population": 4683}, {"name": "Pui", "lat": 45.51667, "lng": 23.1, "population": 4680}, {"name": "Moeciu de Jos", "lat": 45.48333, "lng": 25.31667, "population": 4680}, {"name": "Filipeşti", "lat": 46.75, "lng": 26.88333, "population": 4678}, {"name": "Goicea", "lat": 43.91667, "lng": 23.61667, "population": 4676}, {"name": "Bunteşti", "lat": 46.61667, "lng": 22.46667, "population": 4676}, {"name": "Horgeşti", "lat": 46.43333, "lng": 27.06667, "population": 4665}, {"name": "Traian", "lat": 46.63333, "lng": 27.03333, "population": 4662}, {"name": "Limanu", "lat": 43.8, "lng": 28.53333, "population": 4661}, {"name": "Iara", "lat": 46.55, "lng": 23.51667, "population": 4660}, {"name": "Măgura", "lat": 45.26667, "lng": 26.58333, "population": 4657}, {"name": "Călineşti-Oaş", "lat": 47.9, "lng": 23.3, "population": 4654}, {"name": "Vatra Moldoviţei", "lat": 47.65, "lng": 25.56667, "population": 4653}, {"name": "Turburea", "lat": 44.71667, "lng": 23.51667, "population": 4652}, {"name": "Dorna Cândrenilor", "lat": 47.35, "lng": 25.25, "population": 4650}, {"name": "Icuseşti", "lat": 46.8, "lng": 26.93333, "population": 4648}, {"name": "Podenii Noi", "lat": 45.11667, "lng": 26.16667, "population": 4644}, {"name": "Rebrişoara", "lat": 47.28333, "lng": 24.45, "population": 4637}, {"name": "Frătăuţii Vechi", "lat": 47.9, "lng": 25.88333, "population": 4635}, {"name": "Sânzieni", "lat": 46.05, "lng": 26.13333, "population": 4634}, {"name": "Iveşti", "lat": 46.18333, "lng": 27.53333, "population": 4631}, {"name": "Rona de Sus", "lat": 47.9, "lng": 24.05, "population": 4630}, {"name": "Mica", "lat": 46.36667, "lng": 24.41667, "population": 4626}, {"name": "Brădeşti", "lat": 44.48333, "lng": 23.63333, "population": 4625}, {"name": "Garoafa", "lat": 45.78333, "lng": 27.2, "population": 4624}, {"name": "Manasia", "lat": 44.7, "lng": 26.66667, "population": 4617}, {"name": "Spanţov", "lat": 44.11667, "lng": 26.78333, "population": 4616}, {"name": "Brăduţ", "lat": 46.13333, "lng": 25.61667, "population": 4616}, {"name": "Finta Mare", "lat": 44.8, "lng": 25.8, "population": 4613}, {"name": "Măneşti", "lat": 44.96667, "lng": 25.28333, "population": 4612}, {"name": "Buciumeni", "lat": 45.15, "lng": 25.45, "population": 4604}, {"name": "Supuru de Jos", "lat": 47.46667, "lng": 22.8, "population": 4598}, {"name": "Eforie Nord", "lat": 44.0653, "lng": 28.63211, "population": 4598}, {"name": "Români", "lat": 46.78333, "lng": 26.68333, "population": 4597}, {"name": "Prundeni", "lat": 44.73333, "lng": 24.26667, "population": 4596}, {"name": "Luizi-Călugăra", "lat": 46.53333, "lng": 26.83333, "population": 4596}, {"name": "Orlea", "lat": 43.75, "lng": 24.38333, "population": 4591}, {"name": "Satchinez", "lat": 45.9375, "lng": 21.04056, "population": 4586}, {"name": "Glodeanu-Siliştea", "lat": 44.83333, "lng": 26.8, "population": 4585}, {"name": "Curtişoara", "lat": 44.5, "lng": 24.33333, "population": 4583}, {"name": "Titeşti", "lat": 45.01667, "lng": 25.0, "population": 4581}, {"name": "Bala", "lat": 44.88389, "lng": 22.83333, "population": 4580}, {"name": "Boloteşti", "lat": 45.83333, "lng": 27.06667, "population": 4578}, {"name": "Vânători", "lat": 44.24278, "lng": 22.92889, "population": 4570}, {"name": "Baia de Arieş", "lat": 46.38045, "lng": 23.28115, "population": 4566}, {"name": "Băile Olăneşti", "lat": 45.2, "lng": 24.23333, "population": 4562}, {"name": "Fărtăţeşti", "lat": 44.78333, "lng": 24.0, "population": 4561}, {"name": "Comarna", "lat": 47.05, "lng": 27.78333, "population": 4551}, {"name": "Tomşani", "lat": 44.95, "lng": 26.28333, "population": 4550}, {"name": "Mogoşani", "lat": 44.68333, "lng": 25.4, "population": 4549}, {"name": "Poroschia", "lat": 43.93333, "lng": 25.36667, "population": 4544}, {"name": "Stoeneşti", "lat": 45.25, "lng": 25.16667, "population": 4534}, {"name": "Cepleniţa", "lat": 47.38333, "lng": 27.01667, "population": 4533}, {"name": "Bivolari", "lat": 47.53333, "lng": 27.43333, "population": 4530}, {"name": "Zătreni", "lat": 44.76667, "lng": 23.85, "population": 4524}, {"name": "Ciolpani", "lat": 44.73333, "lng": 26.08333, "population": 4523}, {"name": "Ipoteşti", "lat": 47.61667, "lng": 26.28333, "population": 4521}, {"name": "Foglaş", "lat": 47.25, "lng": 22.53333, "population": 4517}, {"name": "Agapia", "lat": 47.16667, "lng": 26.28333, "population": 4517}, {"name": "Voila", "lat": 45.81839, "lng": 24.84215, "population": 4513}, {"name": "Strunga", "lat": 47.16667, "lng": 26.98333, "population": 4508}, {"name": "Şicula", "lat": 46.43333, "lng": 21.75, "population": 4503}, {"name": "Albeşti", "lat": 45.30955, "lng": 25.0078, "population": 4503}, {"name": "Andrieşeni", "lat": 47.53333, "lng": 27.28333, "population": 4501}, {"name": "Vlădeni", "lat": 47.41667, "lng": 27.33333, "population": 4498}, {"name": "Bragadiru", "lat": 43.76667, "lng": 25.51667, "population": 4498}, {"name": "Banloc", "lat": 45.38742, "lng": 21.13581, "population": 4497}, {"name": "Alunu", "lat": 45.01667, "lng": 23.81667, "population": 4495}, {"name": "Ulieşti", "lat": 44.58333, "lng": 25.41667, "population": 4494}, {"name": "Tinca", "lat": 46.77529, "lng": 21.933, "population": 4494}, {"name": "Ozun", "lat": 45.8, "lng": 25.85, "population": 4493}, {"name": "Vorniceni", "lat": 47.98333, "lng": 26.66667, "population": 4490}, {"name": "Poiana Crăcăoani", "lat": 47.06667, "lng": 26.31667, "population": 4490}, {"name": "Nojorid", "lat": 46.98333, "lng": 21.88333, "population": 4484}, {"name": "Dumitra", "lat": 47.21667, "lng": 24.48333, "population": 4482}, {"name": "Măgireşti", "lat": 46.51667, "lng": 26.55, "population": 4477}, {"name": "Ţinteşti", "lat": 45.06667, "lng": 26.86667, "population": 4475}, {"name": "Mărăcineni", "lat": 44.9, "lng": 24.88333, "population": 4468}, {"name": "Somova", "lat": 45.18333, "lng": 28.66667, "population": 4463}, {"name": "Şag", "lat": 45.64861, "lng": 21.17556, "population": 4461}, {"name": "Adjudeni", "lat": 47.01408, "lng": 26.94903, "population": 4456}, {"name": "Dăneşti", "lat": 46.51667, "lng": 25.75, "population": 4455}, {"name": "Băţanii Mari", "lat": 46.08333, "lng": 25.68333, "population": 4454}, {"name": "Sulina", "lat": 45.15564, "lng": 29.65403, "population": 4443}, {"name": "Rugineşti", "lat": 46.06667, "lng": 27.11667, "population": 4438}, {"name": "Cacica", "lat": 47.63333, "lng": 25.9, "population": 4438}, {"name": "Bâra", "lat": 47.03333, "lng": 27.05, "population": 4436}, {"name": "Runcu", "lat": 45.18333, "lng": 25.38333, "population": 4435}, {"name": "Dumbrăviţa", "lat": 45.76667, "lng": 25.43333, "population": 4435}, {"name": "Pleașa", "lat": 45.00583, "lng": 26.07211, "population": 4434}, {"name": "Ibăneşti", "lat": 46.76667, "lng": 24.93333, "population": 4434}, {"name": "Săvădisla", "lat": 46.68333, "lng": 23.45, "population": 4433}, {"name": "Braniştea", "lat": 44.68333, "lng": 25.58333, "population": 4430}, {"name": "Melineşti", "lat": 44.56667, "lng": 23.71667, "population": 4429}, {"name": "Ciumani", "lat": 46.68333, "lng": 25.51667, "population": 4428}, {"name": "Gurahonţ", "lat": 46.26667, "lng": 22.35, "population": 4427}, {"name": "Şona", "lat": 46.21667, "lng": 24.01667, "population": 4425}, {"name": "Căpleni", "lat": 47.71667, "lng": 22.5, "population": 4424}, {"name": "Dumbrăviţa", "lat": 47.6, "lng": 23.65, "population": 4420}, {"name": "Ciumeghiu", "lat": 46.73333, "lng": 21.58333, "population": 4419}, {"name": "Zimandu Nou", "lat": 46.28333, "lng": 21.4, "population": 4412}, {"name": "Liteni", "lat": 47.52049, "lng": 26.5283, "population": 4410}, {"name": "Gârbovi", "lat": 44.78333, "lng": 26.76667, "population": 4408}, {"name": "Rădăşeni", "lat": 47.46667, "lng": 26.25, "population": 4404}, {"name": "Ţibucani", "lat": 47.1, "lng": 26.53333, "population": 4403}, {"name": "Lipovăţ", "lat": 46.56667, "lng": 27.7, "population": 4403}, {"name": "Bârca", "lat": 43.96667, "lng": 23.61667, "population": 4403}, {"name": "Cornu de Sus", "lat": 45.16667, "lng": 25.7, "population": 4402}, {"name": "Bocicoiu Mare", "lat": 47.96319, "lng": 24.0109, "population": 4400}, {"name": "Ulmu", "lat": 44.95, "lng": 27.31667, "population": 4397}, {"name": "Mărunţei", "lat": 44.2, "lng": 24.46667, "population": 4397}, {"name": "Pătulele", "lat": 44.34528, "lng": 22.77278, "population": 4395}, {"name": "Dumbrava", "lat": 44.88333, "lng": 26.18333, "population": 4394}, {"name": "Ciucea", "lat": 46.95, "lng": 22.81667, "population": 4393}, {"name": "Zăbrani", "lat": 46.06667, "lng": 21.55, "population": 4392}, {"name": "Solca", "lat": 47.7, "lng": 25.85, "population": 4391}, {"name": "Siliştea", "lat": 44.38333, "lng": 25.35, "population": 4391}, {"name": "Merişani", "lat": 44.9682, "lng": 24.74327, "population": 4390}, {"name": "Lopătari", "lat": 45.48333, "lng": 26.58333, "population": 4385}, {"name": "Corbi", "lat": 45.28333, "lng": 24.8, "population": 4381}, {"name": "Şimnicu de Sus", "lat": 44.38333, "lng": 23.8, "population": 4380}, {"name": "Ioneşti", "lat": 44.85, "lng": 24.23333, "population": 4379}, {"name": "Uivar", "lat": 45.65806, "lng": 20.90583, "population": 4378}, {"name": "Ciorteşti", "lat": 46.9, "lng": 27.83333, "population": 4378}, {"name": "Tăuteu", "lat": 47.26667, "lng": 22.33333, "population": 4377}, {"name": "Secuieni", "lat": 46.65, "lng": 27.1, "population": 4375}, {"name": "Iancu Jianu", "lat": 44.5, "lng": 24.03333, "population": 4375}, {"name": "Topliceni", "lat": 45.41667, "lng": 27.0, "population": 4374}, {"name": "Dorneşti", "lat": 47.87174, "lng": 26.0043, "population": 4371}, {"name": "Lupeni", "lat": 46.38333, "lng": 25.21667, "population": 4370}, {"name": "Salva", "lat": 47.3, "lng": 24.35, "population": 4368}, {"name": "Glodeni", "lat": 45.01667, "lng": 25.46667, "population": 4367}, {"name": "Vetiş", "lat": 47.8, "lng": 22.76667, "population": 4365}, {"name": "Bălileşti", "lat": 45.06667, "lng": 24.93333, "population": 4362}, {"name": "Teșila", "lat": 45.30352, "lng": 25.72324, "population": 4356}, {"name": "Bereşti-Sat", "lat": 46.1, "lng": 27.88333, "population": 4352}, {"name": "Iclod", "lat": 46.98333, "lng": 23.8, "population": 4351}, {"name": "Ocniţa", "lat": 44.98333, "lng": 25.55, "population": 4348}, {"name": "Nucet", "lat": 44.78333, "lng": 25.55, "population": 4348}, {"name": "Schitu-Duca", "lat": 47.03333, "lng": 27.76667, "population": 4347}, {"name": "Ianca", "lat": 43.78333, "lng": 24.18333, "population": 4347}, {"name": "Prundu Bârgăului", "lat": 47.21975, "lng": 24.74123, "population": 4345}, {"name": "Sânmihaiu Român", "lat": 45.70444, "lng": 21.08889, "population": 4343}, {"name": "Mehadia", "lat": 44.90083, "lng": 22.36694, "population": 4336}, {"name": "Cojocna", "lat": 46.75, "lng": 23.83333, "population": 4336}, {"name": "Răchiţi", "lat": 47.76667, "lng": 26.68333, "population": 4333}, {"name": "Tiha Bârgăului", "lat": 47.23333, "lng": 24.76667, "population": 4332}, {"name": "Florești", "lat": 44.51313, "lng": 25.69658, "population": 4332}, {"name": "Curteşti", "lat": 47.71667, "lng": 26.65, "population": 4331}, {"name": "Dragomireşti-Vale", "lat": 44.475, "lng": 25.935, "population": 4330}, {"name": "Bistra", "lat": 47.86667, "lng": 24.2, "population": 4330}, {"name": "Baia de Fier", "lat": 45.16667, "lng": 23.76667, "population": 4328}, {"name": "Mârzăneşti", "lat": 43.93333, "lng": 25.46667, "population": 4326}, {"name": "Mironeasa", "lat": 46.96667, "lng": 27.41667, "population": 4324}, {"name": "Frata", "lat": 46.7, "lng": 24.05, "population": 4323}, {"name": "Hărman", "lat": 45.71667, "lng": 25.68333, "population": 4321}, {"name": "Stoileşti", "lat": 44.9, "lng": 24.38333, "population": 4316}, {"name": "Calvini", "lat": 45.25, "lng": 26.3, "population": 4315}, {"name": "Vadu Crişului", "lat": 46.98333, "lng": 22.51667, "population": 4311}, {"name": "Victoria", "lat": 47.28333, "lng": 27.58333, "population": 4305}, {"name": "Moara Carp", "lat": 47.56667, "lng": 26.23333, "population": 4304}, {"name": "Şaru Dornei", "lat": 47.28333, "lng": 25.35, "population": 4301}, {"name": "Crăciunelu de Jos", "lat": 46.173, "lng": 23.833, "population": 4297}, {"name": "Cuza Vodă", "lat": 44.26667, "lng": 27.26667, "population": 4296}, {"name": "Brusturi", "lat": 47.15, "lng": 22.25, "population": 4295}, {"name": "Aninoasa", "lat": 44.75, "lng": 23.48333, "population": 4288}, {"name": "Sănduleni", "lat": 46.45, "lng": 26.73333, "population": 4287}, {"name": "Ciceu-Giurgeşti", "lat": 47.25, "lng": 24.01667, "population": 4285}, {"name": "Ţigănaşi", "lat": 47.33333, "lng": 27.46667, "population": 4283}, {"name": "Pătrăuţi", "lat": 47.71667, "lng": 26.2, "population": 4283}, {"name": "Fălcoiu", "lat": 44.23333, "lng": 24.36667, "population": 4283}, {"name": "Crăciuneşti", "lat": 46.4793, "lng": 24.58234, "population": 4283}, {"name": "Cerna", "lat": 45.08333, "lng": 28.31667, "population": 4279}, {"name": "Cristeşti", "lat": 47.26667, "lng": 26.56667, "population": 4273}, {"name": "Sânmartin", "lat": 46.26667, "lng": 25.93333, "population": 4272}, {"name": "Pânceşti", "lat": 46.33333, "lng": 27.08333, "population": 4272}, {"name": "Tichileşti", "lat": 45.11667, "lng": 27.9, "population": 4270}, {"name": "Moşniţa Nouă", "lat": 45.71722, "lng": 21.32528, "population": 4268}, {"name": "Moşoaia", "lat": 44.81667, "lng": 24.76667, "population": 4267}, {"name": "Sineşti", "lat": 47.11667, "lng": 27.18333, "population": 4264}, {"name": "Deda", "lat": 46.93333, "lng": 24.9, "population": 4263}, {"name": "Plătăreşti", "lat": 44.35, "lng": 26.36667, "population": 4260}, {"name": "Păuleşti", "lat": 47.78333, "lng": 22.91667, "population": 4258}, {"name": "Ruşeţu", "lat": 44.95, "lng": 27.21667, "population": 4254}, {"name": "Giroc", "lat": 45.69417, "lng": 21.23583, "population": 4250}, {"name": "Livezile", "lat": 47.18333, "lng": 24.56667, "population": 4248}, {"name": "Ceanu Mare", "lat": 46.66667, "lng": 23.95, "population": 4247}, {"name": "Scânteia", "lat": 46.91667, "lng": 27.56667, "population": 4245}, {"name": "Scrioaştea", "lat": 44.15, "lng": 24.95, "population": 4244}, {"name": "Vedea", "lat": 44.78333, "lng": 24.61667, "population": 4243}, {"name": "Buzescu", "lat": 44.01667, "lng": 25.23333, "population": 4243}, {"name": "Moftinu Mare", "lat": 47.67617, "lng": 22.65596, "population": 4242}, {"name": "Găneasa", "lat": 44.48333, "lng": 26.28333, "population": 4240}, {"name": "Vaţa de Jos", "lat": 46.18333, "lng": 22.6, "population": 4239}, {"name": "Baba Ana", "lat": 44.96667, "lng": 26.45, "population": 4234}, {"name": "Crişcior", "lat": 46.11667, "lng": 22.86667, "population": 4232}, {"name": "Poporogi", "lat": 44.36667, "lng": 25.18333, "population": 4228}, {"name": "Cerăt", "lat": 44.06667, "lng": 23.66667, "population": 4226}, {"name": "Unirea", "lat": 44.15, "lng": 23.18333, "population": 4225}, {"name": "Cenad", "lat": 46.13333, "lng": 20.58333, "population": 4218}, {"name": "Bicazu Ardelean", "lat": 46.85, "lng": 25.93333, "population": 4212}, {"name": "Zăpodeni", "lat": 46.75, "lng": 27.65, "population": 4207}, {"name": "Teregova", "lat": 45.15, "lng": 22.28333, "population": 4207}, {"name": "Zăvoi", "lat": 45.51667, "lng": 22.41667, "population": 4205}, {"name": "Nereju", "lat": 45.71667, "lng": 26.71667, "population": 4202}, {"name": "Vizantea-Mânăstirească", "lat": 45.98333, "lng": 26.78333, "population": 4201}, {"name": "Remetea", "lat": 46.57432, "lng": 24.51359, "population": 4201}, {"name": "Şendriceni", "lat": 47.95171, "lng": 26.32817, "population": 4200}, {"name": "Vaideeni", "lat": 45.16667, "lng": 23.93333, "population": 4198}, {"name": "Românești", "lat": 44.56667, "lng": 25.61667, "population": 4198}, {"name": "Ibăneşti", "lat": 48.06667, "lng": 26.36667, "population": 4196}, {"name": "Peştişani", "lat": 45.06667, "lng": 23.03333, "population": 4187}, {"name": "Ştefăneştii de Jos", "lat": 44.53333, "lng": 26.2, "population": 4183}, {"name": "Băiţa", "lat": 46.03333, "lng": 22.9, "population": 4183}, {"name": "Pufeşti", "lat": 46.0, "lng": 27.2, "population": 4179}, {"name": "Mușătești", "lat": 45.21651, "lng": 24.77941, "population": 4176}, {"name": "Bucovăţ", "lat": 44.3, "lng": 23.75, "population": 4175}, {"name": "Vădeni", "lat": 45.36667, "lng": 27.93333, "population": 4173}, {"name": "Giubega", "lat": 44.1274, "lng": 23.40757, "population": 4166}, {"name": "Slobozia-Mândra", "lat": 43.91667, "lng": 24.7, "population": 4159}, {"name": "Strâmtura", "lat": 47.78333, "lng": 24.13333, "population": 4156}, {"name": "Dumbrăveni", "lat": 45.53333, "lng": 27.11667, "population": 4156}, {"name": "Brastavățu", "lat": 43.90634, "lng": 24.40784, "population": 4156}, {"name": "Mereni", "lat": 44.05, "lng": 28.36667, "population": 4155}, {"name": "Berceni", "lat": 44.31417, "lng": 26.18556, "population": 4154}, {"name": "Blejeşti", "lat": 44.3, "lng": 25.46667, "population": 4149}, {"name": "Ocna Şugatag", "lat": 47.78333, "lng": 23.93333, "population": 4147}, {"name": "Durneşti", "lat": 47.76667, "lng": 27.1, "population": 4144}, {"name": "Popeşti", "lat": 47.15, "lng": 27.23333, "population": 4143}, {"name": "Orbeni", "lat": 46.28333, "lng": 27.01667, "population": 4140}, {"name": "Ieud", "lat": 47.67796, "lng": 24.23399, "population": 4139}, {"name": "Fundu Moldovei", "lat": 47.53333, "lng": 25.4, "population": 4135}, {"name": "Corlăteni", "lat": 47.93333, "lng": 26.55, "population": 4127}, {"name": "Vânători", "lat": 45.53333, "lng": 28.01667, "population": 4126}, {"name": "Sălcioara", "lat": 44.71667, "lng": 25.58333, "population": 4125}, {"name": "Tomşani", "lat": 45.11667, "lng": 24.05, "population": 4123}, {"name": "Târgu Bujor", "lat": 45.86667, "lng": 27.9, "population": 4121}, {"name": "Petrești", "lat": 45.92102, "lng": 23.56083, "population": 4120}, {"name": "Sălard", "lat": 47.21667, "lng": 22.05, "population": 4109}, {"name": "Teremia Mare", "lat": 45.93528, "lng": 20.525, "population": 4108}, {"name": "Batoş", "lat": 46.88333, "lng": 24.66667, "population": 4107}, {"name": "Bărcăneşti", "lat": 46.71667, "lng": 26.58333, "population": 4105}, {"name": "Popeşti", "lat": 44.76667, "lng": 25.06667, "population": 4104}, {"name": "Satu Mare", "lat": 47.83333, "lng": 26.01667, "population": 4091}, {"name": "Jariştea", "lat": 45.78333, "lng": 27.06667, "population": 4088}, {"name": "Moara Vlăsiei", "lat": 44.6409, "lng": 26.20616, "population": 4080}, {"name": "Buturugeni", "lat": 44.36528, "lng": 25.83528, "population": 4078}, {"name": "Borod", "lat": 46.98333, "lng": 22.63333, "population": 4076}, {"name": "Sărmaş", "lat": 46.8802, "lng": 25.45462, "population": 4074}, {"name": "Găneasa", "lat": 44.41667, "lng": 24.28333, "population": 4074}, {"name": "Şimand", "lat": 46.43333, "lng": 21.45, "population": 4064}, {"name": "Miceşti", "lat": 44.95, "lng": 24.86667, "population": 4061}, {"name": "Dudeşti", "lat": 44.8866, "lng": 27.43464, "population": 4061}, {"name": "Galicea", "lat": 44.91667, "lng": 24.28333, "population": 4054}, {"name": "Braniştea", "lat": 45.45, "lng": 27.85, "population": 4052}, {"name": "Bălan", "lat": 47.15599, "lng": 23.31213, "population": 4050}, {"name": "Străoane", "lat": 45.93333, "lng": 27.05, "population": 4049}, {"name": "Sireţel", "lat": 47.4, "lng": 26.73333, "population": 4046}, {"name": "Hangu", "lat": 47.05, "lng": 26.03333, "population": 4046}, {"name": "Mogoşeşti-Siret", "lat": 47.13333, "lng": 26.78333, "population": 4044}, {"name": "Făurei", "lat": 45.08333, "lng": 27.26667, "population": 4043}, {"name": "Orţişoara", "lat": 45.96361, "lng": 21.19833, "population": 4042}, {"name": "Păuliş", "lat": 46.11667, "lng": 21.58333, "population": 4036}, {"name": "Berzovia", "lat": 45.42611, "lng": 21.62806, "population": 4031}, {"name": "Ceica", "lat": 46.85, "lng": 22.18333, "population": 4028}, {"name": "Ocna Sibiului", "lat": 45.88333, "lng": 24.05, "population": 4021}, {"name": "Nicolae Bălcescu", "lat": 47.56664, "lng": 26.89629, "population": 4020}, {"name": "Băceşti", "lat": 46.85, "lng": 27.23333, "population": 4017}, {"name": "Jina", "lat": 45.78333, "lng": 23.68333, "population": 4013}, {"name": "Gălbinaşi", "lat": 45.08333, "lng": 26.91667, "population": 4013}, {"name": "Urecheni", "lat": 47.16667, "lng": 26.51667, "population": 4007}, {"name": "Motoşeni", "lat": 46.33333, "lng": 27.38333, "population": 4007}, {"name": "Ineu", "lat": 47.08333, "lng": 22.11667, "population": 4007}, {"name": "Câmpurile de Jos", "lat": 46.01667, "lng": 26.78333, "population": 4007}, {"name": "Timişeşti", "lat": 47.23333, "lng": 26.55, "population": 4004}, {"name": "Brezniţa Ocol", "lat": 44.66667, "lng": 22.61833, "population": 4002}, {"name": "Urecheşti", "lat": 46.13333, "lng": 27.08333, "population": 3999}, {"name": "Ghioroc", "lat": 46.15, "lng": 21.58333, "population": 3998}, {"name": "Radomireşti", "lat": 44.11667, "lng": 24.68333, "population": 3995}, {"name": "Mărgineni", "lat": 46.9, "lng": 26.63333, "population": 3995}, {"name": "Cernăteşti", "lat": 45.26667, "lng": 26.76667, "population": 3982}, {"name": "Miercurea Sibiului", "lat": 45.88333, "lng": 23.8, "population": 3981}, {"name": "Bogdăneşti", "lat": 47.36667, "lng": 26.28333, "population": 3981}, {"name": "Şimian", "lat": 47.48333, "lng": 22.1, "population": 3977}, {"name": "Mitocu Dragomirnei", "lat": 47.73333, "lng": 26.25, "population": 3976}, {"name": "Valea Nucarilor", "lat": 45.03333, "lng": 28.93333, "population": 3968}, {"name": "Teişani", "lat": 45.23333, "lng": 25.98333, "population": 3968}, {"name": "Gherghiţa", "lat": 44.8, "lng": 26.26667, "population": 3968}, {"name": "Ilia", "lat": 45.93333, "lng": 22.65, "population": 3967}, {"name": "Călineşti", "lat": 44.08333, "lng": 25.23333, "population": 3964}, {"name": "Perieţi", "lat": 44.4, "lng": 24.55, "population": 3963}, {"name": "Cernat", "lat": 45.95, "lng": 26.03333, "population": 3963}, {"name": "Călăraşi", "lat": 47.60625, "lng": 27.26001, "population": 3962}, {"name": "Valea Mare", "lat": 44.46667, "lng": 24.43333, "population": 3961}, {"name": "Smârdan", "lat": 45.48333, "lng": 27.93333, "population": 3961}, {"name": "Axente Sever", "lat": 46.1, "lng": 24.21667, "population": 3960}, {"name": "Sânpaul", "lat": 46.45, "lng": 24.35, "population": 3959}, {"name": "Bucşani", "lat": 44.37611, "lng": 25.65528, "population": 3959}, {"name": "Işalniţa", "lat": 44.4, "lng": 23.73333, "population": 3955}, {"name": "Fundeni", "lat": 45.54123, "lng": 27.54056, "population": 3954}, {"name": "Bobota", "lat": 47.38333, "lng": 22.76667, "population": 3950}, {"name": "Cernişoara", "lat": 45.03333, "lng": 23.98333, "population": 3948}, {"name": "Victoria", "lat": 44.81667, "lng": 27.61667, "population": 3942}, {"name": "Culciu Mic", "lat": 47.76147, "lng": 23.03382, "population": 3941}, {"name": "Mera", "lat": 45.76667, "lng": 26.95, "population": 3938}, {"name": "Măgura", "lat": 46.56667, "lng": 26.85, "population": 3936}, {"name": "Iana", "lat": 46.38333, "lng": 27.55, "population": 3936}, {"name": "Bărcăneşti", "lat": 44.63333, "lng": 26.65, "population": 3936}, {"name": "Maşloc", "lat": 45.99806, "lng": 21.44972, "population": 3935}, {"name": "Surduc", "lat": 47.25, "lng": 23.35, "population": 3934}, {"name": "Lunca Banului", "lat": 46.595, "lng": 28.16833, "population": 3931}, {"name": "Poiana", "lat": 44.56667, "lng": 25.68333, "population": 3930}, {"name": "Iedera de Jos", "lat": 45.03333, "lng": 25.63333, "population": 3925}, {"name": "Bârnova", "lat": 47.06667, "lng": 27.61667, "population": 3925}, {"name": "Unirea", "lat": 46.40387, "lng": 23.81314, "population": 3924}, {"name": "Şelaru", "lat": 44.47667, "lng": 25.29997, "population": 3924}, {"name": "Satu Nou Calopăr", "lat": 44.16667, "lng": 23.76667, "population": 3917}, {"name": "Valea Ursului", "lat": 46.81667, "lng": 27.08333, "population": 3916}, {"name": "Moviliţa", "lat": 45.95, "lng": 27.1, "population": 3911}, {"name": "Rasova", "lat": 44.24616, "lng": 27.93466, "population": 3909}, {"name": "Sântandrei", "lat": 47.06615, "lng": 21.85352, "population": 3902}, {"name": "Ulmi", "lat": 44.9, "lng": 25.5, "population": 3899}, {"name": "Viişoara", "lat": 46.38333, "lng": 27.88333, "population": 3894}, {"name": "Butea", "lat": 47.06667, "lng": 26.91667, "population": 3893}, {"name": "Oinacu", "lat": 43.95, "lng": 26.01667, "population": 3892}, {"name": "Gohor", "lat": 46.06667, "lng": 27.4, "population": 3886}, {"name": "Bucovineni", "lat": 47.85, "lng": 26.33333, "population": 3885}, {"name": "Dăneşti", "lat": 44.96667, "lng": 23.33333, "population": 3879}, {"name": "Amărăştii de Sus", "lat": 43.98333, "lng": 24.15, "population": 3879}, {"name": "Şuşani", "lat": 44.58333, "lng": 24.1, "population": 3875}, {"name": "Breasta", "lat": 44.33333, "lng": 23.68333, "population": 3867}, {"name": "Solonţ", "lat": 46.55, "lng": 26.51667, "population": 3866}, {"name": "Cristineşti", "lat": 48.1, "lng": 26.38333, "population": 3866}, {"name": "Breţcu", "lat": 46.05, "lng": 26.3, "population": 3866}, {"name": "Albota de Jos", "lat": 44.76667, "lng": 24.83333, "population": 3866}, {"name": "Stoeneşti", "lat": 45.11667, "lng": 24.16667, "population": 3863}, {"name": "Independenţa", "lat": 44.28333, "lng": 27.15, "population": 3863}, {"name": "Soleşti", "lat": 46.76667, "lng": 27.78333, "population": 3862}, {"name": "Ciorăşti", "lat": 45.43333, "lng": 27.3, "population": 3861}, {"name": "Tunari", "lat": 44.55, "lng": 26.15, "population": 3859}, {"name": "Fărcăşeşti", "lat": 44.86667, "lng": 23.2, "population": 3857}, {"name": "Sânmartin", "lat": 47.00726, "lng": 21.97418, "population": 3856}, {"name": "Rediu", "lat": 45.71667, "lng": 27.83333, "population": 3855}, {"name": "Stăncuţa", "lat": 44.9, "lng": 27.83333, "population": 3852}, {"name": "Dealu", "lat": 46.4, "lng": 25.3, "population": 3850}, {"name": "Cristian", "lat": 45.61667, "lng": 25.46667, "population": 3849}, {"name": "Turia", "lat": 46.03333, "lng": 26.05, "population": 3846}, {"name": "Oţeleni", "lat": 47.08333, "lng": 27.03333, "population": 3841}, {"name": "Braloştiţa", "lat": 44.5, "lng": 23.51667, "population": 3840}, {"name": "Movileni", "lat": 44.36667, "lng": 24.65, "population": 3839}, {"name": "Bod", "lat": 45.76667, "lng": 25.65, "population": 3839}, {"name": "Parincea", "lat": 46.48333, "lng": 27.1, "population": 3836}, {"name": "Iacobeni", "lat": 47.43333, "lng": 25.31667, "population": 3836}, {"name": "Gura Teghii", "lat": 45.48333, "lng": 26.41667, "population": 3835}, {"name": "Ip", "lat": 47.23333, "lng": 22.65, "population": 3833}, {"name": "Şieu-Măgheruş", "lat": 47.08333, "lng": 24.38333, "population": 3830}, {"name": "Bujoreni", "lat": 45.14333, "lng": 24.359, "population": 3830}, {"name": "Dițești", "lat": 44.9799, "lng": 25.72655, "population": 3829}, {"name": "Muntenii de Jos", "lat": 46.61667, "lng": 27.76667, "population": 3826}, {"name": "Munteni Buzău", "lat": 44.63333, "lng": 26.98333, "population": 3824}, {"name": "Bechet", "lat": 43.78188, "lng": 23.95706, "population": 3824}, {"name": "Bazna", "lat": 46.2, "lng": 24.28333, "population": 3824}, {"name": "Colibaşi", "lat": 44.20222, "lng": 26.19472, "population": 3823}, {"name": "Dobrosloveni", "lat": 44.18333, "lng": 24.36667, "population": 3821}, {"name": "Fulga de Sus", "lat": 44.89769, "lng": 26.44831, "population": 3819}, {"name": "Cetariu", "lat": 47.13333, "lng": 22.01667, "population": 3819}, {"name": "Eremitu", "lat": 46.66667, "lng": 24.93333, "population": 3818}, {"name": "Izvoarele", "lat": 45.03333, "lng": 28.53333, "population": 3817}, {"name": "Dăneasa", "lat": 44.15, "lng": 24.56667, "population": 3816}, {"name": "Turulung", "lat": 47.93333, "lng": 23.08333, "population": 3815}, {"name": "Cartojani", "lat": 44.43221, "lng": 25.48994, "population": 3810}, {"name": "Şintereag", "lat": 47.18333, "lng": 24.3, "population": 3806}, {"name": "Mintiu Gherlii", "lat": 47.05, "lng": 23.95, "population": 3806}, {"name": "Dobra", "lat": 44.78333, "lng": 25.71667, "population": 3806}, {"name": "Ileana", "lat": 44.51667, "lng": 26.66667, "population": 3805}, {"name": "Coşteiu", "lat": 45.74111, "lng": 21.84917, "population": 3805}, {"name": "Bărbăteşti", "lat": 45.18333, "lng": 24.11667, "population": 3805}, {"name": "Mica", "lat": 47.13333, "lng": 23.93333, "population": 3799}, {"name": "Păstrăveni", "lat": 47.16667, "lng": 26.56667, "population": 3798}, {"name": "Şagu", "lat": 46.05, "lng": 21.28333, "population": 3797}, {"name": "Lupşanu", "lat": 44.38333, "lng": 26.9, "population": 3797}, {"name": "Frecăţei", "lat": 45.1, "lng": 28.66667, "population": 3797}, {"name": "Izvoarele", "lat": 44.26667, "lng": 24.51667, "population": 3792}, {"name": "Barcani", "lat": 45.7, "lng": 26.08333, "population": 3792}, {"name": "Chiojdu", "lat": 45.35, "lng": 26.2, "population": 3791}, {"name": "Budeasa Mică", "lat": 44.95, "lng": 24.85, "population": 3789}, {"name": "Corbeanca", "lat": 44.6, "lng": 26.05, "population": 3786}, {"name": "Voineşti", "lat": 46.56667, "lng": 27.41667, "population": 3785}, {"name": "Stolnici", "lat": 44.56667, "lng": 24.78333, "population": 3784}, {"name": "Perişani", "lat": 45.38333, "lng": 24.4, "population": 3781}, {"name": "Pildești", "lat": 46.99675, "lng": 26.82558, "population": 3779}, {"name": "Slivileşti", "lat": 44.78333, "lng": 23.13333, "population": 3778}, {"name": "Blideşti", "lat": 46.3, "lng": 23.13333, "population": 3776}, {"name": "Păuşeşti-Măglaşi", "lat": 45.13333, "lng": 24.25, "population": 3775}, {"name": "Găneşti", "lat": 46.33333, "lng": 24.35, "population": 3775}, {"name": "Vultureşti", "lat": 47.51667, "lng": 26.45, "population": 3771}, {"name": "Ghioca", "lat": 44.31667, "lng": 24.73333, "population": 3769}, {"name": "Roşieşti", "lat": 46.43333, "lng": 27.88333, "population": 3769}, {"name": "Lăpuş", "lat": 47.5, "lng": 24.01667, "population": 3769}, {"name": "Segarcea Vale", "lat": 43.81667, "lng": 24.8, "population": 3768}, {"name": "Măgura Ilvei", "lat": 47.38333, "lng": 24.8, "population": 3767}, {"name": "Lupşa", "lat": 46.36667, "lng": 23.2, "population": 3766}, {"name": "Feleacu", "lat": 46.71667, "lng": 23.61667, "population": 3764}, {"name": "Murighiol", "lat": 45.03333, "lng": 29.16667, "population": 3761}, {"name": "Glăvăneşti", "lat": 46.25, "lng": 27.38333, "population": 3760}, {"name": "Cerneşti", "lat": 47.51667, "lng": 23.75, "population": 3760}, {"name": "Măxineni", "lat": 45.4, "lng": 27.63333, "population": 3758}, {"name": "Hlipiceni", "lat": 47.6, "lng": 27.15, "population": 3756}, {"name": "Conţeşti", "lat": 43.8, "lng": 25.48333, "population": 3754}, {"name": "Bahnea", "lat": 46.36667, "lng": 24.48333, "population": 3754}, {"name": "Bărbulești", "lat": 44.72629, "lng": 26.59929, "population": 3753}, {"name": "Poiana", "lat": 45.24536, "lng": 25.66302, "population": 3750}, {"name": "Jilavele", "lat": 44.76667, "lng": 26.53333, "population": 3747}, {"name": "Grădinari", "lat": 44.39222, "lng": 25.81556, "population": 3738}, {"name": "Cujmir", "lat": 44.20667, "lng": 22.92667, "population": 3733}, {"name": "Piatra", "lat": 43.81667, "lng": 25.16667, "population": 3731}, {"name": "Ungureni", "lat": 46.51667, "lng": 26.95, "population": 3728}, {"name": "Aştileu", "lat": 47.03333, "lng": 22.38333, "population": 3728}, {"name": "Semlac", "lat": 46.11667, "lng": 20.93333, "population": 3727}, {"name": "Putna", "lat": 47.86667, "lng": 25.61667, "population": 3727}, {"name": "Cupşeni", "lat": 47.55, "lng": 23.93333, "population": 3727}, {"name": "Cocora", "lat": 44.73333, "lng": 27.05, "population": 3726}, {"name": "Zagra", "lat": 47.33333, "lng": 24.28333, "population": 3725}, {"name": "Săcel", "lat": 47.63333, "lng": 24.43333, "population": 3723}, {"name": "Mihăileşti", "lat": 44.91667, "lng": 26.66667, "population": 3719}, {"name": "Glodeni", "lat": 46.65, "lng": 24.6, "population": 3719}, {"name": "Lipniţa", "lat": 44.1, "lng": 27.6, "population": 3716}, {"name": "Fărcaşa", "lat": 47.58333, "lng": 23.33333, "population": 3716}, {"name": "Vădăstriţa", "lat": 43.85, "lng": 24.33333, "population": 3715}, {"name": "Palazu Mare", "lat": 44.22902, "lng": 28.60114, "population": 3714}, {"name": "Căteasca", "lat": 44.76667, "lng": 25.08333, "population": 3713}, {"name": "Caşin", "lat": 46.2, "lng": 26.75, "population": 3713}, {"name": "Bahna", "lat": 46.78333, "lng": 26.78333, "population": 3713}, {"name": "Micula", "lat": 47.9, "lng": 22.95, "population": 3707}, {"name": "Manoleasa", "lat": 47.98333, "lng": 27.06667, "population": 3705}, {"name": "Liebling", "lat": 45.5775, "lng": 21.32167, "population": 3705}, {"name": "Livezeni", "lat": 46.55, "lng": 24.63333, "population": 3704}, {"name": "Vânători", "lat": 46.23333, "lng": 24.93333, "population": 3702}, {"name": "Horodniceni", "lat": 47.53333, "lng": 26.16667, "population": 3699}, {"name": "Râciu", "lat": 46.68333, "lng": 24.4, "population": 3694}, {"name": "Plugari", "lat": 47.48333, "lng": 27.1, "population": 3694}, {"name": "Griviţa", "lat": 45.71667, "lng": 27.65, "population": 3694}, {"name": "Răpănaşu", "lat": 47.38333, "lng": 24.18333, "population": 3693}, {"name": "Pietroasele", "lat": 45.1, "lng": 26.56667, "population": 3690}, {"name": "Ion Roată", "lat": 44.66667, "lng": 26.76667, "population": 3689}, {"name": "Paltin", "lat": 45.78333, "lng": 26.71667, "population": 3687}, {"name": "Simoneşti", "lat": 46.33333, "lng": 25.1, "population": 3685}, {"name": "Probota", "lat": 47.38333, "lng": 27.5, "population": 3685}, {"name": "Hereclean", "lat": 47.25, "lng": 23.01667, "population": 3685},