[{"name": "Kigali", "lat": -1.94995, "lng": 30.05885, "population": 1132686}, {"name": "Gisenyi", "lat": -1.70278, "lng": 29.25639, "population": 172357}, {"name": "Musanze", "lat": -1.49984, "lng": 29.63497, "population": 153368}, {"name": "Nyagatare", "lat": -1.2952, "lng": 30.3226, "population": 100000}, {"name": "Gitarama", "lat": -2.07444, "lng": 29.75667, "population": 87613}, {"name": "Muhanga", "lat": -2.02269, "lng": 29.70691, "population": 82797}, {"name": "Butare", "lat": -2.59667, "lng": 29.73944, "population": 62823}, {"name": "Kibuye", "lat": -2.06028, "lng": 29.34778, "population": 48024}, {"name": "Rwamagana", "lat": -1.9487, "lng": 30.4347, "population": 47203}, {"name": "Kibungo", "lat": -2.1597, "lng": 30.5427, "population": 46240}, {"name": "Cyangugu", "lat": -2.4846, "lng": 28.9075, "population": 43866}, {"name": "Shyorongi", "lat": -1.85439, "lng": 29.96238, "population": 43744}, {"name": "Byumba", "lat": -1.5763, "lng": 30.0675, "population": 43134}, {"name": "Ndera", "lat": -1.9495, "lng": 30.1697, "population": 41764}, {"name": "Kirambo", "lat": -2.3155, "lng": 29.1415, "population": 40341}, {"name": "Kagano", "lat": -2.3429, "lng": 29.0912, "population": 39994}, {"name": "Ngororero", "lat": -1.8628, "lng": 29.62541, "population": 38823}, {"name": "Nzega", "lat": -2.479, "lng": 29.5564, "population": 33832}, {"name": "Macuba", "lat": -2.2933, "lng": 29.1877, "population": 33319}, {"name": "Karengera", "lat": -2.5169, "lng": 29.0326, "population": 32504}, {"name": "Nyanza", "lat": -2.35187, "lng": 29.75089, "population": 32016}, {"name": "Bugarama", "lat": -2.6924, "lng": 29.0077, "population": 31086}, {"name": "Gihombo", "lat": -2.21896, "lng": 29.2343, "population": 29843}, {"name": "Karambi", "lat": -2.31695, "lng": 29.24413, "population": 29726}, {"name": "Bushekeri", "lat": -2.4195, "lng": 29.0908, "population": 29680}, {"name": "Nyabitekeli", "lat": -2.3541, "lng": 29.0298, "population": 29293}, {"name": "Busogo", "lat": -1.5584, "lng": 29.5434, "population": 28264}, {"name": "Shangi", "lat": -2.4036, "lng": 29.0059, "population": 28064}, {"name": "Kayonza", "lat": -1.9509, "lng": 30.5205, "population": 27059}, {"name": "Cyato", "lat": -2.3871, "lng": 29.1929, "population": 26996}, {"name": "Kirimbi", "lat": -2.26469, "lng": 29.19644, "population": 25647}, {"name": "Gitesi", "lat": -2.1139, "lng": 29.4022, "population": 24859}, {"name": "Bushenge", "lat": -2.4421, "lng": 28.9824, "population": 22624}, {"name": "Nyamata", "lat": -2.20419, "lng": 30.14494, "population": 21509}, {"name": "Ruhango", "lat": -2.2246, "lng": 29.79088, "population": 21478}, {"name": "Gikongoro", "lat": -2.46397, "lng": 29.57389, "population": 21029}, {"name": "Mahembe", "lat": -2.2386, "lng": 29.2929, "population": 20043}, {"name": "Mukamira", "lat": -1.61112, "lng": 29.49687, "population": 19021}, {"name": "Mugina", "lat": -2.1057, "lng": 29.9417, "population": 18586}, {"name": "Umutara", "lat": -1.29547, "lng": 30.32297, "population": 18038}, {"name": "Rangiro", "lat": -2.4045, "lng": 29.1606, "population": 17967}, {"name": "Kamuhanda / Ruyenzi", "lat": -1.96571, "lng": 29.98462, "population": 16369}, {"name": "Bugaragara", "lat": -1.29289, "lng": 30.40766, "population": 15732}, {"name": "Mukingo", "lat": -1.5394, "lng": 29.5558, "population": 15695}, {"name": "Kora", "lat": -1.6101, "lng": 29.445, "population": 15134}, {"name": "Kinigi", "lat": -1.4426, "lng": 29.5902, "population": 14523}, {"name": "Mabanza", "lat": -2.0524, "lng": 29.4092, "population": 13139}, {"name": "Gahini", "lat": -1.8406, "lng": 30.4816, "population": 7917}, {"name": "Ruhuha", "lat": -2.30403, "lng": 30.05134, "population": 5842}, {"name": "Eglise Catholique, Centrale GIKO", "lat": -1.93653, "lng": 29.8061, "population": 3000}]