[{"name": "Stockholm", "lat": 59.32938, "lng": 18.06871, "population": 1515017}, {"name": "Göteborg", "lat": 57.70716, "lng": 11.96679, "population": 608462}, {"name": "Malmö", "lat": 55.60587, "lng": 13.00073, "population": 362133}, {"name": "Uppsala", "lat": 59.85882, "lng": 17.63889, "population": 177074}, {"name": "Linköping", "lat": 58.41086, "lng": 15.62157, "population": 166673}, {"name": "Örebro", "lat": 59.27412, "lng": 15.2066, "population": 155989}, {"name": "Sollentuna", "lat": 59.42804, "lng": 17.95093, "population": 139606}, {"name": "Umeå", "lat": 63.82842, "lng": 20.25972, "population": 130224}, {"name": "Västerås", "lat": 59.61617, "lng": 16.55276, "population": 127799}, {"name": "Södermalm", "lat": 59.31278, "lng": 18.07577, "population": 127323}, {"name": "Jönköping", "lat": 57.78145, "lng": 14.15618, "population": 112766}, {"name": "Helsingborg", "lat": 56.04673, "lng": 12.69437, "population": 104250}, {"name": "Norrköping", "lat": 58.59419, "lng": 16.1826, "population": 93765}, {"name": "Huddinge", "lat": 59.23705, "lng": 17.98192, "population": 90182}, {"name": "Lund", "lat": 55.70584, "lng": 13.19321, "population": 87244}, {"name": "Luleå", "lat": 65.58415, "lng": 22.15465, "population": 77832}, {"name": "Haninge", "lat": 59.16775, "lng": 18.14478, "population": 74968}, {"name": "Gävle", "lat": 60.67452, "lng": 17.14174, "population": 74884}, {"name": "Bromma", "lat": 59.34, "lng": 17.94, "population": 72000}, {"name": "Borås", "lat": 57.72101, "lng": 12.9401, "population": 71700}, {"name": "Växjö", "lat": 56.87767, "lng": 14.80906, "population": 71282}, {"name": "Södertälje", "lat": 59.19554, "lng": 17.62525, "population": 70777}, {"name": "Halmstad", "lat": 56.67446, "lng": 12.85676, "population": 70480}, {"name": "Kungsholmen", "lat": 59.33183, "lng": 18.04118, "population": 69363}, {"name": "Eskilstuna", "lat": 59.36661, "lng": 16.5077, "population": 67359}, {"name": "Solna", "lat": 59.36004, "lng": 18.00086, "population": 66909}, {"name": "Karlskrona", "lat": 56.16156, "lng": 15.58661, "population": 66675}, {"name": "Karlstad", "lat": 59.3793, "lng": 13.50357, "population": 61492}, {"name": "Mölndal", "lat": 57.6554, "lng": 12.01378, "population": 59430}, {"name": "Vasastaden", "lat": 59.35, "lng": 18.03333, "population": 58458}, {"name": "Täby", "lat": 59.4439, "lng": 18.06872, "population": 58123}, {"name": "Sundsvall", "lat": 62.39129, "lng": 17.3063, "population": 57606}, {"name": "Östersund", "lat": 63.1792, "lng": 14.63566, "population": 49806}, {"name": "Trollhättan", "lat": 58.28365, "lng": 12.28864, "population": 48573}, {"name": "Lidingö", "lat": 59.36667, "lng": 18.13333, "population": 42466}, {"name": "Borlänge", "lat": 60.4858, "lng": 15.43714, "population": 41955}, {"name": "Tumba", "lat": 59.19858, "lng": 17.83317, "population": 40832}, {"name": "Kristianstad", "lat": 56.03129, "lng": 14.15242, "population": 39762}, {"name": "Nyköping", "lat": 58.753, "lng": 17.00788, "population": 38780}, {"name": "Kalmar", "lat": 56.66157, "lng": 16.36163, "population": 38408}, {"name": "Falun", "lat": 60.60357, "lng": 15.62597, "population": 37291}, {"name": "Skövde", "lat": 58.39118, "lng": 13.84506, "population": 36842}, {"name": "Upplands Väsby", "lat": 59.51839, "lng": 17.91128, "population": 36534}, {"name": "Östermalm", "lat": 59.33879, "lng": 18.08487, "population": 36418}, {"name": "Skellefteå", "lat": 64.75067, "lng": 20.95279, "population": 35516}, {"name": "Uddevalla", "lat": 58.34784, "lng": 11.9424, "population": 34781}, {"name": "Sundbyberg", "lat": 59.36128, "lng": 17.97114, "population": 34529}, {"name": "Varberg", "lat": 57.10557, "lng": 12.25078, "population": 34248}, {"name": "Åkersberga", "lat": 59.47944, "lng": 18.29967, "population": 32659}, {"name": "Örnsköldsvik", "lat": 63.29091, "lng": 18.71525, "population": 32493}, {"name": "Danderyd", "lat": 59.40398, "lng": 18.02376, "population": 32425}, {"name": "Landskrona", "lat": 55.8708, "lng": 12.83016, "population": 32229}, {"name": "Vallentuna", "lat": 59.53436, "lng": 18.07758, "population": 31937}, {"name": "Motala", "lat": 58.53706, "lng": 15.03649, "population": 30944}, {"name": "Trelleborg", "lat": 55.37514, "lng": 13.15691, "population": 29316}, {"name": "Majorna", "lat": 57.69195, "lng": 11.91605, "population": 29254}, {"name": "Partille", "lat": 57.7395, "lng": 12.10642, "population": 28648}, {"name": "Karlskoga", "lat": 59.32667, "lng": 14.52386, "population": 27490}, {"name": "Märsta", "lat": 59.62157, "lng": 17.85476, "population": 27034}, {"name": "Lerum", "lat": 57.77051, "lng": 12.26904, "population": 26913}, {"name": "Alingsås", "lat": 57.93033, "lng": 12.53345, "population": 26329}, {"name": "Nacka", "lat": 59.31053, "lng": 18.16372, "population": 25170}, {"name": "Härnösand", "lat": 62.63228, "lng": 17.93794, "population": 25012}, {"name": "Sandviken", "lat": 60.61667, "lng": 16.76667, "population": 24724}, {"name": "Kungälv", "lat": 57.87096, "lng": 11.98054, "population": 24101}, {"name": "Falkenberg", "lat": 56.90552, "lng": 12.49118, "population": 24099}, {"name": "Boo", "lat": 59.33333, "lng": 18.28333, "population": 24052}, {"name": "Jakobsberg", "lat": 59.42268, "lng": 17.83508, "population": 24046}, {"name": "Visby", "lat": 57.64089, "lng": 18.29602, "population": 23402}, {"name": "Katrineholm", "lat": 58.99587, "lng": 16.20721, "population": 23283}, {"name": "Ängelholm", "lat": 56.2428, "lng": 12.86219, "population": 23240}, {"name": "Vänersborg", "lat": 58.38075, "lng": 12.3234, "population": 23119}, {"name": "Björlanda", "lat": 57.76667, "lng": 11.83333, "population": 23088}, {"name": "Piteå", "lat": 65.31717, "lng": 21.47944, "population": 23067}, {"name": "Lidköping", "lat": 58.50517, "lng": 13.15765, "population": 22988}, {"name": "Enköping", "lat": 59.63607, "lng": 17.07768, "population": 22553}, {"name": "Huskvarna", "lat": 57.78596, "lng": 14.30214, "population": 21500}, {"name": "Västervik", "lat": 57.7584, "lng": 16.63733, "population": 21178}, {"name": "Gustavsberg", "lat": 59.32684, "lng": 18.38975, "population": 20774}, {"name": "Karlshamn", "lat": 56.1706, "lng": 14.86188, "population": 20112}, {"name": "Norrtälje", "lat": 59.75799, "lng": 18.70496, "population": 19365}, {"name": "Rinkeby", "lat": 59.38708, "lng": 17.92754, "population": 19349}, {"name": "Hässleholm", "lat": 56.15905, "lng": 13.76638, "population": 19309}, {"name": "Värnamo", "lat": 57.18604, "lng": 14.04001, "population": 19061}, {"name": "Hässelby Villastad", "lat": 59.38, "lng": 17.80867, "population": 19000}, {"name": "Ystad", "lat": 55.42966, "lng": 13.82041, "population": 18806}, {"name": "Kungsbacka", "lat": 57.48719, "lng": 12.07612, "population": 18698}, {"name": "Eslöv", "lat": 55.83928, "lng": 13.30393, "population": 18592}, {"name": "Kristinehamn", "lat": 59.30978, "lng": 14.10808, "population": 18557}, {"name": "Köping", "lat": 59.51404, "lng": 15.99255, "population": 18355}, {"name": "Oskarshamn", "lat": 57.26455, "lng": 16.44837, "population": 18287}, {"name": "Gamla Uppsala", "lat": 59.89817, "lng": 17.63386, "population": 17973}, {"name": "Nässjö", "lat": 57.65307, "lng": 14.69676, "population": 17719}, {"name": "Mölnlycke", "lat": 57.65893, "lng": 12.11792, "population": 17579}, {"name": "Falköping", "lat": 58.17347, "lng": 13.55068, "population": 17170}, {"name": "Tensta", "lat": 59.3939, "lng": 17.90111, "population": 17083}, {"name": "Kiruna", "lat": 67.85572, "lng": 20.22513, "population": 17037}, {"name": "Råsunda", "lat": 59.36588, "lng": 17.99569, "population": 16877}, {"name": "Boden", "lat": 65.82518, "lng": 21.68864, "population": 16830}, {"name": "Årsta", "lat": 59.2978, "lng": 18.0514, "population": 16807}, {"name": "Kumla", "lat": 59.1277, "lng": 15.14341, "population": 16663}, {"name": "Mariestad", "lat": 58.70971, "lng": 13.82367, "population": 16122}, {"name": "Hudiksvall", "lat": 61.72744, "lng": 17.10558, "population": 16081}, {"name": "Tullinge", "lat": 59.2, "lng": 17.9, "population": 16000}, {"name": "Västra Frölunda", "lat": 57.64667, "lng": 11.92944, "population": 15924}, {"name": "Ljungby", "lat": 56.83324, "lng": 13.94082, "population": 15785}, {"name": "Staffanstorp", "lat": 55.64277, "lng": 13.20638, "population": 15373}, {"name": "Ludvika", "lat": 60.14959, "lng": 15.18776, "population": 15245}, {"name": "Kinna", "lat": 57.50728, "lng": 12.69463, "population": 15019}, {"name": "Höllviken", "lat": 55.40982, "lng": 12.9558, "population": 14889}, {"name": "Billdal", "lat": 57.56667, "lng": 11.93333, "population": 14874}, {"name": "Höganäs", "lat": 56.19971, "lng": 12.55795, "population": 14778}, {"name": "Tranås", "lat": 58.03717, "lng": 14.9782, "population": 14550}, {"name": "Nynäshamn", "lat": 58.90337, "lng": 17.94793, "population": 14532}, {"name": "Arvika", "lat": 59.65528, "lng": 12.58518, "population": 13926}, {"name": "Bollnäs", "lat": 61.34817, "lng": 16.39464, "population": 13716}, {"name": "Strängnäs", "lat": 59.37741, "lng": 17.03119, "population": 13693}, {"name": "Skoghall", "lat": 59.32324, "lng": 13.46552, "population": 13605}, {"name": "Vetlanda", "lat": 57.42887, "lng": 15.07762, "population": 13430}, {"name": "Bålsta", "lat": 59.5671, "lng": 17.52781, "population": 13138}, {"name": "Stenungsund", "lat": 58.07046, "lng": 11.8181, "population": 13093}, {"name": "Sala", "lat": 59.91993, "lng": 16.60655, "population": 13087}, {"name": "Bunkeflostrand", "lat": 55.54478, "lng": 12.92375, "population": 13048}, {"name": "Nybro", "lat": 56.74461, "lng": 15.90714, "population": 13039}, {"name": "Mjölby", "lat": 58.32595, "lng": 15.12365, "population": 12858}, {"name": "Finspång", "lat": 58.70578, "lng": 15.76739, "population": 12807}, {"name": "Oxie", "lat": 55.54014, "lng": 13.09605, "population": 12665}, {"name": "Ronneby", "lat": 56.20999, "lng": 15.27602, "population": 12612}, {"name": "Mora", "lat": 61.00704, "lng": 14.54316, "population": 12602}, {"name": "Lomma", "lat": 55.67244, "lng": 13.06849, "population": 12368}, {"name": "Onsala", "lat": 57.42531, "lng": 12.02903, "population": 12275}, {"name": "Söderhamn", "lat": 61.30373, "lng": 17.05921, "population": 12259}, {"name": "Höör", "lat": 55.93444, "lng": 13.5385, "population": 12152}, {"name": "Avesta", "lat": 60.14274, "lng": 16.16295, "population": 11949}, {"name": "Fagersta", "lat": 60.00418, "lng": 15.79316, "population": 11936}, {"name": "Svedala", "lat": 55.50788, "lng": 13.23515, "population": 11796}, {"name": "Handen", "lat": 59.16809, "lng": 18.13796, "population": 11524}, {"name": "Ekerö", "lat": 59.291, "lng": 17.81212, "population": 11505}, {"name": "Skara", "lat": 58.38659, "lng": 13.43836, "population": 11437}, {"name": "Alby", "lat": 59.2335, "lng": 17.8538, "population": 11400}, {"name": "Oxelösund", "lat": 58.67057, "lng": 17.10152, "population": 11157}, {"name": "Lindome", "lat": 57.56667, "lng": 12.08333, "population": 10942}, {"name": "Arboga", "lat": 59.39387, "lng": 15.83882, "population": 10841}, {"name": "Hallstahammar", "lat": 59.61395, "lng": 16.22846, "population": 10787}, {"name": "Jordbro", "lat": 59.14972, "lng": 18.11667, "population": 10757}, {"name": "Ulricehamn", "lat": 57.79159, "lng": 13.41422, "population": 10629}, {"name": "Bjuv", "lat": 56.08372, "lng": 12.91914, "population": 10602}, {"name": "Segeltorp", "lat": 59.27597, "lng": 17.93072, "population": 10536}, {"name": "Timrå", "lat": 62.48654, "lng": 17.32613, "population": 10495}, {"name": "Gällivare", "lat": 67.13387, "lng": 20.65278, "population": 10362}, {"name": "Kista", "lat": 59.40316, "lng": 17.94479, "population": 10254}, {"name": "Gislaved", "lat": 57.3044, "lng": 13.54078, "population": 10180}, {"name": "Eksjö", "lat": 57.66643, "lng": 14.97205, "population": 10157}, {"name": "Kungsängen", "lat": 59.47857, "lng": 17.74834, "population": 10151}, {"name": "Torslanda", "lat": 57.72432, "lng": 11.77013, "population": 10129}, {"name": "Vårby", "lat": 59.26671, "lng": 17.88407, "population": 10115}, {"name": "Bjärred", "lat": 55.71667, "lng": 13.01667, "population": 9844}, {"name": "Åhus", "lat": 55.91667, "lng": 14.28333, "population": 9840}, {"name": "Sävja", "lat": 59.81872, "lng": 17.69958, "population": 9723}, {"name": "Lindesberg", "lat": 59.59202, "lng": 15.2304, "population": 9571}, {"name": "Älmhult", "lat": 56.55146, "lng": 14.13827, "population": 9495}, {"name": "Saltsjöbaden", "lat": 59.28333, "lng": 18.3, "population": 9477}, {"name": "Åmål", "lat": 59.051, "lng": 12.70492, "population": 9373}, {"name": "Kävlinge", "lat": 55.79188, "lng": 13.11021, "population": 9320}, {"name": "Älta", "lat": 59.26667, "lng": 18.18333, "population": 9274}, {"name": "Åstorp", "lat": 56.13566, "lng": 12.9443, "population": 9215}, {"name": "Säffle", "lat": 59.13229, "lng": 12.92888, "population": 9150}, {"name": "Arlöv", "lat": 55.63248, "lng": 13.07141, "population": 9108}, {"name": "Sigtuna", "lat": 59.61731, "lng": 17.72361, "population": 9074}, {"name": "Sölvesborg", "lat": 56.05205, "lng": 14.57525, "population": 8972}, {"name": "Torshälla", "lat": 59.41667, "lng": 16.46667, "population": 8928}, {"name": "Djursholm", "lat": 59.39926, "lng": 18.05619, "population": 8856}, {"name": "Landvetter", "lat": 57.68665, "lng": 12.21169, "population": 8839}, {"name": "Kvissleby", "lat": 62.29361, "lng": 17.375, "population": 8785}, {"name": "Alvesta", "lat": 56.89935, "lng": 14.55559, "population": 8627}, {"name": "Lycksele", "lat": 64.59537, "lng": 18.67351, "population": 8545}, {"name": "Bankeryd", "lat": 57.86021, "lng": 14.124, "population": 8506}, {"name": "Klippan", "lat": 56.13559, "lng": 13.13086, "population": 8411}, {"name": "Tibro", "lat": 58.42453, "lng": 14.16162, "population": 8396}, {"name": "Bro", "lat": 59.51667, "lng": 17.63333, "population": 8266}, {"name": "Tidaholm", "lat": 58.18035, "lng": 13.95824, "population": 8175}, {"name": "Akalla", "lat": 59.41465, "lng": 17.91398, "population": 8153}, {"name": "Hallsberg", "lat": 59.06463, "lng": 15.10993, "population": 8146}, {"name": "Fisksätra", "lat": 59.29153, "lng": 18.2549, "population": 8117}, {"name": "Skurup", "lat": 55.47839, "lng": 13.50186, "population": 8040}, {"name": "Vimmerby", "lat": 57.66588, "lng": 15.85515, "population": 8037}, {"name": "Gårdsten", "lat": 57.8048, "lng": 12.02883, "population": 8025}, {"name": "Brevik", "lat": 59.35, "lng": 18.2, "population": 8024}, {"name": "Knivsta", "lat": 59.72564, "lng": 17.78753, "population": 7977}, {"name": "Hammarkullen", "lat": 57.78049, "lng": 12.03604, "population": 7914}, {"name": "Sjöbo", "lat": 55.63135, "lng": 13.70622, "population": 7910}, {"name": "Bromölla", "lat": 56.07551, "lng": 14.46958, "population": 7854}, {"name": "Habo", "lat": 57.91185, "lng": 14.07444, "population": 7740}, {"name": "Lysekil", "lat": 58.27429, "lng": 11.43576, "population": 7734}, {"name": "Kil", "lat": 59.50234, "lng": 13.31277, "population": 7627}, {"name": "Osby", "lat": 56.38165, "lng": 13.99364, "population": 7554}, {"name": "Olofström", "lat": 56.2773, "lng": 14.53402, "population": 7526}, {"name": "Fittja", "lat": 59.24868, "lng": 17.85991, "population": 7500}, {"name": "Kalix", "lat": 65.85298, "lng": 23.15645, "population": 7495}, {"name": "Mariastaden", "lat": 56.08492, "lng": 12.69445, "population": 7487}, {"name": "Hörby", "lat": 55.85238, "lng": 13.66094, "population": 7459}, {"name": "Söderköping", "lat": 58.48057, "lng": 16.32221, "population": 7418}, {"name": "Sollefteå", "lat": 63.16667, "lng": 17.26667, "population": 7399}, {"name": "Hedemora", "lat": 60.27973, "lng": 15.98855, "population": 7371}, {"name": "Nykvarn", "lat": 59.17718, "lng": 17.4323, "population": 7327}, {"name": "Bergshamra", "lat": 59.38083, "lng": 18.03427, "population": 7300}, {"name": "Ljusdal", "lat": 61.82883, "lng": 16.09126, "population": 7259}, {"name": "Degerfors", "lat": 59.23797, "lng": 14.43077, "population": 7190}, {"name": "Strömstad", "lat": 58.93945, "lng": 11.1712, "population": 7176}, {"name": "Valbo", "lat": 60.65, "lng": 17.03333, "population": 7147}, {"name": "Lövgärdet", "lat": 57.81555, "lng": 12.03861, "population": 7113}, {"name": "Skanör med Falsterbo", "lat": 55.4, "lng": 12.85, "population": 7077}, {"name": "Åtvidaberg", "lat": 58.20152, "lng": 15.9977, "population": 7014}, {"name": "Åby", "lat": 58.66667, "lng": 16.18333, "population": 6917}, {"name": "Tomelilla", "lat": 55.54293, "lng": 13.9546, "population": 6826}, {"name": "Kållered", "lat": 57.60992, "lng": 12.05106, "population": 6784}, {"name": "Simrishamn", "lat": 55.55653, "lng": 14.35037, "population": 6779}, {"name": "Ljungsbro", "lat": 58.51667, "lng": 15.5, "population": 6763}, {"name": "Haparanda", "lat": 65.83549, "lng": 24.13676, "population": 6679}, {"name": "Nora", "lat": 59.51926, "lng": 15.03979, "population": 6597}, {"name": "Flen", "lat": 59.05834, "lng": 16.58781, "population": 6594}, {"name": "Kramfors", "lat": 62.93161, "lng": 17.77646, "population": 6582}, {"name": "Or", "lat": 59.37462, "lng": 17.97724, "population": 6550}, {"name": "Laholm", "lat": 56.51207, "lng": 13.04371, "population": 6527}, {"name": "Vellinge", "lat": 55.47124, "lng": 13.01971, "population": 6496}, {"name": "Löddeköpinge", "lat": 55.76667, "lng": 13.01667, "population": 6481}, {"name": "Forshaga", "lat": 59.52541, "lng": 13.48127, "population": 6361}, {"name": "Storvreta", "lat": 59.95933, "lng": 17.70588, "population": 6340}, {"name": "Södra Sandby", "lat": 55.71677, "lng": 13.34659, "population": 6306}, {"name": "Dalby", "lat": 55.66655, "lng": 13.34976, "population": 6302}, {"name": "Skutskär", "lat": 60.62507, "lng": 17.41552, "population": 6279}, {"name": "Surahammar", "lat": 59.70725, "lng": 16.22188, "population": 6270}, {"name": "Hjo", "lat": 58.30133, "lng": 14.28784, "population": 6203}, {"name": "Filipstad", "lat": 59.71236, "lng": 14.16831, "population": 6119}, {"name": "Leksand", "lat": 60.7303, "lng": 14.99994, "population": 6107}, {"name": "Hofors", "lat": 60.54573, "lng": 16.28668, "population": 6090}, {"name": "Åsa", "lat": 57.35, "lng": 12.11667, "population": 6084}, {"name": "Järna", "lat": 59.09165, "lng": 17.56615, "population": 6038}, {"name": "Nykvarn", "lat": 59.8, "lng": 18.3, "population": 6032}, {"name": "Gråbo", "lat": 57.83625, "lng": 12.29954, "population": 6021}, {"name": "Malmberget", "lat": 67.17529, "lng": 20.65495, "population": 6017}, {"name": "Surte", "lat": 57.82533, "lng": 12.01604, "population": 6003}, {"name": "Holmsund", "lat": 63.70602, "lng": 20.36409, "population": 5962}, {"name": "Åkarp", "lat": 55.65396, "lng": 13.11107, "population": 5959}, {"name": "Södra Sandby", "lat": 56.56667, "lng": 16.61667, "population": 5941}, {"name": "Rydebäck", "lat": 55.96667, "lng": 12.76667, "population": 5904}, {"name": "Kungsör", "lat": 59.42245, "lng": 16.09656, "population": 5885}, {"name": "Perstorp", "lat": 56.13829, "lng": 13.39476, "population": 5847}, {"name": "Vi", "lat": 62.43333, "lng": 17.41667, "population": 5841}, {"name": "Trosa", "lat": 58.89621, "lng": 17.54812, "population": 5836}, {"name": "Tierp", "lat": 60.34269, "lng": 17.51812, "population": 5826}, {"name": "Gnesta", "lat": 59.04751, "lng": 17.31191, "population": 5772}, {"name": "Lindsdal", "lat": 56.73333, "lng": 16.3, "population": 5709}, {"name": "Vadstena", "lat": 58.44863, "lng": 14.88969, "population": 5674}, {"name": "Färjestaden", "lat": 56.6499, "lng": 16.46859, "population": 5645}, {"name": "Viken", "lat": 56.15063, "lng": 12.57429, "population": 5610}, {"name": "Mullsjö", "lat": 57.9171, "lng": 13.87831, "population": 5584}, {"name": "Hultsfred", "lat": 57.48815, "lng": 15.84357, "population": 5510}, {"name": "Skåre", "lat": 59.43333, "lng": 13.43333, "population": 5444}, {"name": "Fristad", "lat": 57.82483, "lng": 13.01064, "population": 5409}, {"name": "Åkarp", "lat": 58.23333, "lng": 13.65, "population": 5393}, {"name": "Vårgårda", "lat": 58.03706, "lng": 12.80907, "population": 5384}, {"name": "Sävsjö", "lat": 57.40327, "lng": 14.66244, "population": 5374}, {"name": "Orsa", "lat": 61.12034, "lng": 14.6155, "population": 5349}, {"name": "Hönö", "lat": 57.68972, "lng": 11.64972, "population": 5293}, {"name": "Smedjebacken", "lat": 60.14181, "lng": 15.41416, "population": 5258}, {"name": "Ödåkra", "lat": 56.10412, "lng": 12.7477, "population": 5231}, {"name": "Örkelljunga", "lat": 56.28338, "lng": 13.27773, "population": 5193}, {"name": "Skåre", "lat": 55.38333, "lng": 13.05, "population": 5173}, {"name": "Rättvik", "lat": 60.88632, "lng": 15.11787, "population": 5160}, {"name": "Båstad", "lat": 56.42689, "lng": 12.85339, "population": 5146}, {"name": "Vaggeryd", "lat": 57.49807, "lng": 14.14842, "population": 5122}, {"name": "Anderstorp", "lat": 57.28333, "lng": 13.63333, "population": 5076}, {"name": "Malmslätt", "lat": 58.41102, "lng": 15.51647, "population": 5074}, {"name": "Krokek", "lat": 58.67231, "lng": 16.36741, "population": 5053}, {"name": "Grums", "lat": 59.35141, "lng": 13.11105, "population": 5040}, {"name": "Götene", "lat": 58.52824, "lng": 13.49458, "population": 5027}, {"name": "Sunne", "lat": 59.83764, "lng": 13.14302, "population": 5026}, {"name": "Enebyberg", "lat": 59.43333, "lng": 18.05, "population": 5000}, {"name": "Mönsterås", "lat": 57.04134, "lng": 16.44463, "population": 4998}, {"name": "Anderstorp", "lat": 58.88333, "lng": 14.28333, "population": 4987}, {"name": "Vargön", "lat": 58.35599, "lng": 12.3906, "population": 4981}, {"name": "Älvsbyn", "lat": 65.67624, "lng": 21.00162, "population": 4976}, {"name": "Malung", "lat": 60.68329, "lng": 13.71542, "population": 4927}, {"name": "Gammelstad", "lat": 65.63931, "lng": 22.01145, "population": 4892}, {"name": "Rimbo", "lat": 59.75, "lng": 18.36667, "population": 4882}, {"name": "Hagfors", "lat": 60.02378, "lng": 13.67214, "population": 4869}, {"name": "Veberöd", "lat": 55.63333, "lng": 13.48333, "population": 4850}, {"name": "Vaxholm", "lat": 59.40225, "lng": 18.35317, "population": 4849}, {"name": "Emmaboda", "lat": 56.63268, "lng": 15.53648, "population": 4818}, {"name": "Lindö", "lat": 58.61667, "lng": 16.25, "population": 4763}, {"name": "Älvängen", "lat": 57.95872, "lng": 12.1235, "population": 4759}, {"name": "Vi", "lat": 62.3, "lng": 17.16667, "population": 4757}, {"name": "Hjärup", "lat": 55.6688, "lng": 13.13931, "population": 4744}, {"name": "Östhammar", "lat": 60.25909, "lng": 18.37408, "population": 4726}, {"name": "Tyringe", "lat": 56.16037, "lng": 13.59811, "population": 4712}, {"name": "Markaryd", "lat": 56.46135, "lng": 13.59644, "population": 4664}, {"name": "Kallinge", "lat": 56.24841, "lng": 15.28721, "population": 4664}, {"name": "Arvidsjaur", "lat": 65.59033, "lng": 19.16682, "population": 4655}, {"name": "Norberg", "lat": 60.06505, "lng": 15.92366, "population": 4653}, {"name": "Töreboda", "lat": 58.70739, "lng": 14.12597, "population": 4626}, {"name": "Säter", "lat": 60.34778, "lng": 15.75051, "population": 4613}, {"name": "Hemmesta", "lat": 59.32273, "lng": 18.48675, "population": 4577}, {"name": "Smålandsstenar", "lat": 57.16241, "lng": 13.41212, "population": 4564}, {"name": "Vingåker", "lat": 59.0433, "lng": 15.87374, "population": 4548}, {"name": "Hittarp", "lat": 56.1, "lng": 12.63333, "population": 4545}, {"name": "Hallstavik", "lat": 60.05, "lng": 18.6, "population": 4536}, {"name": "Gnosjö", "lat": 57.3585, "lng": 13.73686, "population": 4528}, {"name": "Taberg", "lat": 57.67722, "lng": 14.08876, "population": 4486}, {"name": "Hällefors", "lat": 59.78388, "lng": 14.52197, "population": 4449}, {"name": "Torsby", "lat": 60.13527, "lng": 13.0082, "population": 4419}, {"name": "Öjersjö", "lat": 57.69882, "lng": 12.13448, "population": 4394}, {"name": "Björkskatan", "lat": 65.61373, "lng": 22.17702, "population": 4388}, {"name": "Vännäs", "lat": 63.90676, "lng": 19.75712, "population": 4373}, {"name": "Rannebergen", "lat": 57.80236, "lng": 12.07131, "population": 4364}, {"name": "Furulund", "lat": 55.7738, "lng": 13.09022, "population": 4359}, {"name": "Borgholm", "lat": 56.8793, "lng": 16.65634, "population": 4344}, {"name": "Sålanda", "lat": 57.98333, "lng": 12.21667, "population": 4240}, {"name": "Edsbyn", "lat": 61.37692, "lng": 15.81747, "population": 4179}, {"name": "Oskarström", "lat": 56.8, "lng": 12.96667, "population": 4172}, {"name": "Arnö", "lat": 58.72675, "lng": 17.02322, "population": 4124}, {"name": "Krylbo", "lat": 60.13333, "lng": 16.21667, "population": 4072}, {"name": "Vara", "lat": 58.26234, "lng": 12.95413, "population": 4052}, {"name": "Skärblacka", "lat": 58.56667, "lng": 15.9, "population": 4023}, {"name": "Askersund", "lat": 58.87988, "lng": 14.9023, "population": 3997}, {"name": "Hyltebruk", "lat": 56.99892, "lng": 13.23958, "population": 3992}, {"name": "Vinslöv", "lat": 56.1, "lng": 13.91667, "population": 3989}, {"name": "Herrljunga", "lat": 58.07739, "lng": 13.02662, "population": 3982}, {"name": "Skillingaryd", "lat": 57.43044, "lng": 14.09383, "population": 3965}, {"name": "Brunna", "lat": 59.51667, "lng": 17.75, "population": 3948}, {"name": "Vallda", "lat": 57.4775, "lng": 12.00139, "population": 3929}, {"name": "Arnö", "lat": 60.11667, "lng": 18.63333, "population": 3925}, {"name": "Brunflo", "lat": 63.07586, "lng": 14.83203, "population": 3916}, {"name": "Ursviken", "lat": 64.71261, "lng": 21.1658, "population": 3913}, {"name": "Mariefred", "lat": 59.25963, "lng": 17.223, "population": 3911}, {"name": "Munkedal", "lat": 58.46634, "lng": 11.67345, "population": 3910}, {"name": "Mörrum", "lat": 56.19281, "lng": 14.74739, "population": 3903}, {"name": "Furulund", "lat": 57.71667, "lng": 12.13333, "population": 3888}, {"name": "Bollebygd", "lat": 57.66866, "lng": 12.57272, "population": 3870}, {"name": "Ösmo", "lat": 58.98333, "lng": 17.9, "population": 3866}, {"name": "Brunna", "lat": 60.26255, "lng": 16.01034, "population": 3861}, {"name": "Svalöv", "lat": 55.9134, "lng": 13.10762, "population": 3852}, {"name": "Hittarp", "lat": 56.28333, "lng": 14.11667, "population": 3837}, {"name": "Alsike", "lat": 59.75324, "lng": 17.77331, "population": 3833}, {"name": "Hofterup", "lat": 55.80485, "lng": 12.9797, "population": 3814}, {"name": "Mellerud", "lat": 58.69979, "lng": 12.45312, "population": 3797}, {"name": "Mantorp", "lat": 58.35, "lng": 15.28333, "population": 3781}, {"name": "Kisa", "lat": 57.98781, "lng": 15.63303, "population": 3776}, {"name": "Lilla Edet", "lat": 58.13333, "lng": 12.13333, "population": 3772}, {"name": "Hjuvik", "lat": 57.70167, "lng": 11.71639, "population": 3754}, {"name": "Viken", "lat": 64.72587, "lng": 20.91548, "population": 3753}, {"name": "Olofstorp", "lat": 57.80444, "lng": 12.17131, "population": 3746}, {"name": "Bara", "lat": 55.58155, "lng": 13.17862, "population": 3743}, {"name": "Viskafors", "lat": 57.62941, "lng": 12.8489, "population": 3701}, {"name": "Strömsund", "lat": 63.85206, "lng": 15.55583, "population": 3690}, {"name": "Ljungskile", "lat": 58.22452, "lng": 11.92014, "population": 3689}, {"name": "Kungshamn", "lat": 58.36305, "lng": 11.25938, "population": 3657}, {"name": "Skultorp", "lat": 58.35, "lng": 13.83333, "population": 3644}, {"name": "Karlsborg", "lat": 58.53724, "lng": 14.5047, "population": 3624}, {"name": "Smedby", "lat": 56.67413, "lng": 16.2432, "population": 3607}, {"name": "Dalsjöfors", "lat": 57.71667, "lng": 13.08333, "population": 3606}, {"name": "Bergnäset", "lat": 65.57791, "lng": 22.10844, "population": 3604}, {"name": "Svenljunga", "lat": 57.49551, "lng": 13.11078, "population": 3592}, {"name": "Stenhamra", "lat": 59.3344, "lng": 17.68842, "population": 3588}, {"name": "Vilhelmina", "lat": 64.62417, "lng": 16.65596, "population": 3572}, {"name": "Öckerö", "lat": 57.70814, "lng": 11.65585, "population": 3568}, {"name": "Åre", "lat": 63.39911, "lng": 13.07995, "population": 3552}, {"name": "Smedby", "lat": 60.7, "lng": 15.05, "population": 3530}, {"name": "Rödeby", "lat": 56.26078, "lng": 15.62143, "population": 3508}, {"name": "Aneby", "lat": 57.83895, "lng": 14.81016, "population": 3496}, {"name": "Skärhamn", "lat": 57.98665, "lng": 11.55742, "population": 3495}, {"name": "Matfors", "lat": 62.34864, "lng": 17.03173, "population": 3437}, {"name": "Tygelsjö", "lat": 55.51667, "lng": 13.0, "population": 3420}, {"name": "Iggesund", "lat": 61.64219, "lng": 17.07477, "population": 3419}, {"name": "Mellbystrand", "lat": 56.48561, "lng": 12.93958, "population": 3412}, {"name": "Tollarp", "lat": 55.93333, "lng": 13.98333, "population": 3404}, {"name": "Vagnhärad", "lat": 58.94587, "lng": 17.48757, "population": 3397}, {"name": "Skultuna", "lat": 59.71667, "lng": 16.41667, "population": 3378}, {"name": "Kummelnäs", "lat": 59.35, "lng": 18.28333, "population": 3360}, {"name": "Skänninge", "lat": 58.39427, "lng": 15.08659, "population": 3358}, {"name": "Svärtinge", "lat": 58.65507, "lng": 16.02823, "population": 3326}, {"name": "Hällbybrunn", "lat": 59.39152, "lng": 16.42229, "population": 3323}, {"name": "Tallboda", "lat": 58.42521, "lng": 15.68154, "population": 3311}, {"name": "Hammar", "lat": 56.01667, "lng": 14.21667, "population": 3311}, {"name": "Årjäng", "lat": 59.39217, "lng": 12.13336, "population": 3302}, {"name": "Ekeby", "lat": 56.0, "lng": 12.96667, "population": 3292}, {"name": "Råtorp", "lat": 59.40197, "lng": 13.49144, "population": 3287}, {"name": "Nättraby", "lat": 56.2, "lng": 15.51667, "population": 3284}, {"name": "Bara", "lat": 58.68333, "lng": 17.06667, "population": 3270}, {"name": "Boxholm", "lat": 58.19719, "lng": 15.05376, "population": 3269}, {"name": "Resarö", "lat": 59.4291, "lng": 18.33386, "population": 3249}, {"name": "Skänninge", "lat": 59.93333, "lng": 18.48333, "population": 3242}, {"name": "Tranemo", "lat": 57.48333, "lng": 13.35, "population": 3224}, {"name": "Eriksberg", "lat": 59.24241, "lng": 17.81631, "population": 3200}, {"name": "Björklinge", "lat": 60.03004, "lng": 17.55203, "population": 3186}, {"name": "Tollarp1", "lat": 56.16667, "lng": 14.28333, "population": 3170}, {"name": "Södra Sunderbyn", "lat": 65.65983, "lng": 21.94004, "population": 3162}, {"name": "Munka-Ljungby", "lat": 56.25, "lng": 12.96667, "population": 3148}, {"name": "Knislinge", "lat": 56.18333, "lng": 14.08333, "population": 3144}, {"name": "Häljarp", "lat": 55.85, "lng": 12.91667, "population": 3134}, {"name": "Laxå", "lat": 58.9863, "lng": 14.61904, "population": 3125}, {"name": "Bengtsfors", "lat": 59.02912, "lng": 12.23207, "population": 3125}, {"name": "Tenhult", "lat": 57.70761, "lng": 14.32205, "population": 3112}, {"name": "Broby", "lat": 56.25521, "lng": 14.07797, "population": 3104}, {"name": "Sävast", "lat": 65.77002, "lng": 21.73113, "population": 3093}, {"name": "Tingsryd", "lat": 56.5247, "lng": 14.97902, "population": 3087}, {"name": "Hovmantorp", "lat": 56.78685, "lng": 15.14023, "population": 3082}, {"name": "Skelleftehamn", "lat": 64.68333, "lng": 21.23333, "population": 3069}, {"name": "Kopparberg", "lat": 59.87597, "lng": 14.99436, "population": 3065}, {"name": "Gamla Stan", "lat": 59.32627, "lng": 18.07251, "population": 3000}, {"name": "Ed", "lat": 58.91247, "lng": 11.93308, "population": 2994}, {"name": "Sandared", "lat": 57.70992, "lng": 12.79238, "population": 2993}, {"name": "Hökåsen", "lat": 59.66667, "lng": 16.58333, "population": 2986}, {"name": "Särö", "lat": 57.50577, "lng": 11.9321, "population": 2982}, {"name": "Sävar", "lat": 63.90383, "lng": 20.55014, "population": 2968}, {"name": "Genarp", "lat": 55.59907, "lng": 13.3982, "population": 2962}, {"name": "Grästorp", "lat": 58.33219, "lng": 12.68122, "population": 2946}, {"name": "Borensberg", "lat": 58.56667, "lng": 15.28333, "population": 2942}, {"name": "Påarp", "lat": 56.03333, "lng": 12.81667, "population": 2932}, {"name": "Hindås", "lat": 57.70338, "lng": 12.44657, "population": 2901}, {"name": "Ånge", "lat": 62.52495, "lng": 15.65904, "population": 2889}, {"name": "Ockelbo", "lat": 60.8912, "lng": 16.71846, "population": 2875}, {"name": "Lessebo", "lat": 56.75185, "lng": 15.26969, "population": 2857}, {"name": "Linghem", "lat": 58.43333, "lng": 15.78333, "population": 2853}, {"name": "Vålberg", "lat": 59.39145, "lng": 13.18633, "population": 2848}, {"name": "Stora Höga", "lat": 58.01667, "lng": 11.83333, "population": 2846}, {"name": "Munkfors", "lat": 59.83856, "lng": 13.54361, "population": 2834}, {"name": "Frillesås", "lat": 57.31667, "lng": 12.16667, "population": 2832}, {"name": "Hovsta", "lat": 59.35, "lng": 15.21667, "population": 2831}, {"name": "Fyllinge", "lat": 56.65, "lng": 12.91667, "population": 2830}, {"name": "Irsta", "lat": 59.6, "lng": 16.7, "population": 2809}, {"name": "Jokkmokk", "lat": 66.60665, "lng": 19.82324, "population": 2794}, {"name": "Billesholm", "lat": 56.05, "lng": 13.0, "population": 2794}, {"name": "Olofstorp", "lat": 58.25, "lng": 14.0, "population": 2783}, {"name": "Vejbystrand", "lat": 56.31778, "lng": 12.76722, "population": 2764}, {"name": "Gamleby", "lat": 57.89485, "lng": 16.40508, "population": 2758}, {"name": "Bjärnum", "lat": 56.29032, "lng": 13.71128, "population": 2755}, {"name": "Bårslöv", "lat": 56.0091, "lng": 12.8058, "population": 2753}, {"name": "Åkers Styckebruk", "lat": 59.25, "lng": 17.08333, "population": 2730}, {"name": "Gränna", "lat": 58.01667, "lng": 14.46667, "population": 2726}, {"name": "Heby", "lat": 59.93815, "lng": 16.86217, "population": 2724}, {"name": "Deje", "lat": 59.603, "lng": 13.472, "population": 2702}, {"name": "Gimo", "lat": 60.17304, "lng": 18.18507, "population": 2698}, {"name": "Valdemarsvik", "lat": 58.2031, "lng": 16.60225, "population": 2685}, {"name": "Nordmaling", "lat": 63.56852, "lng": 19.50244, "population": 2671}, {"name": "Odensjö", "lat": 57.71667, "lng": 14.16667, "population": 2646}, {"name": "Tvååker", "lat": 57.04147, "lng": 12.3995, "population": 2640}, {"name": "Jämjö", "lat": 56.19187, "lng": 15.84115, "population": 2629}, {"name": "Sjömarken", "lat": 57.71533, "lng": 12.83495, "population": 2596}, {"name": "Johannedal", "lat": 62.43424, "lng": 17.37273, "population": 2592}, {"name": "Eriksbo", "lat": 57.77141, "lng": 12.04183, "population": 2564}, {"name": "Åseda", "lat": 57.1701, "lng": 15.3443, "population": 2557}, {"name": "Ödeshög", "lat": 58.22949, "lng": 14.65294, "population": 2554}, {"name": "Sveg", "lat": 62.03407, "lng": 14.36577, "population": 2543}, {"name": "Irsta", "lat": 59.7, "lng": 16.93333, "population": 2534}, {"name": "Bureå", "lat": 64.61667, "lng": 21.2, "population": 2533}, {"name": "Gånghester", "lat": 57.7, "lng": 13.01667, "population": 2533}, {"name": "Stockvik", "lat": 62.33667, "lng": 17.36583, "population": 2532}, {"name": "Hörnefors", "lat": 63.62312, "lng": 19.90856, "population": 2514}, {"name": "Alunda", "lat": 60.06667, "lng": 18.08333, "population": 2506}, {"name": "Ekängen", "lat": 58.46667, "lng": 15.63333, "population": 2485}, {"name": "Frövi", "lat": 59.46667, "lng": 15.36667, "population": 2480}, {"name": "Vårsta", "lat": 59.16528, "lng": 17.79722, "population": 2470}, {"name": "Strömma", "lat": 59.28333, "lng": 18.53333, "population": 2468}, {"name": "Röbäck", "lat": 63.80879, "lng": 20.18901, "population": 2460}, {"name": "Ljunghusen", "lat": 55.39793, "lng": 12.92486, "population": 2444}, {"name": "Kolsva", "lat": 59.6, "lng": 15.83333, "population": 2440}, {"name": "Herrestad", "lat": 58.38333, "lng": 14.8, "population": 2412}, {"name": "Bälinge", "lat": 59.95, "lng": 17.53333, "population": 2406}, {"name": "Vindeln", "lat": 64.20175, "lng": 19.71945, "population": 2403}, {"name": "Rottne", "lat": 57.01667, "lng": 14.9, "population": 2395}, {"name": "Förslöv", "lat": 56.35, "lng": 12.81667, "population": 2386}, {"name": "Fjärås kyrkby", "lat": 57.45913, "lng": 12.17508, "population": 2385}, {"name": "Skinnskatteberg", "lat": 59.83028, "lng": 15.69337, "population": 2383}, {"name": "Blomstermåla", "lat": 56.98333, "lng": 16.33333, "population": 2380}, {"name": "Kåge", "lat": 64.83571, "lng": 20.98453, "population": 2376}, {"name": "Söråker", "lat": 62.50561, "lng": 17.51032, "population": 2374}, {"name": "Charlottenberg", "lat": 59.88422, "lng": 12.30398, "population": 2368}, {"name": "Alfta", "lat": 61.34675, "lng": 16.07499, "population": 2348}, {"name": "Vikingstad", "lat": 58.38304, "lng": 15.43201, "population": 2335}, {"name": "Österbybruk", "lat": 60.2, "lng": 17.9, "population": 2331}, {"name": "Fritsla", "lat": 57.55655, "lng": 12.78457, "population": 2307}, {"name": "Frösakull", "lat": 56.68333, "lng": 12.73333, "population": 2296}, {"name": "Brastad", "lat": 58.38333, "lng": 11.48333, "population": 2289}, {"name": "Hyllinge", "lat": 56.1, "lng": 12.85, "population": 2287}, {"name": "Vintrosa", "lat": 59.25, "lng": 14.95, "population": 2285}, {"name": "Kopparmora", "lat": 59.33306, "lng": 18.58306, "population": 2280}, {"name": "Veddige", "lat": 57.26591, "lng": 12.3322, "population": 2260}, {"name": "Rimforsa", "lat": 58.13624, "lng": 15.6865, "population": 2259}, {"name": "Storvik", "lat": 65.15, "lng": 20.73333, "population": 2251}, {"name": "Bergsviken", "lat": 65.3, "lng": 21.38333, "population": 2251}, {"name": "Strömsnäsbruk", "lat": 56.55, "lng": 13.71667, "population": 2246}, {"name": "Henån", "lat": 58.23848, "lng": 11.67598, "population": 2243}, {"name": "Pershagen", "lat": 59.15494, "lng": 17.6534, "population": 2235}, {"name": "Sturefors", "lat": 58.33333, "lng": 15.73333, "population": 2228}, {"name": "Alunda", "lat": 60.26667, "lng": 18.4, "population": 2224}, {"name": "Storfors", "lat": 59.53183, "lng": 14.27201, "population": 2218}, {"name": "Sjuntorp", "lat": 58.2, "lng": 12.21667, "population": 2213}, {"name": "Storvik", "lat": 60.58333, "lng": 16.53333, "population": 2202}, {"name": "Storuman", "lat": 65.0959, "lng": 17.11731, "population": 2188}, {"name": "Delsbo", "lat": 61.80104, "lng": 16.55571, "population": 2185}, {"name": "Skogstorp", "lat": 59.32472, "lng": 16.48284, "population": 2180}, {"name": "Kvicksund", "lat": 59.45099, "lng": 16.32131, "population": 2179}, {"name": "Obbola", "lat": 63.7, "lng": 20.31667, "population": 2173}, {"name": "Fjugesta", "lat": 59.17375, "lng": 14.87227, "population": 2160}, {"name": "Tillberga", "lat": 59.68333, "lng": 16.61667, "population": 2151}, {"name": "Insjön", "lat": 64.4, "lng": 17.48333, "population": 2150}, {"name": "Grängesberg", "lat": 60.07465, "lng": 15.00784, "population": 2146}, {"name": "Insjön", "lat": 60.67688, "lng": 15.09487, "population": 2141}, {"name": "Djurås", "lat": 60.56061, "lng": 15.13281, "population": 2128}, {"name": "Ljungbyhed", "lat": 56.07437, "lng": 13.2401, "population": 2127}, {"name": "Malmköping", "lat": 59.13333, "lng": 16.73333, "population": 2106}, {"name": "Sundsbruk", "lat": 62.45806, "lng": 17.34889, "population": 2098}, {"name": "Glumslöv", "lat": 55.94091, "lng": 12.80929, "population": 2093}, {"name": "Forserum", "lat": 57.7, "lng": 14.46667, "population": 2080}, {"name": "Fränsta", "lat": 62.49855, "lng": 16.17016, "population": 2062}, {"name": "Norsjö", "lat": 64.91206, "lng": 19.48153, "population": 2057}, {"name": "Hunnebostrand", "lat": 58.44127, "lng": 11.3032, "population": 2053}, {"name": "Malå", "lat": 65.18501, "lng": 18.74243, "population": 2043}, {"name": "Vansbro", "lat": 60.50893, "lng": 14.22458, "population": 2042}, {"name": "Kolbäck", "lat": 59.56516, "lng": 16.23037, "population": 2034}, {"name": "Pajala", "lat": 67.21284, "lng": 23.36607, "population": 2032}, {"name": "Robertsfors", "lat": 64.19324, "lng": 20.84806, "population": 2030}, {"name": "Örbyhus", "lat": 60.22407, "lng": 17.70138, "population": 2025}, {"name": "Torsås", "lat": 56.41251, "lng": 15.99844, "population": 2000}, {"name": "Stenkullen", "lat": 57.79476, "lng": 12.31688, "population": 2000}, {"name": "Lönsboda", "lat": 56.4, "lng": 14.31667, "population": 1986}, {"name": "Färgelanda", "lat": 58.56816, "lng": 11.99235, "population": 1986}, {"name": "Träslövsläge", "lat": 57.05417, "lng": 12.27899, "population": 1985}, {"name": "Skattkärr", "lat": 59.41208, "lng": 13.67078, "population": 1979}, {"name": "Jonstorp", "lat": 56.2338, "lng": 12.67184, "population": 1972}, {"name": "Bjursås", "lat": 60.73726, "lng": 15.45291, "population": 1968}, {"name": "Storå", "lat": 59.71409, "lng": 15.13169, "population": 1967}, {"name": "Råneå", "lat": 65.85482, "lng": 22.29126, "population": 1966}, {"name": "Anderslöv", "lat": 55.43836, "lng": 13.31966, "population": 1963}, {"name": "Arbrå", "lat": 61.46667, "lng": 16.38333, "population": 1961}, {"name": "Njurundabommen", "lat": 62.26339, "lng": 17.38354, "population": 1959}, {"name": "Bodafors", "lat": 57.5, "lng": 14.7, "population": 1957}, {"name": "Krokom", "lat": 63.32589, "lng": 14.44883, "population": 1953}, {"name": "Stigtomta", "lat": 58.8, "lng": 16.78333, "population": 1949}, {"name": "Svanesund", "lat": 58.14292, "lng": 11.81821, "population": 1946}, {"name": "Ljusne", "lat": 61.2117, "lng": 17.1279, "population": 1946}, {"name": "Stångby", "lat": 55.7503, "lng": 13.19797, "population": 1943}, {"name": "Klågerup", "lat": 55.59416, "lng": 13.24574, "population": 1940}, {"name": "Mörarp", "lat": 56.05749, "lng": 12.88018, "population": 1935}, {"name": "Högsby", "lat": 57.16597, "lng": 16.02562, "population": 1923}, {"name": "Mockfjärd", "lat": 60.5, "lng": 14.96667, "population": 1920}, {"name": "Getinge", "lat": 56.81667, "lng": 12.73333, "population": 1909}, {"name": "Övertorneå", "lat": 66.38778, "lng": 23.65425, "population": 1906}, {"name": "Svängsta", "lat": 56.26667, "lng": 14.76667, "population": 1904}, {"name": "Enbacka", "lat": 60.40993, "lng": 15.59575, "population": 1899}, {"name": "Andalen", "lat": 57.70039, "lng": 11.76136, "population": 1897}, {"name": "Molkom", "lat": 59.60057, "lng": 13.72115, "population": 1896}, {"name": "Nossebro", "lat": 58.18808, "lng": 12.71599, "population": 1884}, {"name": "Bollstabruk", "lat": 62.99777, "lng": 17.67348, "population": 1883}, {"name": "Moheda", "lat": 57.0, "lng": 14.56667, "population": 1880}, {"name": "Grebbestad", "lat": 58.70248, "lng": 11.25738, "population": 1877}, {"name": "Grycksbo", "lat": 60.68751, "lng": 15.48507, "population": 1870}, {"name": "Älvdalen", "lat": 61.22774, "lng": 14.03935, "population": 1863}, {"name": "Dalarö", "lat": 59.13306, "lng": 18.40639, "population": 1849}, {"name": "Rosvik", "lat": 65.43333, "lng": 21.7, "population": 1848}, {"name": "Skrea", "lat": 56.88333, "lng": 12.56667, "population": 1846}, {"name": "Bjästa", "lat": 63.2, "lng": 18.5, "population": 1845}, {"name": "Fjälkinge", "lat": 56.04364, "lng": 14.27562, "population": 1832}, {"name": "Mörbylånga", "lat": 56.5248, "lng": 16.37877, "population": 1824}, {"name": "Stenstorp", "lat": 58.27254, "lng": 13.71454, "population": 1823}, {"name": "Kvidinge", "lat": 56.13386, "lng": 13.04678, "population": 1823}, {"name": "Arjeplog", "lat": 66.05173, "lng": 17.88606, "population": 1822}, {"name": "Skepplanda", "lat": 57.98333, "lng": 12.2, "population": 1821}, {"name": "Brevik", "lat": 59.21667, "lng": 18.38333, "population": 1817}, {"name": "Abborrberget", "lat": 60.15, "lng": 14.8, "population": 1814}, {"name": "Vislanda", "lat": 56.78333, "lng": 14.45, "population": 1813}, {"name": "Järbo", "lat": 60.71667, "lng": 16.6, "population": 1813}, {"name": "Sösdala", "lat": 56.03992, "lng": 13.67811, "population": 1808}, {"name": "Hällabrottet", "lat": 59.11667, "lng": 15.2, "population": 1806}, {"name": "Bua", "lat": 57.2378, "lng": 12.12187, "population": 1792}, {"name": "Vittsjö", "lat": 56.34366, "lng": 13.66081, "population": 1787}, {"name": "Bergeforsen", "lat": 62.53074, "lng": 17.38123, "population": 1787}, {"name": "Byske", "lat": 64.95258, "lng": 21.2058, "population": 1785}, {"name": "Stavsnäs", "lat": 59.28333, "lng": 18.68333, "population": 1784}, {"name": "Tanumshede", "lat": 58.72385, "lng": 11.32587, "population": 1774}, {"name": "Jonstorp", "lat": 58.0, "lng": 12.71667, "population": 1771}, {"name": "Virserum", "lat": 57.31667, "lng": 15.58333, "population": 1769}, {"name": "Rosersberg", "lat": 59.58333, "lng": 17.88333, "population": 1765}, {"name": "Lenhovda", "lat": 57.0, "lng": 15.28333, "population": 1762}, {"name": "Ingelstad", "lat": 56.75, "lng": 14.91667, "population": 1762}, {"name": "Forsbacka", "lat": 60.61667, "lng": 16.88333, "population": 1754}, {"name": "Höviksnäs", "lat": 58.03333, "lng": 11.76667, "population": 1750}, {"name": "Forsbacka", "lat": 64.76667, "lng": 20.5, "population": 1748}, {"name": "Hillerstorp", "lat": 57.31293, "lng": 13.88437, "population": 1746}, {"name": "Östra Ljungby", "lat": 56.19601, "lng": 13.09199, "population": 1740}, {"name": "Källby", "lat": 58.50999, "lng": 13.30582, "population": 1737}, {"name": "Romme", "lat": 60.43333, "lng": 15.5, "population": 1735}, {"name": "Marielund", "lat": 65.85307, "lng": 24.10486, "population": 1726}, {"name": "Ljungbyholm", "lat": 56.63333, "lng": 16.16667, "population": 1725}, {"name": "Järna", "lat": 60.53333, "lng": 14.36667, "population": 1725}, {"name": "Vibble", "lat": 57.60452, "lng": 18.25601, "population": 1709}, {"name": "Bräkne-Hoby", "lat": 56.23333, "lng": 15.11667, "population": 1708}, {"name": "Åsele", "lat": 64.16026, "lng": 17.34762, "population": 1706}, {"name": "Söderfors", "lat": 60.38333, "lng": 17.23333, "population": 1704}, {"name": "Teckomatorp", "lat": 55.86667, "lng": 13.08333, "population": 1703}, {"name": "Ingared", "lat": 57.85989, "lng": 12.45161, "population": 1703}, {"name": "Östervåla", "lat": 60.18333, "lng": 17.18333, "population": 1696}, {"name": "Lammhult", "lat": 57.16667, "lng": 14.58333, "population": 1694}, {"name": "Hästveda", "lat": 56.28468, "lng": 13.93547, "population": 1693}, {"name": "Braås", "lat": 57.06667, "lng": 15.05, "population": 1692}, {"name": "Åled", "lat": 56.75, "lng": 12.93333, "population": 1690}, {"name": "Sandarne", "lat": 61.25893, "lng": 17.15284, "population": 1681}, {"name": "Haverdal", "lat": 56.72222, "lng": 12.67194, "population": 1681}, {"name": "Stallarholmen", "lat": 59.36667, "lng": 17.2, "population": 1671}, {"name": "Hemse", "lat": 57.23788, "lng": 18.37443, "population": 1668}, {"name": "Boliden", "lat": 64.86667, "lng": 20.38333, "population": 1661}, {"name": "Ersmark", "lat": 63.88333, "lng": 20.31667, "population": 1650}, {"name": "Jursla", "lat": 58.65466, "lng": 16.16259, "population": 1647}, {"name": "Långsele", "lat": 63.18333, "lng": 17.06667, "population": 1642}, {"name": "Gullbrandstorp", "lat": 56.7, "lng": 12.73333, "population": 1642}, {"name": "Rinkabyholm", "lat": 56.64972, "lng": 16.26667, "population": 1631}, {"name": "Stenstorp", "lat": 58.48333, "lng": 15.06667, "population": 1630}, {"name": "Hälleforsnäs", "lat": 59.15208, "lng": 16.497, "population": 1624}, {"name": "Långsele", "lat": 64.81667, "lng": 20.25, "population": 1620}, {"name": "Garphyttan", "lat": 59.30429, "lng": 14.94623, "population": 1613}, {"name": "Jämshög", "lat": 56.23333, "lng": 14.51667, "population": 1612}, {"name": "Pålsboda", "lat": 59.06565, "lng": 15.33747, "population": 1610}, {"name": "Långshyttan", "lat": 60.45238, "lng": 16.03831, "population": 1609}, {"name": "Hasslö", "lat": 56.11667, "lng": 15.48333, "population": 1606}, {"name": "Kode", "lat": 57.94263, "lng": 11.85051, "population": 1605}, {"name": "Marieholm", "lat": 55.86667, "lng": 13.15, "population": 1604}, {"name": "Trekanten", "lat": 56.7, "lng": 16.11667, "population": 1599}, {"name": "Söderfors", "lat": 64.81667, "lng": 18.05, "population": 1597}, {"name": "Öregrund", "lat": 60.33333, "lng": 18.43333, "population": 1589}, {"name": "Rydaholm", "lat": 56.98388, "lng": 14.30849, "population": 1587}, {"name": "Valla", "lat": 63.55, "lng": 13.8, "population": 1584}, {"name": "Vännäsby", "lat": 63.91564, "lng": 19.82438, "population": 1581}, {"name": "Sörforsa", "lat": 61.73333, "lng": 16.98333, "population": 1581}, {"name": "Marieholm", "lat": 57.38333, "lng": 13.85, "population": 1578}, {"name": "Burträsk", "lat": 64.51667, "lng": 20.65, "population": 1573}, {"name": "Ås", "lat": 63.25, "lng": 14.56667, "population": 1572}, {"name": "Trönninge", "lat": 56.61667, "lng": 12.93333, "population": 1569}, {"name": "Gullspång", "lat": 58.98615, "lng": 14.09644, "population": 1568}, {"name": "Husum", "lat": 63.33333, "lng": 19.16667, "population": 1563}, {"name": "Ekenässjön", "lat": 57.49175, "lng": 15.02226, "population": 1563}, {"name": "Asmundtorp", "lat": 55.88333, "lng": 12.93333, "population": 1563}, {"name": "Norrfjärden", "lat": 65.41805, "lng": 21.50151, "population": 1562}, {"name": "Floby", "lat": 58.13333, "lng": 13.33333, "population": 1562}, {"name": "Kaxholmen", "lat": 57.85345, "lng": 14.30457, "population": 1561}, {"name": "Bräcke", "lat": 62.75067, "lng": 15.42193, "population": 1559}, {"name": "Järvsö", "lat": 61.71667, "lng": 16.16667, "population": 1557}, {"name": "Rönnäng", "lat": 57.93333, "lng": 11.58333, "population": 1551}, {"name": "Lagan", "lat": 56.91667, "lng": 13.98333, "population": 1550}, {"name": "Bredaryd", "lat": 57.17343, "lng": 13.73789, "population": 1549}, {"name": "Bergby", "lat": 60.92931, "lng": 17.04194, "population": 1549}, {"name": "Hällevik", "lat": 56.01667, "lng": 14.7, "population": 1545}, {"name": "Lödöse", "lat": 58.02994, "lng": 12.15934, "population": 1540}, {"name": "Järpen", "lat": 63.3462, "lng": 13.46572, "population": 1539}, {"name": "Ekeby-Almby", "lat": 59.26, "lng": 15.33, "population": 1531}, {"name": "Rävlanda", "lat": 57.65338, "lng": 12.49791, "population": 1522}, {"name": "Brålanda", "lat": 58.56344, "lng": 12.34923, "population": 1521}, {"name": "Älvkarleby", "lat": 60.57081, "lng": 17.44895, "population": 1517}, {"name": "Backa", "lat": 64.98333, "lng": 21.06667, "population": 1516}, {"name": "Kågeröd", "lat": 55.99976, "lng": 13.08795, "population": 1516}, {"name": "Forsheda", "lat": 57.16415, "lng": 13.83016, "population": 1510}, {"name": "Mariannelund", "lat": 57.61667, "lng": 15.56667, "population": 1503}, {"name": "Harplinge", "lat": 56.74491, "lng": 12.72758, "population": 1498}, {"name": "Björkö", "lat": 57.73221, "lng": 11.67916, "population": 1495}, {"name": "Dorotea", "lat": 64.26185, "lng": 16.41306, "population": 1491}, {"name": "Klintehamn", "lat": 57.38667, "lng": 18.20371, "population": 1490}, {"name": "Valla", "lat": 59.01667, "lng": 16.38333, "population": 1485}, {"name": "Sollebrunn", "lat": 58.11667, "lng": 12.53333, "population": 1482}, {"name": "Hölö", "lat": 59.01667, "lng": 17.53333, "population": 1477}, {"name": "Fellingsbro", "lat": 59.43333, "lng": 15.58333, "population": 1475}, {"name": "Ryd", "lat": 56.46667, "lng": 14.68333, "population": 1474}, {"name": "Kimstad", "lat": 58.54967, "lng": 15.96296, "population": 1469}, {"name": "Glimåkra", "lat": 56.3, "lng": 14.13333, "population": 1466}, {"name": "Jörlanda", "lat": 57.9863, "lng": 11.82943, "population": 1465}, {"name": "Gemla", "lat": 56.86753, "lng": 14.64379, "population": 1462}, {"name": "Vrigstad", "lat": 57.35, "lng": 14.46667, "population": 1461}, {"name": "Myggenäs", "lat": 58.06176, "lng": 11.74936, "population": 1460}, {"name": "Blentarp", "lat": 55.58333, "lng": 13.6, "population": 1452}, {"name": "Ryd", "lat": 58.66667, "lng": 15.08333, "population": 1446}, {"name": "Donsö", "lat": 57.6, "lng": 11.79917, "population": 1446}, {"name": "Djurö", "lat": 59.32653, "lng": 18.71152, "population": 1442}, {"name": "Morgongåva", "lat": 59.93395, "lng": 16.96353, "population": 1441}, {"name": "Landsbro", "lat": 57.36667, "lng": 14.9, "population": 1438}, {"name": "Limmared", "lat": 57.53592, "lng": 13.35566, "population": 1434}, {"name": "Sibbhult", "lat": 56.26667, "lng": 14.2, "population": 1431}, {"name": "Veinge", "lat": 56.55, "lng": 13.06667, "population": 1417}, {"name": "Ödsmål", "lat": 58.1, "lng": 11.85, "population": 1414}, {"name": "Vattholma", "lat": 60.01667, "lng": 17.73333, "population": 1410}, {"name": "Dals Långed", "lat": 58.92555, "lng": 12.30865, "population": 1407}, {"name": "Barkarö", "lat": 59.54935, "lng": 16.5074, "population": 1404}, {"name": "Lövstalöt", "lat": 59.9574, "lng": 17.57826, "population": 1399}, {"name": "Anneberg", "lat": 60.24167, "lng": 18.41667, "population": 1398}, {"name": "Färila", "lat": 61.80011, "lng": 15.84422, "population": 1398}, {"name": "Önnestad", "lat": 56.05747, "lng": 14.02233, "population": 1392}, {"name": "Hanaskog", "lat": 56.16061, "lng": 14.09307, "population": 1385}, {"name": "Rydsgård", "lat": 55.47285, "lng": 13.58829, "population": 1383}, {"name": "Odensbacken", "lat": 59.16667, "lng": 15.53333, "population": 1378}, {"name": "Älmsta", "lat": 59.96667, "lng": 18.8, "population": 1376}, {"name": "Stöpen", "lat": 58.47802, "lng": 13.86611, "population": 1373}, {"name": "Nolvik", "lat": 57.775, "lng": 11.83333, "population": 1373}, {"name": "Timmernabben", "lat": 56.96667, "lng": 16.43333, "population": 1357}, {"name": "Målilla", "lat": 57.38773, "lng": 15.80675, "population": 1348}, {"name": "Åmotfors", "lat": 59.76191, "lng": 12.36211, "population": 1347}, {"name": "Svärdsjö", "lat": 60.74022, "lng": 15.90173, "population": 1335}, {"name": "Ramnäs", "lat": 59.76667, "lng": 16.2, "population": 1333}, {"name": "Diseröd", "lat": 57.92636, "lng": 12.02598, "population": 1328}, {"name": "Degeberga", "lat": 55.83333, "lng": 14.08333, "population": 1328}, {"name": "Hestra", "lat": 57.44232, "lng": 13.59575, "population": 1327}, {"name": "Hestra", "lat": 57.91667, "lng": 14.58333, "population": 1326}, {"name": "Sturkö", "lat": 56.08333, "lng": 15.7, "population": 1325}, {"name": "Styrsö", "lat": 57.61639, "lng": 11.78556, "population": 1324}, {"name": "Gantofta", "lat": 55.98729, "lng": 12.80482, "population": 1322}, {"name": "Åsbro", "lat": 59.0, "lng": 15.05, "population": 1321}, {"name": "Mjällby", "lat": 56.05, "lng": 14.68333, "population": 1319}, {"name": "Västra Hagen", "lat": 57.42444, "lng": 11.93583, "population": 1319}, {"name": "Näsum", "lat": 56.17693, "lng": 14.49706, "population": 1307}, {"name": "Täfteå", "lat": 63.8397, "lng": 20.47857, "population": 1305}, {"name": "Örsundsbro", "lat": 59.73333, "lng": 17.3, "population": 1302}, {"name": "Smygehamn", "lat": 55.34337, "lng": 13.36989, "population": 1297}, {"name": "Smögen", "lat": 58.35593, "lng": 11.22411, "population": 1292}, {"name": "Bergsjö", "lat": 61.98253, "lng": 17.06368, "population": 1292}, {"name": "Mörtnäs", "lat": 59.31862, "lng": 18.44312, "population": 1291}, {"name": "Reftele", "lat": 57.17467, "lng": 13.59498, "population": 1289}, {"name": "Kvänum", "lat": 58.3, "lng": 13.18333, "population": 1278}, {"name": "Siljansnäs", "lat": 60.78333, "lng": 14.85, "population": 1274}, {"name": "Mjällby", "lat": 56.68333, "lng": 12.76667, "population": 1272}, {"name": "Ärla", "lat": 59.27983, "lng": 16.67896, "population": 1272}, {"name": "Bor", "lat": 57.11667, "lng": 14.16667, "population": 1263}, {"name": "Roknäs", "lat": 65.35, "lng": 21.2, "population": 1259}, {"name": "Skivarp", "lat": 55.41667, "lng": 13.56667, "population": 1258}, {"name": "Köpingebro", "lat": 55.45526, "lng": 13.93453, "population": 1254}, {"name": "Hova", "lat": 58.85363, "lng": 14.21914, "population": 1254}, {"name": "Löberöd", "lat": 55.7761, "lng": 13.52414, "population": 1251}, {"name": "Norra Åsum", "lat": 55.98333, "lng": 14.15, "population": 1248}, {"name": "Torup", "lat": 56.95663, "lng": 13.07725, "population": 1245}, {"name": "Björneborg", "lat": 59.24122, "lng": 14.24942, "population": 1237}, {"name": "Ankarsrum", "lat": 57.69896, "lng": 16.33407, "population": 1234}, {"name": "Berg", "lat": 58.48831, "lng": 15.52969, "population": 1229}, {"name": "Annelund", "lat": 57.98843, "lng": 13.07483, "population": 1226}, {"name": "Gustav Adolf", "lat": 56.01667, "lng": 14.25, "population": 1224}, {"name": "Töcksfors", "lat": 59.50816, "lng": 11.84431, "population": 1221}, {"name": "Knäred", "lat": 56.51861, "lng": 13.32423, "population": 1211}, {"name": "Sätila", "lat": 57.54172, "lng": 12.43429, "population": 1210}, {"name": "Strövelstorp", "lat": 56.16979, "lng": 12.83925, "population": 1207}, {"name": "Långvik", "lat": 59.24583, "lng": 18.51667, "population": 1206}, {"name": "Horred", "lat": 57.35475, "lng": 12.47777, "population": 1203}, {"name": "Nolby", "lat": 62.2875, "lng": 17.36917, "population": 1200}, {"name": "Bredbyn", "lat": 63.44655, "lng": 18.11019, "population": 1200}, {"name": "Hölö", "lat": 59.28333, "lng": 18.66667, "population": 1199}, {"name": "Gnarp", "lat": 62.04874, "lng": 17.25858, "population": 1199}, {"name": "Gagnef", "lat": 60.59856, "lng": 15.07745, "population": 1199}, {"name": "Kilafors", "lat": 61.23333, "lng": 16.56667, "population": 1197}, {"name": "Köpmanholmen", "lat": 63.16667, "lng": 18.56667, "population": 1194}, {"name": "Vikarbyn", "lat": 60.91667, "lng": 15.01667, "population": 1193}, {"name": "Karlholmsbruk", "lat": 60.52091, "lng": 17.63152, "population": 1193}, {"name": "Stehag", "lat": 55.90188, "lng": 13.39577, "population": 1191}, {"name": "Marieberg", "lat": 60.23333, "lng": 18.5, "population": 1181}, {"name": "Brunn", "lat": 59.28, "lng": 18.43, "population": 1180}, {"name": "Sorsele", "lat": 65.53484, "lng": 17.53702, "population": 1175}, {"name": "Tärnsjö", "lat": 60.15, "lng": 16.93333, "population": 1174}, {"name": "Saxtorpsskogen", "lat": 55.83208, "lng": 12.94429, "population": 1174}, {"name": "Överum", "lat": 57.98856, "lng": 16.3139, "population": 1166}, {"name": "Hököpinge", "lat": 55.49411, "lng": 13.00782, "population": 1164}, {"name": "Axvall", "lat": 58.38333, "lng": 13.56667, "population": 1164}, {"name": "Sätofta", "lat": 55.91667, "lng": 13.55, "population": 1160}, {"name": "Skegrie", "lat": 55.40633, "lng": 13.07693, "population": 1156}, {"name": "Gusum", "lat": 58.2688, "lng": 16.49894, "population": 1149}, {"name": "Lindholmen", "lat": 59.58333, "lng": 18.1, "population": 1146}, {"name": "Södra Vi", "lat": 57.73993, "lng": 15.79391, "population": 1134}, {"name": "Hortlax", "lat": 65.28188, "lng": 21.40544, "population": 1128}, {"name": "Horndal", "lat": 60.3, "lng": 16.41667, "population": 1120}, {"name": "Lit", "lat": 63.32029, "lng": 14.84594, "population": 1117}, {"name": "Hammarstrand", "lat": 63.11041, "lng": 16.35377, "population": 1116}, {"name": "Steninge", "lat": 56.769, "lng": 12.63034, "population": 1112}, {"name": "Billingsfors", "lat": 58.98333, "lng": 12.25, "population": 1108}, {"name": "Rindö", "lat": 59.39688, "lng": 18.39434, "population": 1100}, {"name": "Påskallavik", "lat": 57.16667, "lng": 16.45, "population": 1099}, {"name": "Ås", "lat": 63.36667, "lng": 16.58333, "population": 1097}, {"name": "Svalsta", "lat": 58.74273, "lng": 16.86978, "population": 1095}, {"name": "Hjärnarp", "lat": 56.31667, "lng": 12.91667, "population": 1095}, {"name": "Gärsnäs", "lat": 55.54949, "lng": 14.17923, "population": 1094}, {"name": "Enhagen-Ekbacken", "lat": 59.56543, "lng": 16.53045, "population": 1091}, {"name": "Mölnbo", "lat": 59.05, "lng": 17.41667, "population": 1089}, {"name": "Malmbäck", "lat": 57.57667, "lng": 14.4617, "population": 1087}, {"name": "Länghem", "lat": 57.6, "lng": 13.23333, "population": 1086}, {"name": "Ornäs", "lat": 60.50944, "lng": 15.54128, "population": 1083}, {"name": "Glommen", "lat": 56.93333, "lng": 12.35, "population": 1082}, {"name": "Sköllersta", "lat": 59.13738, "lng": 15.3394, "population": 1079}, {"name": "Torekov", "lat": 56.425, "lng": 12.63333, "population": 1078}, {"name": "Valje", "lat": 56.06279, "lng": 14.54388, "population": 1067}, {"name": "Hedesunda", "lat": 60.4, "lng": 17.0, "population": 1067}, {"name": "Angered", "lat": 57.78628, "lng": 12.09852, "population": 1062}, {"name": "Skottsund", "lat": 62.29056, "lng": 17.38694, "population": 1052}, {"name": "Nyhammar", "lat": 60.28333, "lng": 14.96667, "population": 1052}, {"name": "Töre", "lat": 65.91243, "lng": 22.65128, "population": 1051}, {"name": "Billeberga", "lat": 55.88333, "lng": 13.0, "population": 1050}, {"name": "Mölltorp", "lat": 58.5, "lng": 14.4, "population": 1047}, {"name": "Grebo", "lat": 58.30145, "lng": 15.87085, "population": 1047}, {"name": "Tormestorp", "lat": 56.1135, "lng": 13.74516, "population": 1043}, {"name": "Hammerdal", "lat": 63.57615, "lng": 15.36516, "population": 1043}, {"name": "Överkalix", "lat": 66.32754, "lng": 22.84414, "population": 1036}, {"name": "Ellös", "lat": 58.18333, "lng": 11.46667, "population": 1036}, {"name": "Björboholm", "lat": 57.87096, "lng": 12.32546, "population": 1036}, {"name": "Vinninga", "lat": 58.45, "lng": 13.26667, "population": 1033}, {"name": "Grillby", "lat": 59.62603, "lng": 17.25787, "population": 1028}, {"name": "Gunnebo", "lat": 57.71667, "lng": 16.53333, "population": 1022}, {"name": "Dingtuna", "lat": 59.57279, "lng": 16.38722, "population": 1021}, {"name": "Bergkvara", "lat": 56.39063, "lng": 16.07274, "population": 1021}, {"name": "Ekshärad", "lat": 60.17275, "lng": 13.49647, "population": 1020}, {"name": "Stockaryd", "lat": 57.31737, "lng": 14.59341, "population": 1019}, {"name": "Olstorp", "lat": 58.81667, "lng": 16.63333, "population": 1017}, {"name": "Olstorp", "lat": 57.82277, "lng": 12.27696, "population": 1017}, {"name": "Kristdala", "lat": 57.4007, "lng": 16.20496, "population": 1016}, {"name": "Färlöv", "lat": 56.06667, "lng": 14.08333, "population": 1016}, {"name": "Tjuvkil", "lat": 57.9, "lng": 11.73333, "population": 1013}, {"name": "Årsunda", "lat": 60.51644, "lng": 16.73436, "population": 1012}, {"name": "Storebro", "lat": 57.58333, "lng": 15.85, "population": 1011}, {"name": "Slottsbron", "lat": 59.3227, "lng": 13.10268, "population": 1010}, {"name": "Göta", "lat": 58.10617, "lng": 12.15254, "population": 1002}, {"name": "Rolfs", "lat": 65.85, "lng": 23.11667, "population": 1001}, {"name": "Bjurholm", "lat": 63.93027, "lng": 19.21369, "population": 1000}, {"name": "Österbymo", "lat": 57.82465, "lng": 15.27357, "population": 897}, {"name": "Hoverberg", "lat": 62.81381, "lng": 14.44735, "population": 206}, {"name": "Rönninge", "lat": 59.2, "lng": 17.73333, "population": 0}, {"name": "Bollmora", "lat": 59.24196, "lng": 18.22762, "population": 0}, {"name": "Alafors", "lat": 57.92579, "lng": 12.07835, "population": 0}]