[{"name": "Bratislava", "lat": 48.14816, "lng": 17.10674, "population": 423737}, {"name": "Košice", "lat": 48.71441, "lng": 21.25802, "population": 225044}, {"name": "Petržalka", "lat": 48.12331, "lng": 17.12866, "population": 112380}, {"name": "Nitra", "lat": 48.30763, "lng": 18.08453, "population": 86329}, {"name": "Prešov", "lat": 48.99923, "lng": 21.2355, "population": 82927}, {"name": "Žilina", "lat": 49.22315, "lng": 18.73941, "population": 81219}, {"name": "Banská Bystrica", "lat": 48.73947, "lng": 19.14932, "population": 74590}, {"name": "Trnava", "lat": 48.37773, "lng": 17.58603, "population": 62806}, {"name": "Trenčín", "lat": 48.89452, "lng": 18.04436, "population": 58278}, {"name": "Martin", "lat": 49.06651, "lng": 18.92399, "population": 51139}, {"name": "Poprad", "lat": 49.06144, "lng": 20.29798, "population": 49091}, {"name": "Staré Mesto", "lat": 48.15039, "lng": 17.09002, "population": 46080}, {"name": "Prievidza", "lat": 48.77446, "lng": 18.6275, "population": 43645}, {"name": "Zvolen", "lat": 48.57442, "lng": 19.15324, "population": 39844}, {"name": "Považská Bystrica", "lat": 49.12153, "lng": 18.42169, "population": 37483}, {"name": "Nové Zámky", "lat": 47.98544, "lng": 18.16195, "population": 36781}, {"name": "Michalovce", "lat": 48.75434, "lng": 21.9195, "population": 35874}, {"name": "Karlova Ves", "lat": 48.15344, "lng": 17.05522, "population": 35644}, {"name": "Dúbravka", "lat": 48.18872, "lng": 17.03521, "population": 35518}, {"name": "Spišská Nová Ves", "lat": 48.94464, "lng": 20.56153, "population": 34855}, {"name": "Komárno", "lat": 48.11667, "lng": 18.31667, "population": 32287}, {"name": "Komárno", "lat": 47.76356, "lng": 18.12263, "population": 32287}, {"name": "Levice", "lat": 48.21563, "lng": 18.60705, "population": 30556}, {"name": "Humenné", "lat": 48.93707, "lng": 21.91625, "population": 30450}, {"name": "Bardejov", "lat": 49.29175, "lng": 21.27271, "population": 30267}, {"name": "Liptovský Mikuláš", "lat": 49.08061, "lng": 19.62218, "population": 30162}, {"name": "Dlhé diely", "lat": 48.15454, "lng": 17.04607, "population": 30000}, {"name": "Piešťany", "lat": 48.59479, "lng": 17.82591, "population": 26862}, {"name": "Ružomberok", "lat": 49.0748, "lng": 19.30751, "population": 26671}, {"name": "Lučenec", "lat": 48.33249, "lng": 19.66708, "population": 25191}, {"name": "Pezinok", "lat": 48.28986, "lng": 17.26664, "population": 24443}, {"name": "Topoľčany", "lat": 48.56361, "lng": 18.16712, "population": 24086}, {"name": "Podunajské Biskupice", "lat": 48.13246, "lng": 17.20963, "population": 23464}, {"name": "Trebišov", "lat": 48.62858, "lng": 21.71954, "population": 22851}, {"name": "Dunajská Streda", "lat": 47.99268, "lng": 17.61211, "population": 22730}, {"name": "Čadca", "lat": 49.43503, "lng": 18.78895, "population": 22655}, {"name": "Snina", "lat": 48.98857, "lng": 22.15099, "population": 22221}, {"name": "Dubnica nad Váhom", "lat": 48.95981, "lng": 18.16634, "population": 21914}, {"name": "Rimavská Sobota", "lat": 48.38284, "lng": 20.02239, "population": 21434}, {"name": "Partizánske", "lat": 48.62861, "lng": 18.38455, "population": 20739}, {"name": "Vrakuňa", "lat": 48.1383, "lng": 17.20866, "population": 20711}, {"name": "Vranov nad Topľou", "lat": 48.88836, "lng": 21.68479, "population": 20595}, {"name": "Šaľa", "lat": 48.15127, "lng": 17.88062, "population": 20239}, {"name": "Senec", "lat": 48.21951, "lng": 17.40043, "population": 20115}, {"name": "Hlohovec", "lat": 48.43174, "lng": 17.8031, "population": 19883}, {"name": "Brezno", "lat": 48.80431, "lng": 19.63631, "population": 19866}, {"name": "Senica", "lat": 48.67922, "lng": 17.36697, "population": 19355}, {"name": "Nové Mesto nad Váhom", "lat": 48.75763, "lng": 17.8309, "population": 19325}, {"name": "Malacky", "lat": 48.43604, "lng": 17.02188, "population": 18804}, {"name": "Dolný Kubín", "lat": 49.20983, "lng": 19.30341, "population": 17660}, {"name": "Devínska Nová Ves", "lat": 48.20711, "lng": 16.9786, "population": 17153}, {"name": "Rožňava", "lat": 48.66009, "lng": 20.53758, "population": 17122}, {"name": "Púchov", "lat": 49.12494, "lng": 18.32597, "population": 16995}, {"name": "Žiar nad Hronom", "lat": 48.59184, "lng": 18.84958, "population": 16955}, {"name": "Bánovce nad Bebravou", "lat": 48.7213, "lng": 18.25754, "population": 16486}, {"name": "Handlová", "lat": 48.7276, "lng": 18.76012, "population": 15694}, {"name": "Stará Ľubovňa", "lat": 49.29859, "lng": 20.6862, "population": 15667}, {"name": "Skalica", "lat": 48.8449, "lng": 17.22635, "population": 15466}, {"name": "Galanta", "lat": 48.19001, "lng": 17.72747, "population": 15277}, {"name": "Kežmarok", "lat": 49.13571, "lng": 20.43352, "population": 15271}, {"name": "Sereď", "lat": 48.29117, "lng": 17.73331, "population": 15228}, {"name": "Kysucké Nové Mesto", "lat": 49.3, "lng": 18.78333, "population": 14350}, {"name": "Levoča", "lat": 49.02173, "lng": 20.59212, "population": 13979}, {"name": "Detva", "lat": 48.56082, "lng": 19.41954, "population": 13666}, {"name": "Šamorín", "lat": 48.03015, "lng": 17.30972, "population": 13566}, {"name": "Stupava", "lat": 48.27474, "lng": 17.03173, "population": 12744}, {"name": "Sabinov", "lat": 49.10309, "lng": 21.0988, "population": 12290}, {"name": "Zlaté Moravce", "lat": 48.38553, "lng": 18.40063, "population": 11803}, {"name": "Bytča", "lat": 49.22404, "lng": 18.55878, "population": 11491}, {"name": "Revúca", "lat": 48.68346, "lng": 20.11734, "population": 11033}, {"name": "Holíč", "lat": 48.81105, "lng": 17.16238, "population": 11024}, {"name": "Myjava", "lat": 48.75876, "lng": 17.56866, "population": 10626}, {"name": "Veľký Krtíš", "lat": 48.21059, "lng": 19.35043, "population": 10552}, {"name": "Kolárovo", "lat": 47.92294, "lng": 17.98467, "population": 10470}, {"name": "Nová Dubnica", "lat": 48.93479, "lng": 18.14632, "population": 10425}, {"name": "Moldava nad Bodvou", "lat": 48.61428, "lng": 20.99957, "population": 10266}, {"name": "Svidník", "lat": 49.30819, "lng": 21.5703, "population": 9839}, {"name": "Stropkov", "lat": 49.20211, "lng": 21.65216, "population": 9835}, {"name": "Fiľakovo", "lat": 48.26757, "lng": 19.82473, "population": 9726}, {"name": "Banská Štiavnica", "lat": 48.44858, "lng": 18.91003, "population": 9426}, {"name": "Štúrovo", "lat": 47.79495, "lng": 18.7175, "population": 9361}, {"name": "Šurany", "lat": 48.08613, "lng": 18.18447, "population": 9326}, {"name": "Modra", "lat": 48.33397, "lng": 17.30711, "population": 9237}, {"name": "Smižany", "lat": 48.95446, "lng": 20.52341, "population": 9023}, {"name": "Tvrdošín", "lat": 49.337, "lng": 19.556, "population": 8786}, {"name": "Krompachy", "lat": 48.91447, "lng": 20.87514, "population": 8615}, {"name": "Bernolákovo", "lat": 48.20068, "lng": 17.30186, "population": 8613}, {"name": "Sečovce", "lat": 48.70074, "lng": 21.66104, "population": 8531}, {"name": "Veľké Kapušany", "lat": 48.55197, "lng": 22.08036, "population": 8527}, {"name": "Vráble", "lat": 48.24371, "lng": 18.30846, "population": 8432}, {"name": "Stará Turá", "lat": 48.77721, "lng": 17.69433, "population": 8432}, {"name": "Veľký Meder", "lat": 47.85798, "lng": 17.76884, "population": 8301}, {"name": "Dunajská Lužná", "lat": 48.08347, "lng": 17.26072, "population": 7955}, {"name": "Chorvátsky Grob - Čierna Voda", "lat": 48.2249, "lng": 17.2324, "population": 7885}, {"name": "Lamač", "lat": 48.19298, "lng": 17.05078, "population": 7878}, {"name": "Svit", "lat": 49.06014, "lng": 20.20695, "population": 7700}, {"name": "Krupina", "lat": 48.3554, "lng": 19.06474, "population": 7520}, {"name": "Námestovo", "lat": 49.4079, "lng": 19.48032, "population": 7502}, {"name": "Hurbanovo", "lat": 47.86984, "lng": 18.19233, "population": 7472}, {"name": "Vrútky", "lat": 49.11328, "lng": 18.91714, "population": 7424}, {"name": "Kráľovský Chlmec", "lat": 48.42336, "lng": 21.97944, "population": 7391}, {"name": "Jarovnice", "lat": 49.05801, "lng": 21.05806, "population": 7247}, {"name": "Ivanka pri Dunaji", "lat": 48.18675, "lng": 17.2554, "population": 7175}, {"name": "Hriňová", "lat": 48.57787, "lng": 19.52574, "population": 7045}, {"name": "Turzovka", "lat": 49.40429, "lng": 18.62258, "population": 7043}, {"name": "Liptovský Hrádok", "lat": 49.03962, "lng": 19.72335, "population": 7038}, {"name": "Trstená", "lat": 49.36101, "lng": 19.61249, "population": 7019}, {"name": "Šahy", "lat": 48.07408, "lng": 18.94946, "population": 6992}, {"name": "Veľký Šariš", "lat": 49.04114, "lng": 21.1993, "population": 6976}, {"name": "Nová Baňa", "lat": 48.42305, "lng": 18.64037, "population": 6881}, {"name": "Tornaľa", "lat": 48.41915, "lng": 20.32566, "population": 6766}, {"name": "Spišská Belá", "lat": 49.18725, "lng": 20.45948, "population": 6663}, {"name": "Hnúšťa", "lat": 48.57257, "lng": 19.95395, "population": 6616}, {"name": "Želiezovce", "lat": 48.05075, "lng": 18.65421, "population": 6588}, {"name": "Chorvátsky Grob", "lat": 48.22787, "lng": 17.29094, "population": 6575}, {"name": "Krásno nad Kysucou", "lat": 49.39572, "lng": 18.83431, "population": 6563}, {"name": "Lipany", "lat": 49.15376, "lng": 20.96382, "population": 6450}, {"name": "Nemšová", "lat": 48.96702, "lng": 18.11892, "population": 6266}, {"name": "Turčianske Teplice", "lat": 48.86225, "lng": 18.86048, "population": 6213}, {"name": "Čaňa", "lat": 48.60994, "lng": 21.32622, "population": 6109}, {"name": "Beluša", "lat": 49.0649, "lng": 18.32685, "population": 6022}, {"name": "Svätý Jur", "lat": 48.25216, "lng": 17.21539, "population": 5983}, {"name": "Sobrance", "lat": 48.74455, "lng": 22.18136, "population": 5848}, {"name": "Gelnica", "lat": 48.85584, "lng": 20.93713, "population": 5829}, {"name": "Rajec", "lat": 49.08899, "lng": 18.64007, "population": 5818}, {"name": "Medzilaborce", "lat": 49.27195, "lng": 21.90073, "population": 5776}, {"name": "Oščadnica", "lat": 49.43572, "lng": 18.8819, "population": 5745}, {"name": "Žarnovica", "lat": 48.48123, "lng": 18.71565, "population": 5699}, {"name": "Vrbové", "lat": 48.61973, "lng": 17.7226, "population": 5637}, {"name": "Raková", "lat": 49.44481, "lng": 18.73792, "population": 5626}, {"name": "Zákamenné", "lat": 49.38859, "lng": 19.29294, "population": 5575}, {"name": "Bratislava - Vajnory", "lat": 48.20563, "lng": 17.20759, "population": 5484}, {"name": "Rovinka", "lat": 48.09783, "lng": 17.23632, "population": 5445}, {"name": "Lendak", "lat": 49.23441, "lng": 20.35646, "population": 5422}, {"name": "Sládkovičovo", "lat": 48.20137, "lng": 17.63852, "population": 5415}, {"name": "Ilava", "lat": 48.99769, "lng": 18.2353, "population": 5411}, {"name": "Šenkvice", "lat": 48.29817, "lng": 17.34959, "population": 5352}, {"name": "Gabčíkovo", "lat": 47.89211, "lng": 17.57884, "population": 5265}, {"name": "Skalité", "lat": 49.49664, "lng": 18.89706, "population": 5231}, {"name": "Poltár", "lat": 48.43094, "lng": 19.79408, "population": 5178}, {"name": "Rabča", "lat": 49.48602, "lng": 19.47618, "population": 5160}, {"name": "Dobšiná", "lat": 48.82073, "lng": 20.36988, "population": 5143}, {"name": "Tvrdošovce", "lat": 48.0945, "lng": 18.06686, "population": 5075}, {"name": "Slovenský Grob", "lat": 48.2576, "lng": 17.27428, "population": 5041}, {"name": "Nesvady", "lat": 47.92819, "lng": 18.12675, "population": 5037}, {"name": "Bojnice", "lat": 48.78511, "lng": 18.5864, "population": 5024}, {"name": "Dvory nad Žitavou", "lat": 47.98946, "lng": 18.26717, "population": 5015}, {"name": "Čierny Balog", "lat": 48.74722, "lng": 19.65125, "population": 4963}, {"name": "Gbely", "lat": 48.718, "lng": 17.11628, "population": 4885}, {"name": "Šaštín-Stráže", "lat": 48.63721, "lng": 17.1453, "population": 4851}, {"name": "Rudňany", "lat": 48.8816, "lng": 20.68015, "population": 4838}, {"name": "Sliač", "lat": 48.61668, "lng": 19.13715, "population": 4786}, {"name": "Kremnica", "lat": 48.70519, "lng": 18.91834, "population": 4783}, {"name": "Veľké Úľany", "lat": 48.16647, "lng": 17.57519, "population": 4780}, {"name": "Sučany", "lat": 49.09988, "lng": 18.99073, "population": 4722}, {"name": "Miloslavov", "lat": 48.10585, "lng": 17.29997, "population": 4705}, {"name": "Pavlovce nad Uhom", "lat": 48.61092, "lng": 22.06902, "population": 4701}, {"name": "Markušovce", "lat": 48.91193, "lng": 20.6307, "population": 4658}, {"name": "Brezová pod Bradlom", "lat": 48.66349, "lng": 17.53905, "population": 4632}, {"name": "Ľubica", "lat": 49.11667, "lng": 20.45, "population": 4610}, {"name": "Cífer", "lat": 48.3175, "lng": 17.48987, "population": 4610}, {"name": "Valaliky", "lat": 48.63575, "lng": 21.29876, "population": 4605}, {"name": "Čierne", "lat": 49.49361, "lng": 18.81954, "population": 4419}, {"name": "Rusovce", "lat": 48.05495, "lng": 17.14457, "population": 4388}, {"name": "Cabaj-Čápor", "lat": 48.24445, "lng": 18.02899, "population": 4318}, {"name": "Močenok", "lat": 48.22774, "lng": 17.93075, "population": 4316}, {"name": "Veľké Zálužie", "lat": 48.30841, "lng": 17.93874, "population": 4315}, {"name": "Teplička nad Váhom", "lat": 49.22435, "lng": 18.79995, "population": 4296}, {"name": "Komjatice", "lat": 48.15704, "lng": 18.17027, "population": 4223}, {"name": "Strážske", "lat": 48.8735, "lng": 21.83668, "population": 4201}, {"name": "Palárikovo", "lat": 48.04366, "lng": 18.07199, "population": 4176}, {"name": "Šoporňa", "lat": 48.2537, "lng": 17.81659, "population": 4143}, {"name": "Nováky", "lat": 48.71106, "lng": 18.53389, "population": 4140}, {"name": "Turany", "lat": 49.11754, "lng": 19.04029, "population": 4123}, {"name": "Medzev", "lat": 48.70041, "lng": 20.89367, "population": 4111}, {"name": "Most pri Bratislave", "lat": 48.14204, "lng": 17.27085, "population": 4094}, {"name": "Bošany", "lat": 48.57883, "lng": 18.24864, "population": 4094}, {"name": "Terchová", "lat": 49.25895, "lng": 19.02935, "population": 4073}, {"name": "Štiavnik", "lat": 49.23838, "lng": 18.46714, "population": 4034}, {"name": "Jelka", "lat": 48.14545, "lng": 17.51126, "population": 4026}, {"name": "Oravská Polhora", "lat": 49.52721, "lng": 19.44069, "population": 4025}, {"name": "Kúty", "lat": 48.66, "lng": 17.02819, "population": 4009}, {"name": "Medné", "lat": 49.08558, "lng": 18.28899, "population": 4007}, {"name": "Giraltovce", "lat": 49.11398, "lng": 21.51731, "population": 3994}, {"name": "Malinovo", "lat": 48.15446, "lng": 17.29677, "population": 3968}, {"name": "Nižná", "lat": 49.31046, "lng": 19.52428, "population": 3948}, {"name": "Leopoldov", "lat": 48.44575, "lng": 17.76458, "population": 3946}, {"name": "Borský Mikuláš", "lat": 48.6309, "lng": 17.21448, "population": 3942}, {"name": "Trenčianske Teplice", "lat": 48.91063, "lng": 18.16691, "population": 3931}, {"name": "Veľká Ida", "lat": 48.59595, "lng": 21.16795, "population": 3917}, {"name": "Kanianka", "lat": 48.8164, "lng": 18.58541, "population": 3878}, {"name": "Trstice", "lat": 48.01446, "lng": 17.80843, "population": 3876}, {"name": "Varín", "lat": 49.20229, "lng": 18.87073, "population": 3853}, {"name": "Lednické Rovne", "lat": 49.0665, "lng": 18.28479, "population": 3844}, {"name": "Vysoké Tatry", "lat": 49.13637, "lng": 20.24386, "population": 3810}, {"name": "Podbrezová", "lat": 48.80928, "lng": 19.52596, "population": 3795}, {"name": "Hanušovce nad Topľou", "lat": 49.02691, "lng": 21.50414, "population": 3782}, {"name": "Marcelová", "lat": 47.7879, "lng": 18.28262, "population": 3778}, {"name": "Spišské Podhradie", "lat": 49.00088, "lng": 20.75307, "population": 3769}, {"name": "Lehota pod Vtáčnikom", "lat": 48.69138, "lng": 18.59944, "population": 3751}, {"name": "Veľké Rovné", "lat": 49.29127, "lng": 18.58427, "population": 3740}, {"name": "Kecerovce", "lat": 48.82523, "lng": 21.41483, "population": 3736}, {"name": "Veľké Leváre", "lat": 48.50403, "lng": 17.00358, "population": 3730}, {"name": "Bystrany", "lat": 48.9487, "lng": 20.75976, "population": 3729}, {"name": "Lomnička", "lat": 49.24972, "lng": 20.56955, "population": 3728}, {"name": "Jasov", "lat": 48.68259, "lng": 20.97566, "population": 3718}, {"name": "Okoč", "lat": 47.88757, "lng": 17.80867, "population": 3710}, {"name": "Liptovské Sliače", "lat": 49.06299, "lng": 19.39236, "population": 3707}, {"name": "Novoť", "lat": 49.42853, "lng": 19.26542, "population": 3692}, {"name": "Ľubotice", "lat": 49.0116, "lng": 21.27366, "population": 3684}, {"name": "Turňa nad Bodvou", "lat": 48.59999, "lng": 20.88093, "population": 3682}, {"name": "Bánov", "lat": 48.04662, "lng": 18.18813, "population": 3672}, {"name": "Tešedíkovo", "lat": 48.10609, "lng": 17.8519, "population": 3656}, {"name": "Tisovec", "lat": 48.67738, "lng": 19.94364, "population": 3648}, {"name": "Čachtice", "lat": 48.71226, "lng": 17.78704, "population": 3636}, {"name": "Štrba", "lat": 49.05913, "lng": 20.07975, "population": 3600}, {"name": "Zborov", "lat": 49.36871, "lng": 21.308, "population": 3599}, {"name": "Rohožník", "lat": 48.45682, "lng": 17.16763, "population": 3594}, {"name": "Nálepkovo", "lat": 48.84236, "lng": 20.62032, "population": 3583}, {"name": "Valaská", "lat": 48.80756, "lng": 19.57096, "population": 3583}, {"name": "Zlaté Klasy", "lat": 48.11667, "lng": 17.41667, "population": 3580}, {"name": "Zohor", "lat": 48.31667, "lng": 16.98333, "population": 3573}, {"name": "Trenčianska Turná", "lat": 48.85141, "lng": 18.01974, "population": 3561}, {"name": "Tlmače", "lat": 48.28926, "lng": 18.53152, "population": 3542}, {"name": "Oravská Lesná", "lat": 49.36672, "lng": 19.18093, "population": 3500}, {"name": "Belá nad Cirochou", "lat": 48.97496, "lng": 22.10759, "population": 3402}, {"name": "Rakúsy", "lat": 49.18844, "lng": 20.38181, "population": 3398}, {"name": "Trenčianske Stankovce", "lat": 48.83976, "lng": 17.98513, "population": 3378}, {"name": "Horná Poruba", "lat": 48.94147, "lng": 18.30497, "population": 3361}, {"name": "Svrčinovec", "lat": 49.48091, "lng": 18.79623, "population": 3358}, {"name": "Prakovce", "lat": 48.81588, "lng": 20.89607, "population": 3344}, {"name": "Lužianky", "lat": 48.34908, "lng": 18.029, "population": 3338}, {"name": "Zámutov", "lat": 48.90144, "lng": 21.55698, "population": 3337}, {"name": "Spišské Vlachy", "lat": 48.94746, "lng": 20.79574, "population": 3313}, {"name": "Dedinka pri Dunaji", "lat": 48.18215, "lng": 17.35207, "population": 3309}, {"name": "Bátorove Kosihy", "lat": 47.8294, "lng": 18.42016, "population": 3305}, {"name": "Rosina", "lat": 49.18333, "lng": 18.76667, "population": 3283}, {"name": "Horná Súča", "lat": 48.97289, "lng": 17.97706, "population": 3281}, {"name": "Huncovce", "lat": 49.11501, "lng": 20.37672, "population": 3277}, {"name": "Horné Saliby", "lat": 48.12311, "lng": 17.7589, "population": 3262}, {"name": "Slovenská Ľupča", "lat": 48.76532, "lng": 19.27549, "population": 3260}, {"name": "Hviezdoslavov", "lat": 48.0679, "lng": 17.34787, "population": 3253}, {"name": "Pata", "lat": 48.27746, "lng": 17.82298, "population": 3241}, {"name": "Smolenice", "lat": 48.50478, "lng": 17.43067, "population": 3240}, {"name": "Hranovnica", "lat": 48.98947, "lng": 20.30903, "population": 3204}, {"name": "Neded", "lat": 48.02116, "lng": 17.96175, "population": 3203}, {"name": "Vlčany", "lat": 48.03097, "lng": 17.95214, "population": 3193}, {"name": "Nesluša", "lat": 49.3177, "lng": 18.74154, "population": 3178}, {"name": "Richnava", "lat": 48.92653, "lng": 20.92146, "population": 3174}, {"name": "Jelšava", "lat": 48.62908, "lng": 20.24141, "population": 3168}, {"name": "Jarovce", "lat": 48.06498, "lng": 17.11303, "population": 3147}, {"name": "Gajary", "lat": 48.46667, "lng": 16.93333, "population": 3145}, {"name": "Topoľníky", "lat": 47.96748, "lng": 17.79016, "population": 3135}, {"name": "Hruštín", "lat": 49.32393, "lng": 19.34695, "population": 3133}, {"name": "Klenovec", "lat": 48.59564, "lng": 19.89073, "population": 3129}, {"name": "Nitrianske Pravno", "lat": 48.86839, "lng": 18.63364, "population": 3116}, {"name": "Podhorany", "lat": 49.23973, "lng": 20.4801, "population": 3102}, {"name": "Mútne", "lat": 49.46231, "lng": 19.31964, "population": 3092}, {"name": "Lehnice", "lat": 48.05577, "lng": 17.46337, "population": 3075}, {"name": "Podolínec", "lat": 49.25869, "lng": 20.536, "population": 3053}, {"name": "Nová Dedinka", "lat": 48.1861, "lng": 17.35629, "population": 3052}, {"name": "Lozorno", "lat": 48.33364, "lng": 17.04322, "population": 3052}, {"name": "Dolná Súča", "lat": 48.96079, "lng": 18.03202, "population": 3050}, {"name": "Vechec", "lat": 48.87295, "lng": 21.63012, "population": 3046}, {"name": "Likavka", "lat": 49.09256, "lng": 19.31162, "population": 3031}, {"name": "Rajecké Teplice", "lat": 49.12716, "lng": 18.68653, "population": 3023}, {"name": "Veľký Biel", "lat": 48.21335, "lng": 17.3608, "population": 3013}, {"name": "Liesek", "lat": 49.36122, "lng": 19.67491, "population": 3002}, {"name": "Závod", "lat": 48.54494, "lng": 17.03028, "population": 2993}, {"name": "Oravské Veselé", "lat": 49.46601, "lng": 19.38338, "population": 2991}, {"name": "Nová ľubovňa", "lat": 49.27024, "lng": 20.68352, "population": 2986}, {"name": "Vysoká nad Kysucou", "lat": 49.37852, "lng": 18.54408, "population": 2984}, {"name": "Veľký Kýr", "lat": 48.18245, "lng": 18.15733, "population": 2975}, {"name": "Mojmírovce", "lat": 48.20735, "lng": 18.06581, "population": 2963}, {"name": "Polomka", "lat": 48.85229, "lng": 19.85247, "population": 2959}, {"name": "Višňové", "lat": 49.16083, "lng": 18.78427, "population": 2951}, {"name": "Spišský Štiavnik", "lat": 48.99373, "lng": 20.35852, "population": 2949}, {"name": "Spisska Sobota", "lat": 49.06487, "lng": 20.31784, "population": 2909}, {"name": "Vrakúň", "lat": 47.94293, "lng": 17.60113, "population": 2835}, {"name": "Selice", "lat": 48.09584, "lng": 17.9643, "population": 2826}, {"name": "Ivanka pri Nitre", "lat": 48.24295, "lng": 18.11617, "population": 2818}, {"name": "Tekovské Lužany", "lat": 48.09865, "lng": 18.53787, "population": 2810}, {"name": "Viničné", "lat": 48.27188, "lng": 17.30227, "population": 2800}, {"name": "Krásnohorské Podhradie", "lat": 48.65292, "lng": 20.59866, "population": 2785}, {"name": "Košeca", "lat": 49.00888, "lng": 18.26061, "population": 2766}, {"name": "Tomášov", "lat": 48.14249, "lng": 17.33565, "population": 2763}, {"name": "Staškov", "lat": 49.421, "lng": 18.68694, "population": 2748}, {"name": "Stará Bystrica", "lat": 49.3474, "lng": 18.94906, "population": 2740}, {"name": "Svätý Peter", "lat": 47.84151, "lng": 18.25413, "population": 2712}, {"name": "Žehra", "lat": 48.9796, "lng": 20.7917, "population": 2707}, {"name": "Trnovec nad Váhom", "lat": 48.1493, "lng": 17.93104, "population": 2692}, {"name": "Horné Srnie", "lat": 48.99183, "lng": 18.10012, "population": 2679}, {"name": "Hamuliakovo", "lat": 48.03809, "lng": 17.25031, "population": 2679}, {"name": "Pribeta", "lat": 47.89977, "lng": 18.31505, "population": 2671}, {"name": "Nová Bystrica", "lat": 49.34496, "lng": 19.01446, "population": 2631}, {"name": "Topoľčianky", "lat": 48.41615, "lng": 18.41282, "population": 2617}, {"name": "Kopčany", "lat": 48.78718, "lng": 17.11347, "population": 2553}, {"name": "Plavecký Štvrtok", "lat": 48.37512, "lng": 16.99863, "population": 2548}, {"name": "Moravské Lieskové", "lat": 48.81931, "lng": 17.79533, "population": 2540}, {"name": "Budmerice", "lat": 48.35756, "lng": 17.40715, "population": 2483}, {"name": "Biely Kostol", "lat": 48.36755, "lng": 17.53036, "population": 2477}, {"name": "Ladce", "lat": 49.04002, "lng": 18.28746, "population": 2462}, {"name": "Soblahov", "lat": 48.8644, "lng": 18.07262, "population": 2441}, {"name": "Limbach", "lat": 48.2897, "lng": 17.22344, "population": 2423}, {"name": "Nitrianske Hrnčiarovce", "lat": 48.33277, "lng": 18.12835, "population": 2412}, {"name": "Častá", "lat": 48.3992, "lng": 17.36349, "population": 2396}, {"name": "Diakovce", "lat": 48.1345, "lng": 17.842, "population": 2380}, {"name": "Svodín", "lat": 47.91054, "lng": 18.49967, "population": 2372}, {"name": "Kysucký Lieskovec", "lat": 49.33884, "lng": 18.81608, "population": 2361}, {"name": "Boleráz", "lat": 48.46808, "lng": 17.49478, "population": 2349}, {"name": "Pruské", "lat": 49.02636, "lng": 18.21257, "population": 2328}, {"name": "Kamenica nad Cirochou", "lat": 48.93144, "lng": 21.99701, "population": 2318}, {"name": "Marianka", "lat": 48.24903, "lng": 17.064, "population": 2314}, {"name": "Kráľová pri Senci", "lat": 48.19621, "lng": 17.45019, "population": 2304}, {"name": "Klokočov", "lat": 48.81358, "lng": 22.02985, "population": 2287}, {"name": "Brodské", "lat": 48.69089, "lng": 17.01448, "population": 2285}, {"name": "Zemianska Olča", "lat": 47.80808, "lng": 17.86652, "population": 2281}, {"name": "Suchá nad Parnou", "lat": 48.41104, "lng": 17.48696, "population": 2275}, {"name": "Zálesie", "lat": 49.32607, "lng": 20.38744, "population": 2243}, {"name": "Zbehy", "lat": 48.36558, "lng": 18.01814, "population": 2238}, {"name": "Hrnčiarovce nad Parnou", "lat": 48.34261, "lng": 17.56767, "population": 2231}, {"name": "Vysoká pri Morave", "lat": 48.32944, "lng": 16.91191, "population": 2221}, {"name": "Majcichov", "lat": 48.28462, "lng": 17.63032, "population": 2213}, {"name": "Lehota", "lat": 48.31157, "lng": 17.98948, "population": 2212}, {"name": "Branč", "lat": 48.21869, "lng": 18.14423, "population": 2204}, {"name": "Výčapy-Opatovce", "lat": 48.41149, "lng": 18.08223, "population": 2200}, {"name": "Trhová Hradská", "lat": 47.98995, "lng": 17.76109, "population": 2198}, {"name": "Zálesie", "lat": 48.16614, "lng": 17.27497, "population": 2194}, {"name": "Zborov nad Bystricou", "lat": 49.37967, "lng": 18.88661, "population": 2191}, {"name": "Brusno", "lat": 48.79237, "lng": 19.38219, "population": 2188}, {"name": "Spišská Stará Ves", "lat": 49.38297, "lng": 20.35959, "population": 2187}, {"name": "Drietoma", "lat": 48.89421, "lng": 17.95205, "population": 2187}, {"name": "Holice", "lat": 47.99305, "lng": 17.48179, "population": 2159}, {"name": "Selce", "lat": 48.76263, "lng": 19.20302, "population": 2140}, {"name": "Zemné", "lat": 47.9836, "lng": 17.99492, "population": 2136}, {"name": "Trhovište", "lat": 48.69822, "lng": 21.80465, "population": 2133}, {"name": "Gbelce", "lat": 47.85185, "lng": 18.51277, "population": 2133}, {"name": "Nb", "lat": 48.81753, "lng": 18.64564, "population": 2127}, {"name": "Moravský Svätý Ján", "lat": 48.59158, "lng": 17.00223, "population": 2126}, {"name": "Devín", "lat": 48.17444, "lng": 16.98418, "population": 2124}, {"name": "Čečejovce", "lat": 48.59499, "lng": 21.06514, "population": 2119}, {"name": "Jelenec", "lat": 48.37844, "lng": 18.22351, "population": 2116}, {"name": "Láb", "lat": 48.36667, "lng": 16.98333, "population": 2116}, {"name": "Pružina", "lat": 49.01633, "lng": 18.47997, "population": 2113}, {"name": "Nedožery-Brezany", "lat": 48.82429, "lng": 18.64458, "population": 2112}, {"name": "Kotešová", "lat": 49.24141, "lng": 18.59911, "population": 2112}, {"name": "Horná Potôň", "lat": 48.0389, "lng": 17.49038, "population": 2111}, {"name": "Kálna", "lat": 48.19784, "lng": 18.51976, "population": 2057}, {"name": "Lysá pod Makytou", "lat": 49.19713, "lng": 18.19636, "population": 2051}, {"name": "Jarok", "lat": 48.27541, "lng": 17.95913, "population": 2046}, {"name": "Badín", "lat": 48.66375, "lng": 19.12319, "population": 2045}, {"name": "Rišňovce", "lat": 48.36857, "lng": 17.89328, "population": 2039}, {"name": "Malá Maňa", "lat": 48.1452, "lng": 18.26453, "population": 2004}, {"name": "Komjatná", "lat": 49.14694, "lng": 19.24355, "population": 2000}, {"name": "Kostolište", "lat": 48.45, "lng": 16.98333, "population": 1994}, {"name": "Imeľ", "lat": 47.90403, "lng": 18.14169, "population": 1972}, {"name": "Horné Orešany", "lat": 48.46738, "lng": 17.44101, "population": 1962}, {"name": "Olešná", "lat": 49.4236, "lng": 18.67624, "population": 1929}, {"name": "Zuberec", "lat": 49.26164, "lng": 19.61473, "population": 1928}, {"name": "Strekov", "lat": 47.9042, "lng": 18.41652, "population": 1926}, {"name": "Ochodnica", "lat": 49.34891, "lng": 18.78962, "population": 1912}, {"name": "Mužla", "lat": 47.79302, "lng": 18.59931, "population": 1912}, {"name": "Dolný Štál", "lat": 47.93333, "lng": 17.71667, "population": 1911}, {"name": "Omšenie", "lat": 48.90071, "lng": 18.22555, "population": 1907}, {"name": "Kameničná", "lat": 47.81886, "lng": 18.03861, "population": 1894}, {"name": "Golianovo", "lat": 48.27189, "lng": 18.19185, "population": 1889}, {"name": "Horná Kráľová", "lat": 48.24531, "lng": 17.91311, "population": 1879}, {"name": "Dohňany", "lat": 49.14867, "lng": 18.28571, "population": 1858}, {"name": "Záhorská Ves", "lat": 48.38071, "lng": 16.84882, "population": 1858}, {"name": "Rudina", "lat": 49.2888, "lng": 18.73545, "population": 1850}, {"name": "Veľký Lapáš", "lat": 48.29105, "lng": 18.181, "population": 1840}, {"name": "Margecany", "lat": 48.89245, "lng": 21.01197, "population": 1833}, {"name": "Báhoň", "lat": 48.30944, "lng": 17.44519, "population": 1833}, {"name": "Pusté Úľany", "lat": 48.23151, "lng": 17.57389, "population": 1832}, {"name": "Kráľová nad Váhom", "lat": 48.16923, "lng": 17.84221, "population": 1824}, {"name": "Kvetoslavov", "lat": 48.05516, "lng": 17.33816, "population": 1823}, {"name": "Kolárovice", "lat": 49.2723, "lng": 18.53329, "population": 1817}, {"name": "Blatné", "lat": 48.2666, "lng": 17.41919, "population": 1817}, {"name": "Vydrany", "lat": 48.01806, "lng": 17.58588, "population": 1816}, {"name": "Iža", "lat": 47.75198, "lng": 18.22763, "population": 1802}, {"name": "Župčany", "lat": 49.01205, "lng": 21.15874, "population": 1799}, {"name": "Krížovany nad Dudváhom", "lat": 48.33333, "lng": 17.66667, "population": 1797}, {"name": "Andovce", "lat": 47.99337, "lng": 18.10513, "population": 1792}, {"name": "Kuchyňa", "lat": 48.406, "lng": 17.15727, "population": 1788}, {"name": "Lazany", "lat": 48.82076, "lng": 18.61946, "population": 1769}, {"name": "Radošovce", "lat": 48.77189, "lng": 17.28118, "population": 1766}, {"name": "Tesárske Mlyňany", "lat": 48.33405, "lng": 18.35358, "population": 1766}, {"name": "Sekule", "lat": 48.601, "lng": 17.00379, "population": 1738}, {"name": "Svederník", "lat": 49.26527, "lng": 18.6467, "population": 1733}, {"name": "Žihárec", "lat": 48.07231, "lng": 17.88674, "population": 1727}, {"name": "Zemianske Kostoľany", "lat": 48.68761, "lng": 18.52677, "population": 1725}, {"name": "Orechová Potôň", "lat": 48.01708, "lng": 17.53806, "population": 1725}, {"name": "Beladice", "lat": 48.34408, "lng": 18.28988, "population": 1723}, {"name": "Ružindol", "lat": 48.37177, "lng": 17.49113, "population": 1714}, {"name": "Zákopčie", "lat": 49.40728, "lng": 18.73178, "population": 1710}, {"name": "Makov", "lat": 49.37053, "lng": 18.48044, "population": 1710}, {"name": "Studienka", "lat": 48.52647, "lng": 17.13733, "population": 1706}, {"name": "Sl’ažany", "lat": 48.39487, "lng": 18.32848, "population": 1706}, {"name": "Štvrtok na Ostrove", "lat": 48.09924, "lng": 17.35395, "population": 1700}, {"name": "Alekšince", "lat": 48.36641, "lng": 17.9479, "population": 1692}, {"name": "Chocholná-Velčice", "lat": 48.87083, "lng": 17.94807, "population": 1681}, {"name": "Horný Vadičov", "lat": 49.27501, "lng": 18.89366, "population": 1667}, {"name": "Jakubov", "lat": 48.41667, "lng": 16.93333, "population": 1665}, {"name": "Modrý Kameň", "lat": 48.2413, "lng": 19.33495, "population": 1664}, {"name": "Voderady", "lat": 48.27701, "lng": 17.5594, "population": 1661}, {"name": "Sološnica", "lat": 48.46521, "lng": 17.23073, "population": 1656}, {"name": "Plevník-Drienové", "lat": 49.16667, "lng": 18.5, "population": 1638}, {"name": "Malcov", "lat": 49.30469, "lng": 21.05964, "population": 1635}, {"name": "Lúčky", "lat": 49.12944, "lng": 19.40228, "population": 1635}, {"name": "Štefanov", "lat": 48.67918, "lng": 17.20105, "population": 1630}, {"name": "Kováčová", "lat": 48.60148, "lng": 19.10252, "population": 1626}, {"name": "Dulovce", "lat": 47.86915, "lng": 18.27284, "population": 1623}, {"name": "Petrovice", "lat": 49.25787, "lng": 18.52349, "population": 1620}, {"name": "Vinné", "lat": 48.80965, "lng": 21.96757, "population": 1608}, {"name": "Borský Svätý Jur", "lat": 48.61366, "lng": 17.04658, "population": 1602}, {"name": "Svinná", "lat": 48.78782, "lng": 18.16372, "population": 1596}, {"name": "Veľké Blahovo", "lat": 48.00371, "lng": 17.57641, "population": 1593}, {"name": "Reca", "lat": 48.2311, "lng": 17.45399, "population": 1581}, {"name": "Poniky", "lat": 48.71239, "lng": 19.29275, "population": 1573}, {"name": "Bolešov", "lat": 48.9873, "lng": 18.15509, "population": 1553}, {"name": "Hybe", "lat": 49.04439, "lng": 19.82895, "population": 1548}, {"name": "Kolíňany", "lat": 48.36059, "lng": 18.19693, "population": 1532}, {"name": "Vrbov", "lat": 49.08764, "lng": 20.4253, "population": 1525}, {"name": "Veľký Cetín", "lat": 48.22033, "lng": 18.19087, "population": 1524}, {"name": "Radoľa", "lat": 49.2942, "lng": 18.79244, "population": 1522}, {"name": "Obyce", "lat": 48.42738, "lng": 18.45632, "population": 1521}, {"name": "Nová Lesná", "lat": 49.12253, "lng": 20.26737, "population": 1520}, {"name": "Opatovce nad Nitrou", "lat": 48.76448, "lng": 18.57169, "population": 1517}, {"name": "Telgárt", "lat": 48.85156, "lng": 20.18849, "population": 1506}, {"name": "Bohdanovce nad Trnavou", "lat": 48.42996, "lng": 17.5447, "population": 1494}, {"name": "Sobotište", "lat": 48.73511, "lng": 17.40732, "population": 1483}, {"name": "Kamenín", "lat": 47.88844, "lng": 18.64313, "population": 1479}, {"name": "Kalinkovo", "lat": 48.0598, "lng": 17.25353, "population": 1478}, {"name": "Malé Leváre", "lat": 48.5, "lng": 16.98333, "population": 1472}, {"name": "Veľké Ludince", "lat": 47.96271, "lng": 18.5114, "population": 1470}, {"name": "Kútniky", "lat": 47.96667, "lng": 17.66667, "population": 1469}, {"name": "Okoličná na Ostrove", "lat": 47.80382, "lng": 17.92093, "population": 1462}, {"name": "Hrubá Borša", "lat": 48.18135, "lng": 17.48266, "population": 1459}, {"name": "Domaša", "lat": 48.00632, "lng": 18.65904, "population": 1446}, {"name": "Hrochoť", "lat": 48.65567, "lng": 19.31284, "population": 1433}, {"name": "Bíňa", "lat": 47.92238, "lng": 18.64157, "population": 1433}, {"name": "Kostolné Kračany", "lat": 47.98258, "lng": 17.57607, "population": 1429}, {"name": "Vyšné Ružbachy", "lat": 49.30387, "lng": 20.56558, "population": 1419}, {"name": "Čierna Voda", "lat": 48.12902, "lng": 17.65145, "population": 1417}, {"name": "Dolná Streda", "lat": 48.26914, "lng": 17.74994, "population": 1410}, {"name": "Trstín", "lat": 48.52684, "lng": 17.4657, "population": 1395}, {"name": "Dolné Orešany", "lat": 48.43966, "lng": 17.42942, "population": 1394}, {"name": "Medzibrod", "lat": 48.7943, "lng": 19.35372, "population": 1388}, {"name": "Klasov", "lat": 48.27625, "lng": 18.25937, "population": 1383}, {"name": "Vištuk", "lat": 48.33343, "lng": 17.39945, "population": 1382}, {"name": "Poruba", "lat": 48.83218, "lng": 18.5913, "population": 1370}, {"name": "Dudince", "lat": 48.17135, "lng": 18.88782, "population": 1369}, {"name": "Ždiar", "lat": 49.271, "lng": 20.26239, "population": 1368}, {"name": "Oravský Podzámok", "lat": 49.25939, "lng": 19.3569, "population": 1367}, {"name": "Veľké Dvorníky", "lat": 48.00112, "lng": 17.65634, "population": 1364}, {"name": "Svätoplukovo", "lat": 48.22817, "lng": 18.05582, "population": 1363}, {"name": "Ohrady", "lat": 47.98333, "lng": 17.7, "population": 1359}, {"name": "Nová Ves nad Žitavou", "lat": 48.2903, "lng": 18.32306, "population": 1356}, {"name": "Mošovce", "lat": 48.90944, "lng": 18.88484, "population": 1353}, {"name": "Predmier", "lat": 49.19855, "lng": 18.53274, "population": 1352}, {"name": "Žirany", "lat": 48.37766, "lng": 18.17514, "population": 1349}, {"name": "Jablonové", "lat": 48.34752, "lng": 17.09949, "population": 1349}, {"name": "Hájske", "lat": 48.25, "lng": 17.86667, "population": 1337}, {"name": "Brekov", "lat": 48.90641, "lng": 21.83606, "population": 1323}, {"name": "Pribylina", "lat": 49.0995, "lng": 19.79427, "population": 1323}, {"name": "Bošáca", "lat": 48.82901, "lng": 17.84037, "population": 1321}, {"name": "Vlkanová", "lat": 48.67129, "lng": 19.14607, "population": 1319}, {"name": "Farná", "lat": 48.00577, "lng": 18.5112, "population": 1317}, {"name": "Kavečany", "lat": 48.77592, "lng": 21.20587, "population": 1310}, {"name": "Vinosady", "lat": 48.31142, "lng": 17.29042, "population": 1300}, {"name": "Chminianska Nová Ves", "lat": 49.00332, "lng": 21.08251, "population": 1299}, {"name": "Dojč", "lat": 48.6775, "lng": 17.25432, "population": 1299}, {"name": "Pravenec", "lat": 48.85613, "lng": 18.64901, "population": 1298}, {"name": "Cigeľ", "lat": 48.71382, "lng": 18.63997, "population": 1287}, {"name": "Modrany", "lat": 47.82356, "lng": 18.35201, "population": 1281}, {"name": "Čáry", "lat": 48.6551, "lng": 17.09134, "population": 1279}, {"name": "Svätý Anton", "lat": 48.41923, "lng": 18.9401, "population": 1278}, {"name": "Čilizská Radvaň", "lat": 47.83447, "lng": 17.69614, "population": 1277}, {"name": "Nové Sady", "lat": 48.41725, "lng": 17.98191, "population": 1263}, {"name": "Horný Bar", "lat": 47.94834, "lng": 17.46275, "population": 1263}, {"name": "Kolta", "lat": 48.01742, "lng": 18.41244, "population": 1257}, {"name": "Čechynce", "lat": 48.25489, "lng": 18.15958, "population": 1254}, {"name": "Ľubietová", "lat": 48.74531, "lng": 19.36101, "population": 1251}, {"name": "Trenčianske Jastrabie", "lat": 48.80129, "lng": 18.10852, "population": 1242}, {"name": "Tureň", "lat": 48.19126, "lng": 17.38941, "population": 1232}, {"name": "Krasňany", "lat": 49.21491, "lng": 18.88718, "population": 1231}, {"name": "Bajč", "lat": 47.92624, "lng": 18.20744, "population": 1227}, {"name": "Mnichova Lehota", "lat": 48.83565, "lng": 18.06074, "population": 1225}, {"name": "Udavské", "lat": 48.97559, "lng": 21.96514, "population": 1221}, {"name": "Sokolce", "lat": 47.8517, "lng": 17.82763, "population": 1215}, {"name": "Dolné Kočkovce", "lat": 49.09435, "lng": 18.32528, "population": 1214}, {"name": "Podvysoká", "lat": 49.41269, "lng": 18.66458, "population": 1210}, {"name": "Tužina", "lat": 48.89491, "lng": 18.61566, "population": 1207}, {"name": "Unín", "lat": 48.72525, "lng": 17.21452, "population": 1203}, {"name": "Malý Lapáš", "lat": 48.30022, "lng": 18.18195, "population": 1203}, {"name": "Čataj", "lat": 48.27049, "lng": 17.47873, "population": 1203}, {"name": "Číčov", "lat": 47.7712, "lng": 17.77305, "population": 1202}, {"name": "Nána", "lat": 47.81357, "lng": 18.69646, "population": 1198}, {"name": "Lazy pod Makytou", "lat": 49.22537, "lng": 18.21391, "population": 1196}, {"name": "Banská Belá", "lat": 48.47466, "lng": 18.93367, "population": 1194}, {"name": "Hostie", "lat": 48.45289, "lng": 18.43826, "population": 1186}, {"name": "Pohronský Ruskov", "lat": 47.97364, "lng": 18.6563, "population": 1185}, {"name": "Lenartov", "lat": 49.31043, "lng": 21.02144, "population": 1182}, {"name": "Skalka nad Váhom", "lat": 48.92635, "lng": 18.07039, "population": 1177}, {"name": "Dolné Obdokovce", "lat": 48.31325, "lng": 18.21048, "population": 1175}, {"name": "Nemce", "lat": 48.76222, "lng": 19.18532, "population": 1171}, {"name": "Čierne Kľačany", "lat": 48.3517, "lng": 18.41827, "population": 1164}, {"name": "Lukáčovce", "lat": 48.39552, "lng": 17.93784, "population": 1157}, {"name": "Zamarovce", "lat": 48.91092, "lng": 18.04977, "population": 1155}, {"name": "Povina", "lat": 49.31173, "lng": 18.81, "population": 1143}, {"name": "Obid", "lat": 47.77804, "lng": 18.6471, "population": 1141}, {"name": "Čakajovce", "lat": 48.37164, "lng": 18.03829, "population": 1140}, {"name": "Moča", "lat": 47.76095, "lng": 18.40786, "population": 1136}, {"name": "Dubová", "lat": 48.36676, "lng": 17.33965, "population": 1134}, {"name": "Báb", "lat": 48.30995, "lng": 17.86665, "population": 1133}, {"name": "Abrahám", "lat": 48.24838, "lng": 17.61882, "population": 1131}, {"name": "Kurima", "lat": 49.22631, "lng": 21.45361, "population": 1129}, {"name": "Kľušov", "lat": 49.24533, "lng": 21.25913, "population": 1119}, {"name": "Fričovce", "lat": 49.0167, "lng": 20.96302, "population": 1117}, {"name": "Malachov", "lat": 48.71025, "lng": 19.08969, "population": 1115}, {"name": "Vozokany", "lat": 48.56562, "lng": 17.99455, "population": 1114}, {"name": "Rohovce", "lat": 47.99612, "lng": 17.41142, "population": 1114}, {"name": "Abraham", "lat": 48.51527, "lng": 18.6194, "population": 1112}, {"name": "Čalovec", "lat": 47.81707, "lng": 17.98771, "population": 1111}, {"name": "Kráľovičove Kračany", "lat": 47.98532, "lng": 17.55063, "population": 1107}, {"name": "Machulince", "lat": 48.41182, "lng": 18.43223, "population": 1101}, {"name": "Pohranice", "lat": 48.33095, "lng": 18.17912, "population": 1099}, {"name": "Čenkovce", "lat": 48.10616, "lng": 17.43007, "population": 1099}, {"name": "Hažlín", "lat": 49.3012, "lng": 21.42006, "population": 1093}, {"name": "Tekovské Nemce", "lat": 48.3561, "lng": 18.53014, "population": 1093}, {"name": "Šajdíkove Humence", "lat": 48.65425, "lng": 17.26762, "population": 1085}, {"name": "Snežnica", "lat": 49.26535, "lng": 18.7872, "population": 1079}, {"name": "Streženice", "lat": 49.1078, "lng": 18.30581, "population": 1075}, {"name": "Slovenské Nové Mesto", "lat": 48.40105, "lng": 21.66719, "population": 1074}, {"name": "Petrova Ves", "lat": 48.71943, "lng": 17.1619, "population": 1072}, {"name": "Sokolníky", "lat": 48.38308, "lng": 18.10901, "population": 1069}, {"name": "Cerová", "lat": 48.56997, "lng": 18.52066, "population": 1065}, {"name": "Michal na Ostrove", "lat": 48.01667, "lng": 17.51667, "population": 1062}, {"name": "Košecké Podhradie", "lat": 48.97266, "lng": 18.30632, "population": 1060}, {"name": "Hrubý Šúr", "lat": 48.17041, "lng": 17.42086, "population": 1058}, {"name": "Kľačno", "lat": 48.91582, "lng": 18.659, "population": 1057}, {"name": "Doľany", "lat": 48.41611, "lng": 17.3757, "population": 1056}, {"name": "Gerlachov", "lat": 49.31963, "lng": 21.11582, "population": 1055}, {"name": "Čeľadice", "lat": 48.32918, "lng": 18.23903, "population": 1051}, {"name": "Štitáre", "lat": 48.3505, "lng": 18.15968, "population": 1042}, {"name": "Hertník", "lat": 49.20715, "lng": 21.2376, "population": 1035}, {"name": "Čata", "lat": 47.95357, "lng": 18.65147, "population": 1035}, {"name": "Mikušovce", "lat": 49.06356, "lng": 18.20655, "population": 1030}, {"name": "Kamenný Most", "lat": 47.85124, "lng": 18.65639, "population": 1030}, {"name": "Rudinská", "lat": 49.31496, "lng": 18.71762, "population": 1022}, {"name": "Jablonec", "lat": 48.33204, "lng": 17.44789, "population": 1022}, {"name": "Maršová-Rašov", "lat": 49.18127, "lng": 18.51205, "population": 1020}, {"name": "Ivanovce", "lat": 48.83008, "lng": 17.90749, "population": 1012}, {"name": "Dolná Breznica", "lat": 49.08058, "lng": 18.26083, "population": 1011}, {"name": "Selec", "lat": 48.784, "lng": 17.99082, "population": 1010}, {"name": "Kružlov", "lat": 49.30854, "lng": 21.13376, "population": 1008}, {"name": "Koš", "lat": 48.74142, "lng": 18.58611, "population": 1005}]