[{"name": "Dakar", "lat": 14.6937, "lng": -17.44406, "population": 2646503}, {"name": "Touba", "lat": 14.86229, "lng": -15.87532, "population": 1120824}, {"name": "Pikine", "lat": 14.76457, "lng": -17.39071, "population": 874062}, {"name": "Guédiawaye", "lat": 14.77446, "lng": -17.40212, "population": 329659}, {"name": "Thiès", "lat": 14.78944, "lng": -16.92602, "population": 317763}, {"name": "Kaolack", "lat": 14.15197, "lng": -16.07259, "population": 298904}, {"name": "Rufisque", "lat": 14.71542, "lng": -17.27334, "population": 295459}, {"name": "Mbour", "lat": 14.42196, "lng": -16.96375, "population": 284189}, {"name": "Saint-Louis", "lat": 16.01793, "lng": -16.48962, "population": 254171}, {"name": "Thiès Nones", "lat": 14.78333, "lng": -16.96667, "population": 252320}, {"name": "Rufisque est", "lat": 14.7162, "lng": -17.27283, "population": 221066}, {"name": "Ziguinchor", "lat": 12.56801, "lng": -16.27326, "population": 214874}, {"name": "Diourbel", "lat": 14.64792, "lng": -16.24363, "population": 157554}, {"name": "Tambacounda", "lat": 13.77073, "lng": -13.66734, "population": 149071}, {"name": "Louga", "lat": 15.61867, "lng": -16.22436, "population": 113365}, {"name": "Kolda", "lat": 12.8939, "lng": -14.94125, "population": 103574}, {"name": "Tivaouane", "lat": 14.95186, "lng": -16.8152, "population": 102658}, {"name": "Mbaké", "lat": 14.79032, "lng": -15.90803, "population": 101451}, {"name": "Tiébo", "lat": 14.63333, "lng": -16.23333, "population": 100289}, {"name": "Keur Médoune", "lat": 14.75835, "lng": -15.90434, "population": 77255}, {"name": "Richard-Toll", "lat": 16.4625, "lng": -15.70083, "population": 73147}, {"name": "Dougnane", "lat": 14.95856, "lng": -16.86999, "population": 69556}, {"name": "Bargny", "lat": 14.69707, "lng": -17.23015, "population": 69242}, {"name": "Kaffrine", "lat": 14.10594, "lng": -15.5508, "population": 57307}, {"name": "Bargny Guèdj", "lat": 14.68698, "lng": -17.22808, "population": 51188}, {"name": "Bargny Ngoude", "lat": 14.69407, "lng": -17.2353, "population": 51188}, {"name": "Nguékhokh", "lat": 14.51255, "lng": -17.00447, "population": 47964}, {"name": "Diamniadio", "lat": 14.72051, "lng": -17.1816, "population": 47759}, {"name": "Joal", "lat": 14.17309, "lng": -16.84929, "population": 45903}, {"name": "Dara", "lat": 15.34844, "lng": -15.47993, "population": 45530}, {"name": "Vélingara", "lat": 13.15, "lng": -14.11667, "population": 45431}, {"name": "Sébikhotane", "lat": 14.74521, "lng": -17.13783, "population": 42839}, {"name": "Sali", "lat": 14.44111, "lng": -17.01944, "population": 41811}, {"name": "Niakoul Rab", "lat": 14.78421, "lng": -17.27361, "population": 41570}, {"name": "Jaxaay Parcelle Niakoul Rap", "lat": 14.77474, "lng": -17.28024, "population": 41570}, {"name": "Mboro", "lat": 15.14051, "lng": -16.88682, "population": 40811}, {"name": "Fatick", "lat": 14.33236, "lng": -16.40513, "population": 39361}, {"name": "Bambey", "lat": 14.70074, "lng": -16.45911, "population": 37374}, {"name": "Médina Gounas", "lat": 13.13607, "lng": -13.75566, "population": 36588}, {"name": "N’diareme limamoulaye", "lat": 14.78148, "lng": -17.3841, "population": 35171}, {"name": "Le Plateau", "lat": 14.66222, "lng": -17.43972, "population": 34713}, {"name": "Ndibène Dahra", "lat": 15.3338, "lng": -15.4766, "population": 32941}, {"name": "Sédhiou", "lat": 12.70806, "lng": -15.55694, "population": 31511}, {"name": "Koungheul", "lat": 13.98333, "lng": -14.8, "population": 31149}, {"name": "Kédougou", "lat": 12.55561, "lng": -12.18076, "population": 30051}, {"name": "Bignona", "lat": 12.81028, "lng": -16.22639, "population": 28642}, {"name": "Matam", "lat": 15.65587, "lng": -13.25544, "population": 27695}, {"name": "Mékhé", "lat": 15.1097, "lng": -16.6218, "population": 27566}, {"name": "Ouro Sogui", "lat": 15.60588, "lng": -13.3223, "population": 27222}, {"name": "Kahone", "lat": 14.15838, "lng": -16.03572, "population": 26376}, {"name": "Diaoubé", "lat": 12.91667, "lng": -14.16667, "population": 26165}, {"name": "Poukham Un", "lat": 14.35751, "lng": -16.41235, "population": 24146}, {"name": "Pout", "lat": 14.77099, "lng": -17.06107, "population": 23728}, {"name": "Kayar", "lat": 14.91893, "lng": -17.11978, "population": 23585}, {"name": "Dagana", "lat": 16.47667, "lng": -15.6, "population": 21750}, {"name": "Koungneul Sossé", "lat": 13.96667, "lng": -14.81667, "population": 20942}, {"name": "Nioro du Rip", "lat": 13.75, "lng": -15.8, "population": 20784}, {"name": "Guinguinéo", "lat": 14.2695, "lng": -15.94508, "population": 20340}, {"name": "Khombole", "lat": 14.76361, "lng": -16.6916, "population": 20321}, {"name": "Ndioum", "lat": 16.51293, "lng": -14.64706, "population": 20270}, {"name": "Thiadiaye", "lat": 14.42038, "lng": -16.70258, "population": 20168}, {"name": "Kébémer", "lat": 15.365, "lng": -16.4339, "population": 19902}, {"name": "Linguère", "lat": 15.3953, "lng": -15.1193, "population": 19191}, {"name": "Goudomp", "lat": 12.57778, "lng": -15.87222, "population": 18239}, {"name": "Gandiaye", "lat": 14.24362, "lng": -16.27231, "population": 18239}, {"name": "Koumpentoum", "lat": 13.98333, "lng": -14.56667, "population": 15723}, {"name": "Gossas Village", "lat": 14.48409, "lng": -16.11377, "population": 15630}, {"name": "Kbombole", "lat": 14.76667, "lng": -16.7, "population": 15587}, {"name": "Kanel", "lat": 15.4916, "lng": -13.17627, "population": 15244}, {"name": "Thilogne", "lat": 15.92389, "lng": -13.65778, "population": 15044}, {"name": "Mermoz Boabab", "lat": 14.70649, "lng": -17.47581, "population": 15000}, {"name": "Sokone", "lat": 13.88333, "lng": -16.36667, "population": 14745}, {"name": "Karang", "lat": 13.60778, "lng": -16.42694, "population": 14624}, {"name": "Nganda", "lat": 13.83333, "lng": -15.41667, "population": 14369}, {"name": "Sintiou Bamambé", "lat": 15.36736, "lng": -13.13471, "population": 13823}, {"name": "Kidira", "lat": 14.45668, "lng": -12.21659, "population": 13551}, {"name": "Bakel", "lat": 14.90238, "lng": -12.45935, "population": 13329}, {"name": "Ndofane", "lat": 13.91667, "lng": -15.93333, "population": 12898}, {"name": "Passi", "lat": 13.98333, "lng": -16.26667, "population": 12571}, {"name": "Madina Wandifa", "lat": 13.05794, "lng": -15.64319, "population": 12205}, {"name": "Sangalkam", "lat": 14.78023, "lng": -17.22761, "population": 11915}, {"name": "Podor", "lat": 16.64892, "lng": -14.96073, "population": 11608}, {"name": "Ross-Bétio", "lat": 16.27333, "lng": -16.13778, "population": 11588}, {"name": "Diofior", "lat": 14.1899, "lng": -16.66089, "population": 11312}, {"name": "Kounkané", "lat": 12.93333, "lng": -14.08333, "population": 10798}, {"name": "Keur Madiabel", "lat": 13.85, "lng": -16.06667, "population": 10542}, {"name": "Nguidjlone", "lat": 15.94052, "lng": -13.35138, "population": 10444}, {"name": "Tilogne Tokossel", "lat": 15.96667, "lng": -13.6, "population": 10441}, {"name": "Amady Ounaré", "lat": 15.34714, "lng": -13.01647, "population": 10175}, {"name": "Rosso", "lat": 16.42028, "lng": -15.79834, "population": 9923}, {"name": "Marsassoum", "lat": 12.8275, "lng": -15.98056, "population": 9815}, {"name": "Ngaparou", "lat": 14.46419, "lng": -17.05619, "population": 9525}, {"name": "Haïré Lao", "lat": 16.39697, "lng": -14.32196, "population": 9472}, {"name": "Poponguine", "lat": 14.55735, "lng": -17.11396, "population": 8651}, {"name": "Tionk Essil", "lat": 12.78556, "lng": -16.52167, "population": 8389}, {"name": "Sibassor", "lat": 14.18645, "lng": -16.15947, "population": 8141}, {"name": "Pal", "lat": 15.9139, "lng": -16.2599, "population": 8133}, {"name": "Guéoul", "lat": 15.48333, "lng": -16.35, "population": 8003}, {"name": "Malèm Hodar", "lat": 14.08873, "lng": -15.29197, "population": 7879}, {"name": "Waoundé", "lat": 15.26367, "lng": -12.86821, "population": 7816}, {"name": "Diawara", "lat": 15.02196, "lng": -12.54374, "population": 7541}, {"name": "Ndiagne", "lat": 15.4094, "lng": -16.0707, "population": 7496}, {"name": "Ndiamakouta", "lat": 13.31667, "lng": -15.63333, "population": 7179}, {"name": "Gaé", "lat": 16.56667, "lng": -15.45, "population": 7148}, {"name": "Birkelane", "lat": 14.12933, "lng": -15.74409, "population": 7011}, {"name": "Sémé", "lat": 15.19422, "lng": -12.94482, "population": 6891}, {"name": "Goudiry", "lat": 14.18146, "lng": -12.71803, "population": 6867}, {"name": "Foundiougne", "lat": 14.12272, "lng": -16.46916, "population": 6824}, {"name": "Bounkiling", "lat": 13.05, "lng": -15.7, "population": 6416}, {"name": "Goléré", "lat": 16.25575, "lng": -14.10165, "population": 6373}, {"name": "Dabo", "lat": 12.88333, "lng": -14.48333, "population": 6069}, {"name": "Odobéré", "lat": 15.56142, "lng": -13.09862, "population": 6029}, {"name": "Diouloulou", "lat": 13.05, "lng": -16.6, "population": 5920}, {"name": "Guédé", "lat": 16.53839, "lng": -14.80412, "population": 5600}, {"name": "Somone", "lat": 14.48649, "lng": -17.07524, "population": 5448}, {"name": "Dembankané", "lat": 15.08893, "lng": -12.6998, "population": 5293}, {"name": "Galoya Toucouleur", "lat": 16.07397, "lng": -13.85894, "population": 5288}, {"name": "Soum", "lat": 14.08179, "lng": -16.48127, "population": 5044}, {"name": "Soubalo Mbouba", "lat": 16.20055, "lng": -14.01081, "population": 4896}, {"name": "Mbouba", "lat": 16.19002, "lng": -14.01562, "population": 4896}, {"name": "Samine Escale", "lat": 12.49417, "lng": -15.63139, "population": 4848}, {"name": "Ndiandane", "lat": 16.5924, "lng": -14.99152, "population": 4839}, {"name": "Tanaf", "lat": 12.64972, "lng": -15.42611, "population": 4831}, {"name": "Oussouye", "lat": 12.485, "lng": -16.54694, "population": 4828}, {"name": "Salémata", "lat": 12.6285, "lng": -12.8166, "population": 4752}, {"name": "Diakhao", "lat": 14.46317, "lng": -16.28943, "population": 4398}, {"name": "Diattakounda", "lat": 12.56972, "lng": -15.68417, "population": 4356}, {"name": "Mbos Ndiamb", "lat": 14.46829, "lng": -16.06702, "population": 4347}, {"name": "Mbos", "lat": 14.36484, "lng": -15.74584, "population": 4347}, {"name": "Kotiari", "lat": 13.9, "lng": -13.45, "population": 4243}, {"name": "Pété", "lat": 16.10798, "lng": -13.94973, "population": 4211}, {"name": "Fas", "lat": 14.35379, "lng": -16.03434, "population": 3904}, {"name": "Sélikénié", "lat": 12.7, "lng": -14.73333, "population": 3677}, {"name": "Saré Yoba Diéga", "lat": 12.76583, "lng": -15.1075, "population": 3551}, {"name": "Warang", "lat": 14.37349, "lng": -16.94366, "population": 3500}, {"name": "Oualaldé", "lat": 16.50625, "lng": -14.20368, "population": 3224}, {"name": "Séndou", "lat": 14.67193, "lng": -17.2048, "population": 3125}, {"name": "Pata", "lat": 13.43333, "lng": -14.95, "population": 3118}, {"name": "Diana Malari", "lat": 12.84833, "lng": -15.24972, "population": 3066}, {"name": "Démèt", "lat": 16.56442, "lng": -14.28065, "population": 3042}, {"name": "Demette", "lat": 16.56759, "lng": -14.2796, "population": 3042}, {"name": "Ranérou", "lat": 15.3, "lng": -13.96667, "population": 3027}, {"name": "Polel Diaoubé", "lat": 15.26667, "lng": -13.0, "population": 3000}, {"name": "Médina-Yorofoula", "lat": 13.3, "lng": -14.71667, "population": 3000}, {"name": "Saraya", "lat": 12.83167, "lng": -11.75381, "population": 2726}, {"name": "Bodé", "lat": 16.44434, "lng": -14.35229, "population": 2466}, {"name": "Adéane", "lat": 12.63, "lng": -16.01694, "population": 2115}, {"name": "Malèm Niani", "lat": 13.93333, "lng": -14.3, "population": 2080}, {"name": "Cap Skirring", "lat": 12.35011, "lng": -16.71707, "population": 1822}, {"name": "Mbeuleukhé", "lat": 15.6487, "lng": -15.3492, "population": 1510}]