[{"name": "São Tomé", "lat": 0.33756, "lng": 6.7299, "population": 53300}, {"name": "Neves", "lat": 0.35671, "lng": 6.54897, "population": 8391}, {"name": "Água Izé", "lat": 0.21953, "lng": 6.72782, "population": 7445}, {"name": "Folha Fede", "lat": 0.284, "lng": 6.684, "population": 6685}, {"name": "Riboque", "lat": 0.33525, "lng": 6.72318, "population": 4640}, {"name": "Almas", "lat": 0.29907, "lng": 6.74467, "population": 4601}, {"name": "Pantufo", "lat": 0.31503, "lng": 6.74348, "population": 3977}, {"name": "Dona Eugénia", "lat": 0.13982, "lng": 6.61121, "population": 3605}, {"name": "São Marçal", "lat": 0.31917, "lng": 6.72608, "population": 2866}, {"name": "Rosema", "lat": 0.3509, "lng": 6.56948, "population": 2587}, {"name": "Agua Porca", "lat": 0.33086, "lng": 6.71058, "population": 2048}, {"name": "Bombom", "lat": 0.31075, "lng": 6.72816, "population": 1754}, {"name": "Almeirim", "lat": 0.31666, "lng": 6.71666, "population": 1591}, {"name": "Piedade", "lat": 0.29581, "lng": 6.66424, "population": 1408}, {"name": "Micolo", "lat": 0.40314, "lng": 6.68857, "population": 1404}, {"name": "Ribeira Afonso", "lat": 0.196, "lng": 6.701, "population": 1300}, {"name": "Changra", "lat": 0.34985, "lng": 6.68657, "population": 1224}, {"name": "Santo António", "lat": 1.63943, "lng": 7.41951, "population": 1156}, {"name": "Lemos", "lat": 0.29922, "lng": 6.69847, "population": 1136}, {"name": "Santo Amaro", "lat": 0.36574, "lng": 6.68855, "population": 1063}, {"name": "Cova Barro", "lat": 0.31499, "lng": 6.7383, "population": 1026}, {"name": "Micondo", "lat": 0.17121, "lng": 6.67729, "population": 1022}, {"name": "Riboque Santana", "lat": 0.24745, "lng": 6.7369, "population": 1001}, {"name": "Trindade", "lat": 0.29667, "lng": 6.68139, "population": 0}, {"name": "São João dos Angolares", "lat": 0.13417, "lng": 6.64944, "population": 0}, {"name": "Guadalupe", "lat": 0.37917, "lng": 6.6375, "population": 0}]