[{"name": "Aleppo", "lat": 36.20124, "lng": 37.16117, "population": 2098210}, {"name": "Damascus", "lat": 33.5102, "lng": 36.29128, "population": 1569394}, {"name": "Homs", "lat": 34.72405, "lng": 36.72559, "population": 775404}, {"name": "Latakia", "lat": 35.53125, "lng": 35.79088, "population": 709000}, {"name": "Ar Raqqah", "lat": 35.95283, "lng": 39.00788, "population": 531952}, {"name": "Ḩamāh", "lat": 35.13179, "lng": 36.75783, "population": 460602}, {"name": "Ţarţūs", "lat": 34.88902, "lng": 35.88659, "population": 458327}, {"name": "Al Ḩasakah", "lat": 36.50237, "lng": 40.74772, "population": 422445}, {"name": "Deir ez-Zor", "lat": 35.33588, "lng": 40.14084, "population": 271800}, {"name": "Al Bāb", "lat": 36.37051, "lng": 37.5157, "population": 130745}, {"name": "Idlib", "lat": 35.93062, "lng": 36.63393, "population": 128840}, {"name": "Dūmā", "lat": 33.57175, "lng": 36.4027, "population": 111864}, {"name": "Manbij", "lat": 36.52815, "lng": 37.95495, "population": 99497}, {"name": "Dar‘ā", "lat": 32.61889, "lng": 36.10213, "population": 97969}, {"name": "As Salamīyah", "lat": 35.01127, "lng": 37.05324, "population": 94887}, {"name": "Al-Tabqa", "lat": 35.83758, "lng": 38.54828, "population": 87880}, {"name": "Dārayyā", "lat": 33.45835, "lng": 36.23256, "population": 71596}, {"name": "I‘zāz", "lat": 36.58662, "lng": 37.04628, "population": 66138}, {"name": "Jablah", "lat": 35.36211, "lng": 35.92759, "population": 65915}, {"name": "As Safīrah", "lat": 36.07696, "lng": 37.37251, "population": 63708}, {"name": "As-Suwayda", "lat": 32.70896, "lng": 36.56951, "population": 59052}, {"name": "Ālbū Kamāl", "lat": 34.45226, "lng": 40.91854, "population": 57572}, {"name": "At Tall", "lat": 33.61033, "lng": 36.3107, "population": 55561}, {"name": "Al Mayādīn", "lat": 35.01982, "lng": 40.45154, "population": 54534}, {"name": "Ar Rastan", "lat": 34.92667, "lng": 36.73241, "population": 53152}, {"name": "Kabbasin", "lat": 36.43274, "lng": 37.56857, "population": 51230}, {"name": "Tadmur", "lat": 34.5624, "lng": 38.28402, "population": 51015}, {"name": "‘Ayn al ‘Arab", "lat": 36.89095, "lng": 38.35347, "population": 50000}, {"name": "An Nabk", "lat": 34.02403, "lng": 36.72848, "population": 49372}, {"name": "Khān Shaykhūn", "lat": 35.44208, "lng": 36.65095, "population": 48975}, {"name": "‘Afrīn", "lat": 36.51194, "lng": 36.86954, "population": 48693}, {"name": "Kafranbel", "lat": 35.61376, "lng": 36.56449, "population": 45652}, {"name": "‘Irbīn", "lat": 33.53719, "lng": 36.36635, "population": 42474}, {"name": "Al Quşayr", "lat": 34.5078, "lng": 36.58029, "population": 41062}, {"name": "Yabrūd", "lat": 33.96921, "lng": 36.65729, "population": 40502}, {"name": "Jisr ash Shughūr", "lat": 35.81418, "lng": 36.31983, "population": 39311}, {"name": "Bāniyās", "lat": 35.18188, "lng": 35.94871, "population": 39066}, {"name": "Tallbīsah", "lat": 34.84072, "lng": 36.73092, "population": 38491}, {"name": "Ḩarastā", "lat": 33.55869, "lng": 36.36515, "population": 37348}, {"name": "Al Qunayţirah", "lat": 33.12595, "lng": 35.82461, "population": 36143}, {"name": "Tādif", "lat": 36.34814, "lng": 37.5309, "population": 34670}, {"name": "Saraqib", "lat": 35.86447, "lng": 36.80591, "population": 34231}, {"name": "Jayrūd", "lat": 33.80709, "lng": 36.73861, "population": 32352}, {"name": "Maşyāf", "lat": 35.0653, "lng": 36.3406, "population": 32262}, {"name": "Ma‘arratmişrīn", "lat": 36.01152, "lng": 36.67183, "population": 32163}, {"name": "Al Qaryatayn", "lat": 34.22956, "lng": 37.24066, "population": 31748}, {"name": "Salqīn", "lat": 36.13865, "lng": 36.45244, "population": 31608}, {"name": "Ţafas", "lat": 32.73709, "lng": 36.06654, "population": 31249}, {"name": "Şūrān", "lat": 35.29193, "lng": 36.74848, "population": 30716}, {"name": "Binnish", "lat": 35.95664, "lng": 36.7138, "population": 30354}, {"name": "Jāsim", "lat": 32.99125, "lng": 36.06093, "population": 30283}, {"name": "Burj Islām", "lat": 35.67396, "lng": 35.80259, "population": 30000}, {"name": "Tallkalakh", "lat": 34.66842, "lng": 36.25995, "population": 29754}, {"name": "Az Zabadānī", "lat": 33.72488, "lng": 36.1005, "population": 29549}, {"name": "Ţayyibat al Imām", "lat": 35.26592, "lng": 36.71219, "population": 29259}, {"name": "Hajīn", "lat": 34.69508, "lng": 40.83138, "population": 29237}, {"name": "Inkhil", "lat": 33.01809, "lng": 36.12828, "population": 29076}, {"name": "Dayr Ḩāfir", "lat": 36.15694, "lng": 37.70778, "population": 28905}, {"name": "Şāfītā", "lat": 34.82099, "lng": 36.11773, "population": 27815}, {"name": "‘Āmūdā", "lat": 37.10417, "lng": 40.93, "population": 26821}, {"name": "Shaykh Miskīn", "lat": 32.82666, "lng": 36.16052, "population": 25920}, {"name": "Aş Şanamayn", "lat": 33.07186, "lng": 36.18316, "population": 25702}, {"name": "Tall Rif‘at", "lat": 36.47229, "lng": 37.09471, "population": 25658}, {"name": "Batabo", "lat": 36.13447, "lng": 36.73979, "population": 25560}, {"name": "Nubl", "lat": 36.37867, "lng": 36.99294, "population": 25546}, {"name": "Subaykhān", "lat": 34.85305, "lng": 40.59987, "population": 25514}, {"name": "Jarābulus", "lat": 36.8175, "lng": 38.01111, "population": 24997}, {"name": "Al Ḩirāk", "lat": 32.74948, "lng": 36.30582, "population": 23784}, {"name": "Al Kiswah", "lat": 33.3581, "lng": 36.2419, "population": 23526}, {"name": "Ḩalfāyā", "lat": 35.26014, "lng": 36.60581, "population": 23403}, {"name": "Kafr Takhārīm", "lat": 36.1168, "lng": 36.51522, "population": 22436}, {"name": "Ad Dānā", "lat": 36.21254, "lng": 36.76998, "population": 21987}, {"name": "Kafr Zaytā", "lat": 35.37425, "lng": 36.6033, "population": 21845}, {"name": "Kafr Lāhā", "lat": 34.89469, "lng": 36.49582, "population": 21819}, {"name": "Ad Darbāsīyah", "lat": 37.07279, "lng": 40.65199, "population": 21481}, {"name": "Qārah", "lat": 34.15558, "lng": 36.74284, "population": 20656}, {"name": "Qaţanā", "lat": 33.43757, "lng": 36.07888, "population": 18511}, {"name": "Maharda", "lat": 35.2479, "lng": 36.5725, "population": 17578}, {"name": "Al Quţayfah", "lat": 33.73848, "lng": 36.60071, "population": 16118}, {"name": "Shahbā", "lat": 32.85237, "lng": 36.62847, "population": 14784}, {"name": "Mūrak", "lat": 35.37615, "lng": 36.6897, "population": 14307}, {"name": "Izra‘", "lat": 32.86709, "lng": 36.25072, "population": 13882}, {"name": "Jindayris", "lat": 36.39496, "lng": 36.6889, "population": 13661}, {"name": "Şalākhid", "lat": 32.87149, "lng": 36.57284, "population": 12842}, {"name": "Kafr Buhum", "lat": 35.05965, "lng": 36.69905, "population": 12194}, {"name": "Qabbāsīn", "lat": 36.30774, "lng": 38.15598, "population": 12000}, {"name": "Ad Duraykīsh", "lat": 34.89514, "lng": 36.14303, "population": 11918}, {"name": "Al Ghanţū", "lat": 34.82202, "lng": 36.69613, "population": 9412}, {"name": "Mukharram al Fawqānī", "lat": 34.81521, "lng": 37.08677, "population": 9112}, {"name": "As Sūsah", "lat": 34.53366, "lng": 40.95819, "population": 8797}, {"name": "Shaţḩah", "lat": 35.50509, "lng": 36.24377, "population": 8076}, {"name": "Tremseh", "lat": 35.27181, "lng": 36.50395, "population": 6927}, {"name": "Buq‘ātā", "lat": 33.20111, "lng": 35.77917, "population": 6528}, {"name": "Afis", "lat": 35.9069, "lng": 36.80419, "population": 6338}, {"name": "Dayr al ‘Aşāfīr", "lat": 33.46585, "lng": 36.42044, "population": 6209}, {"name": "Ma‘lūlā", "lat": 33.84529, "lng": 36.54514, "population": 5000}, {"name": "Jinnīyah", "lat": 36.31869, "lng": 38.91419, "population": 5000}, {"name": "Kaff al-Jaa", "lat": 35.08638, "lng": 36.20605, "population": 3500}, {"name": "Kafr Şaghīr", "lat": 36.29264, "lng": 37.2559, "population": 3130}, {"name": "Kafr Mūsá Al-Hmidiya", "lat": 34.58288, "lng": 36.53389, "population": 3000}, {"name": "Ayyūbīyah", "lat": 35.03288, "lng": 36.73578, "population": 1980}, {"name": "Lislāmīn", "lat": 35.85691, "lng": 36.9036, "population": 1022}, {"name": "Buşrá ash Shām", "lat": 32.5174, "lng": 36.48163, "population": 1000}, {"name": "Ayn Halaqim", "lat": 34.93998, "lng": 36.32212, "population": 0}, {"name": "Al Karāmah", "lat": 35.86865, "lng": 39.27803, "population": 0}, {"name": "‘Arīqah", "lat": 32.88994, "lng": 36.48342, "population": 0}, {"name": "Aş Şūrah aş Şaghīrah", "lat": 33.03247, "lng": 36.5742, "population": 0}, {"name": "Mūḩ Ḩasan", "lat": 35.23349, "lng": 40.3166, "population": 0}, {"name": "Wādī al ‘Uyūn", "lat": 35.00119, "lng": 36.18683, "population": 0}, {"name": "‘Uqayribāt", "lat": 35.0431, "lng": 37.46442, "population": 0}, {"name": "Tasīl", "lat": 32.83395, "lng": 35.96973, "population": 0}, {"name": "Tall Tamr", "lat": 36.65556, "lng": 40.37079, "population": 0}, {"name": "Tall Salḩab", "lat": 35.25884, "lng": 36.38461, "population": 0}, {"name": "Tall Ḩamīs", "lat": 36.75678, "lng": 41.39943, "population": 0}, {"name": "Talldaww", "lat": 34.87632, "lng": 36.524, "population": 0}, {"name": "Tall aḑ Ḑamān", "lat": 35.80776, "lng": 37.25378, "population": 0}, {"name": "Tall Abyaḑ", "lat": 36.69648, "lng": 38.95382, "population": 0}, {"name": "Tālīn", "lat": 35.14849, "lng": 36.03288, "population": 0}, {"name": "Taftanāz", "lat": 35.99832, "lng": 36.78579, "population": 0}, {"name": "Şūrān", "lat": 36.56579, "lng": 37.2127, "population": 0}, {"name": "As Suqaylibīyah", "lat": 35.36674, "lng": 36.39359, "population": 0}, {"name": "Şlinfah", "lat": 35.59822, "lng": 36.1877, "population": 0}, {"name": "Şirrīn ash Shamālīyah", "lat": 36.58838, "lng": 38.29788, "population": 0}, {"name": "Sirghāyā", "lat": 33.8104, "lng": 36.15787, "population": 0}, {"name": "Sinjār", "lat": 35.59011, "lng": 37.00472, "population": 0}, {"name": "Shuyūkh Taḩtānī", "lat": 36.75059, "lng": 38.07676, "population": 0}, {"name": "Shīn", "lat": 34.77863, "lng": 36.42366, "population": 0}, {"name": "Shaykh al Ḩadīd", "lat": 36.50069, "lng": 36.59945, "population": 0}, {"name": "Sharān", "lat": 36.62336, "lng": 36.93659, "population": 0}, {"name": "Shaqqā", "lat": 32.89773, "lng": 36.69653, "population": 0}, {"name": "Şaydnāyā", "lat": 33.69473, "lng": 36.37146, "population": 0}, {"name": "Sa‘sa‘", "lat": 33.28198, "lng": 36.01947, "population": 0}, {"name": "Sarmīn", "lat": 35.90403, "lng": 36.72501, "population": 0}, {"name": "Sulūk", "lat": 36.59596, "lng": 39.1299, "population": 0}, {"name": "Şalkhad", "lat": 32.492, "lng": 36.71114, "population": 0}, {"name": "Şaḩnāyā", "lat": 33.42531, "lng": 36.22552, "population": 0}, {"name": "Şadad", "lat": 34.31248, "lng": 36.92562, "population": 0}, {"name": "Şabbūrah", "lat": 35.15595, "lng": 37.20908, "population": 0}, {"name": "As Sab‘ Biyār", "lat": 33.77974, "lng": 37.68357, "population": 0}, {"name": "Ar Riqāmā", "lat": 34.53879, "lng": 36.91909, "population": 0}, {"name": "Rasm al Ḩarmal", "lat": 36.24486, "lng": 37.71607, "population": 0}, {"name": "Ra’s al ‘Ayn", "lat": 36.85034, "lng": 40.07055, "population": 0}, {"name": "Rankūs", "lat": 33.75623, "lng": 36.3883, "population": 0}, {"name": "Rājū", "lat": 36.67598, "lng": 36.66415, "population": 0}, {"name": "Al Quţaylibīyah", "lat": 35.29203, "lng": 36.01592, "population": 0}, {"name": "Qūrqīnā", "lat": 36.13849, "lng": 36.61247, "population": 0}, {"name": "Al Qaḩţānīyah", "lat": 37.029, "lng": 41.54596, "population": 0}, {"name": "Qasţal Ma‘āf", "lat": 35.82439, "lng": 35.95193, "population": 0}, {"name": "Al Qamşīyah", "lat": 35.03357, "lng": 36.01455, "population": 0}, {"name": "Qal‘at al Maḑīq", "lat": 35.41465, "lng": 36.39085, "population": 0}, {"name": "Qadsayyā", "lat": 33.54832, "lng": 36.21563, "population": 0}, {"name": "Nawá", "lat": 32.88646, "lng": 36.03905, "population": 0}, {"name": "Al Muzayrīb", "lat": 32.71084, "lng": 36.02751, "population": 0}, {"name": "Al Muzayri‘ah", "lat": 35.5318, "lng": 36.07003, "population": 0}, {"name": "Al Jalā’", "lat": 34.63346, "lng": 40.84054, "population": 0}, {"name": "Muḩambal", "lat": 35.78735, "lng": 36.4721, "population": 0}, {"name": "Mazra‘at Bayt Jinn", "lat": 33.32836, "lng": 35.92144, "population": 0}, {"name": "Maskanah", "lat": 35.96577, "lng": 38.04165, "population": 0}, {"name": "Mashtá al Ḩulw", "lat": 34.87462, "lng": 36.25099, "population": 0}, {"name": "Mas‘adah", "lat": 33.23203, "lng": 35.75572, "population": 0}, {"name": "Markadah", "lat": 35.74607, "lng": 40.75304, "population": 0}, {"name": "Māri‘", "lat": 36.48259, "lng": 37.19709, "population": 0}, {"name": "Malaḩ", "lat": 32.5068, "lng": 36.85377, "population": 0}, {"name": "Mahīn", "lat": 34.24168, "lng": 37.05843, "population": 0}, {"name": "Ma‘dān", "lat": 35.7552, "lng": 39.59835, "population": 0}, {"name": "Maḑāyā", "lat": 33.69032, "lng": 36.10354, "population": 0}, {"name": "Al Ma‘baţlī", "lat": 36.56246, "lng": 36.74292, "population": 0}, {"name": "Ma‘arrat an Nu‘mān", "lat": 35.6483, "lng": 36.67693, "population": 0}, {"name": "Kuwayris Sharqī", "lat": 36.16685, "lng": 37.53815, "population": 0}, {"name": "Kurnāz", "lat": 35.38972, "lng": 36.48773, "population": 0}, {"name": "Kinnsibbā", "lat": 35.7441, "lng": 36.164, "population": 0}, {"name": "Rabī‘ah", "lat": 35.78656, "lng": 36.03825, "population": 0}, {"name": "Khushām", "lat": 35.30088, "lng": 40.28916, "population": 0}, {"name": "Khirbat Tīn Nūr", "lat": 34.70122, "lng": 36.55658, "population": 0}, {"name": "Al Qabw", "lat": 34.84324, "lng": 36.45493, "population": 0}, {"name": "Khirbat al Ma‘azzah", "lat": 34.80454, "lng": 36.00077, "population": 0}, {"name": "Khirbat Ghazālah", "lat": 32.73376, "lng": 36.20455, "population": 0}, {"name": "Khanāşir", "lat": 35.78159, "lng": 37.49919, "population": 0}, {"name": "Khān Arnabah", "lat": 33.18378, "lng": 35.89158, "population": 0}, {"name": "Al Khafsah", "lat": 36.2311, "lng": 38.02172, "population": 0}, {"name": "Al Ghandūrah", "lat": 36.66945, "lng": 37.73251, "population": 0}, {"name": "Kassab", "lat": 35.92639, "lng": 35.9897, "population": 0}, {"name": "Ra’s al Khashūfah", "lat": 34.82653, "lng": 36.05167, "population": 0}, {"name": "Al Karīmah", "lat": 34.66941, "lng": 36.07546, "population": 0}, {"name": "Kafr Baţnā", "lat": 33.51168, "lng": 36.37273, "population": 0}, {"name": "Junaynat Raslān", "lat": 34.92789, "lng": 36.124, "population": 0}, {"name": "Jubb Ramlah", "lat": 35.20922, "lng": 36.43104, "population": 0}, {"name": "Jubb al Jarrāḩ", "lat": 34.83444, "lng": 37.32396, "population": 0}, {"name": "Al Jīzah", "lat": 32.57034, "lng": 36.31544, "population": 0}, {"name": "Jawbat Burghāl", "lat": 35.48995, "lng": 36.17473, "population": 0}, {"name": "Ar Rā‘ī", "lat": 36.61182, "lng": 37.4478, "population": 0}, {"name": "Al Jarnīyah", "lat": 36.16054, "lng": 38.23337, "population": 0}, {"name": "Jaramānā", "lat": 33.4862, "lng": 36.34614, "population": 0}, {"name": "Ḩisyā’", "lat": 34.41197, "lng": 36.75867, "population": 0}, {"name": "Ḩīsh", "lat": 35.54793, "lng": 36.64356, "population": 0}, {"name": "Ḩimmīn", "lat": 34.90035, "lng": 36.0401, "population": 0}, {"name": "Ḩarrān al ‘Awāmīd", "lat": 33.44885, "lng": 36.56001, "population": 0}, {"name": "Ḩuraytān", "lat": 36.28861, "lng": 37.08527, "population": 0}, {"name": "Ḩārim", "lat": 36.21176, "lng": 36.52078, "population": 0}, {"name": "Ḩarf al Musaytirah", "lat": 35.38808, "lng": 36.13439, "population": 0}, {"name": "Ḩarbinafsah", "lat": 34.93745, "lng": 36.62243, "population": 0}, {"name": "Ḩammām Wāşil", "lat": 35.07437, "lng": 36.08677, "population": 0}, {"name": "Ḩadīdah", "lat": 34.67337, "lng": 36.39734, "population": 0}, {"name": "Al Ḩāḑir", "lat": 35.99024, "lng": 37.05086, "population": 0}, {"name": "Ghabāghib", "lat": 33.18235, "lng": 36.22534, "population": 0}, {"name": "Al Furqlus", "lat": 34.60638, "lng": 37.08745, "population": 0}, {"name": "Al Fākhūrah", "lat": 35.49846, "lng": 36.00955, "population": 0}, {"name": "Duwayr Raslān", "lat": 34.9491, "lng": 36.18179, "population": 0}, {"name": "Aḑ Ḑumayr", "lat": 33.64389, "lng": 36.69376, "population": 0}, {"name": "Dhībbīn", "lat": 32.43691, "lng": 36.56332, "population": 0}, {"name": "Dhībān", "lat": 35.01498, "lng": 40.51028, "population": 0}, {"name": "Dayr ‘Aţīyah", "lat": 34.09541, "lng": 36.76791, "population": 0}, {"name": "Dārat ‘Izzah", "lat": 36.28247, "lng": 36.85216, "population": 0}, {"name": "Darkūsh", "lat": 35.9918, "lng": 36.39361, "population": 0}, {"name": "Dā‘il", "lat": 32.75355, "lng": 36.13076, "population": 0}, {"name": "Bulbul", "lat": 36.76947, "lng": 36.81969, "population": 0}, {"name": "Brummānat al Mashāyikh", "lat": 35.01883, "lng": 36.17083, "population": 0}, {"name": "Bi’r al Ḩulw al Wardīyah", "lat": 36.69694, "lng": 41.03528, "population": 0}, {"name": "Bdāmā", "lat": 35.81151, "lng": 36.19649, "population": 0}, {"name": "Ar Rawḑah", "lat": 35.07204, "lng": 35.91375, "population": 0}, {"name": "Barrī ash Sharqī", "lat": 34.98099, "lng": 37.20096, "population": 0}, {"name": "Banān", "lat": 35.97358, "lng": 37.30234, "population": 0}, {"name": "Babīlā", "lat": 33.47101, "lng": 36.33076, "population": 0}, {"name": "Az Ziyārah", "lat": 35.68482, "lng": 36.33867, "population": 0}, {"name": "Az Zarbah", "lat": 36.06771, "lng": 36.98012, "population": 0}, {"name": "‘Ayn ‘Īsá", "lat": 36.3855, "lng": 38.86228, "population": 0}, {"name": "‘Ayn at Tīnah", "lat": 35.56445, "lng": 36.10098, "population": 0}, {"name": "Sabbah", "lat": 34.90292, "lng": 36.23711, "population": 0}, {"name": "‘Ayn Shiqāq", "lat": 35.39441, "lng": 36.03012, "population": 0}, {"name": "‘Ayn ash Sharqīyah", "lat": 35.33169, "lng": 36.09973, "population": 0}, {"name": "‘Ayn al Fījah", "lat": 33.61529, "lng": 36.18285, "population": 0}, {"name": "‘Ayn al Bayḑā", "lat": 35.65599, "lng": 35.88871, "population": 0}, {"name": "‘Awaj", "lat": 34.90704, "lng": 36.40444, "population": 0}, {"name": "At Tibnī", "lat": 35.6117, "lng": 39.8181, "population": 0}, {"name": "Aţ Ţawāḩīn", "lat": 35.12751, "lng": 36.21444, "population": 0}, {"name": "At Tamāni‘ah", "lat": 35.45846, "lng": 36.74816, "population": 0}, {"name": "As Sukhnah", "lat": 34.88533, "lng": 38.8711, "population": 0}, {"name": "As Sīsnīyah", "lat": 34.78108, "lng": 36.14298, "population": 0}, {"name": "Al Mazra‘ah", "lat": 32.78152, "lng": 36.47838, "population": 0}, {"name": "As Sawdā", "lat": 34.98151, "lng": 35.94414, "population": 0}, {"name": "‘Assāl al Ward", "lat": 33.86453, "lng": 36.4139, "population": 0}, {"name": "Aş Şafşāfah", "lat": 34.73481, "lng": 36.05318, "population": 0}, {"name": "As Sabkhah", "lat": 35.81182, "lng": 39.26268, "population": 0}, {"name": "As Si‘in", "lat": 35.26375, "lng": 37.37402, "population": 0}, {"name": "Ash Shaykh Badr", "lat": 34.99174, "lng": 36.0835, "population": 0}, {"name": "Ash Shajarah", "lat": 32.77411, "lng": 35.88202, "population": 0}, {"name": "Ash Shaddādah", "lat": 36.05756, "lng": 40.73478, "population": 0}, {"name": "Arwād", "lat": 34.85604, "lng": 35.85854, "population": 0}, {"name": "Ar Ruḩaybah", "lat": 33.74424, "lng": 36.70394, "population": 0}, {"name": "Armanāz", "lat": 36.08363, "lng": 36.5031, "population": 0}, {"name": "Arīḩā", "lat": 35.81374, "lng": 36.60964, "population": 0}, {"name": "An Nashābīyah", "lat": 33.51051, "lng": 36.48569, "population": 0}, {"name": "Al Qurayyā", "lat": 32.54337, "lng": 36.59776, "population": 0}, {"name": "Al Qardāḩah", "lat": 35.45644, "lng": 36.05909, "population": 0}, {"name": "Al Qāmishlī", "lat": 37.05215, "lng": 41.23142, "population": 0}, {"name": "Al Qadmūs", "lat": 35.09855, "lng": 36.15984, "population": 0}, {"name": "Al Mushannaf", "lat": 32.74379, "lng": 36.77593, "population": 0}, {"name": "Al Musayfirah", "lat": 32.63263, "lng": 36.33977, "population": 0}, {"name": "Al Mulayḩah", "lat": 33.48522, "lng": 36.37561, "population": 0}, {"name": "Mismīyah", "lat": 33.12902, "lng": 36.39402, "population": 0}, {"name": "Al Mālikīyah", "lat": 37.17701, "lng": 42.14006, "population": 0}, {"name": "An Nāşirah", "lat": 34.78769, "lng": 36.28559, "population": 0}, {"name": "Al Jawādīyah", "lat": 36.9866, "lng": 41.82015, "population": 0}, {"name": "Al Jānūdīyah", "lat": 35.88469, "lng": 36.29108, "population": 0}, {"name": "Al Hinādī", "lat": 35.51324, "lng": 35.8744, "population": 0}, {"name": "Al Ḩawl", "lat": 36.39042, "lng": 41.14983, "population": 0}, {"name": "Al Ḩawāsh", "lat": 34.76004, "lng": 36.32127, "population": 0}, {"name": "Al Ḩamrā’", "lat": 35.315, "lng": 37.08632, "population": 0}, {"name": "Al Ḩamīdīyah", "lat": 34.71455, "lng": 35.95163, "population": 0}, {"name": "Al Ḩājib", "lat": 35.86409, "lng": 37.3968, "population": 0}, {"name": "Al Ḩaffah", "lat": 35.59824, "lng": 36.03006, "population": 0}, {"name": "Al Ghizlānīyah", "lat": 33.39671, "lng": 36.45491, "population": 0}, {"name": "Al Ghāriyah", "lat": 32.39332, "lng": 36.65067, "population": 0}, {"name": "Al Buşayrah", "lat": 35.15618, "lng": 40.42716, "population": 0}, {"name": "Al Bāriqīyah", "lat": 34.82924, "lng": 36.22863, "population": 0}, {"name": "Al Bahlūlīyah", "lat": 35.63679, "lng": 35.96022, "population": 0}, {"name": "Al Atārib", "lat": 36.13907, "lng": 36.82504, "population": 0}, {"name": "Al ‘Ashārah", "lat": 34.92133, "lng": 40.56007, "population": 0}, {"name": "Al ‘Arīmah", "lat": 36.47296, "lng": 37.72113, "population": 0}, {"name": "Al ‘Annāzah", "lat": 35.19503, "lng": 36.06571, "population": 0}, {"name": "Akhtarīn", "lat": 36.51072, "lng": 37.33571, "population": 0}, {"name": "Iḩsim", "lat": 35.72078, "lng": 36.55631, "population": 0}, {"name": "Ad Dīmās", "lat": 33.58739, "lng": 36.09262, "population": 0}, {"name": "Ad Dālīyah", "lat": 35.23605, "lng": 36.14371, "population": 0}, {"name": "Abū Qalqal", "lat": 36.43806, "lng": 38.11984, "population": 0}, {"name": "Abū az̧ Z̧uhūr", "lat": 35.74058, "lng": 37.0448, "population": 0}, {"name": "Al Ya‘rubīyah", "lat": 36.81138, "lng": 42.06206, "population": 0}, {"name": "‘Arīshah", "lat": 36.23154, "lng": 40.77214, "population": 0}, {"name": "‘Ayn an Nasr", "lat": 34.84113, "lng": 36.92837, "population": 0}, {"name": "Nāḩiyat as Sab‘ Biyār", "lat": 33.53228, "lng": 38.00818, "population": 0}, {"name": "Al Kasrah", "lat": 35.56743, "lng": 39.9202, "population": 0}, {"name": "Al Ḩajar al Aswad", "lat": 33.45759, "lng": 36.30419, "population": 0}, {"name": "Al Manşūrah", "lat": 35.83917, "lng": 38.74288, "population": 0}, {"name": "Bayt Yāshūţ", "lat": 35.31025, "lng": 36.11523, "population": 0}, {"name": "Qenterê", "lat": 36.5635, "lng": 36.72841, "population": 0}]