[{"name": "Providenciales", "lat": 21.78254, "lng": -72.25206, "population": 23769}, {"name": "Cockburn Town", "lat": 21.46122, "lng": -71.14188, "population": 3720}, {"name": "Five Cays Settlement", "lat": 21.75711, "lng": -72.26772, "population": 3592}, {"name": "Wheeland", "lat": 21.814, "lng": -72.28213, "population": 3210}, {"name": "The Bight Settlements", "lat": 21.7796, "lng": -72.20421, "population": 2288}, {"name": "Kew", "lat": 21.9134, "lng": -71.99265, "population": 1477}, {"name": "Blue Hills Settlements", "lat": 21.80658, "lng": -72.27659, "population": 1156}]