[{"name": "Nuku‘alofa", "lat": -21.13683, "lng": -175.20114, "population": 22400}, {"name": "Mu‘a", "lat": -21.18195, "lng": -175.11832, "population": 3900}, {"name": "Neiafu", "lat": -18.65144, "lng": -173.98354, "population": 3825}, {"name": "Haveluloto", "lat": -21.15216, "lng": -175.21333, "population": 3473}, {"name": "Tofoa-Koloua", "lat": -21.15555, "lng": -175.22922, "population": 3467}, {"name": "Vainī", "lat": -21.19292, "lng": -175.17678, "population": 3295}, {"name": "Ha'ateiho", "lat": -21.1776, "lng": -175.23291, "population": 2627}, {"name": "Popua", "lat": -21.1532, "lng": -175.1789, "population": 2335}, {"name": "Nukunuku", "lat": -21.13333, "lng": -175.3, "population": 2104}, {"name": "Fangale’ounga", "lat": -19.75285, "lng": -174.32257, "population": 2016}, {"name": "Pea", "lat": -21.17178, "lng": -175.23502, "population": 1991}, {"name": "Lapaha", "lat": -21.17735, "lng": -175.1172, "population": 1974}, {"name": "Houma", "lat": -21.17005, "lng": -175.30213, "population": 1932}, {"name": "Tatakamotonga", "lat": -21.18627, "lng": -175.12453, "population": 1840}, {"name": "Pangai", "lat": -19.81468, "lng": -174.35423, "population": 1738}, {"name": "Fua'amotu", "lat": -21.26403, "lng": -175.13902, "population": 1675}, {"name": "'Ohonua", "lat": -21.34135, "lng": -174.95656, "population": 1466}, {"name": "Leimātu'a", "lat": -18.59964, "lng": -173.98121, "population": 1425}, {"name": "Veitongo", "lat": -21.18478, "lng": -175.21251, "population": 1411}, {"name": "Hōfoa", "lat": -21.13135, "lng": -175.22733, "population": 1404}, {"name": "Tokomololo", "lat": -21.17656, "lng": -175.24512, "population": 1314}, {"name": "Kolonga", "lat": -21.13333, "lng": -175.06667, "population": 1206}, {"name": "Ha'atu'a", "lat": -21.37662, "lng": -174.95465, "population": 489}, {"name": "Hihifo", "lat": -15.9544, "lng": -173.79616, "population": 301}]