[{"name": "Dar es Salaam", "lat": -6.82349, "lng": 39.26951, "population": 5383728}, {"name": "Mwanza", "lat": -2.51667, "lng": 32.9, "population": 1104521}, {"name": "Dodoma", "lat": -6.17221, "lng": 35.73947, "population": 765179}, {"name": "Zanzibar", "lat": -6.16394, "lng": 39.19793, "population": 709809}, {"name": "Arusha", "lat": -3.36667, "lng": 36.68333, "population": 617631}, {"name": "Mbeya", "lat": -8.9, "lng": 33.45, "population": 541603}, {"name": "Morogoro", "lat": -6.82102, "lng": 37.66122, "population": 471409}, {"name": "Kahama", "lat": -3.83333, "lng": 32.6, "population": 453654}, {"name": "Tanga", "lat": -5.06893, "lng": 39.09875, "population": 393429}, {"name": "Geita", "lat": -2.8725, "lng": 32.2325, "population": 318006}, {"name": "Tabora", "lat": -5.01622, "lng": 32.82663, "population": 308741}, {"name": "Sumbawanga", "lat": -7.96667, "lng": 31.61667, "population": 303986}, {"name": "Songea", "lat": -10.68333, "lng": 35.65, "population": 286285}, {"name": "Kibaha", "lat": -6.76667, "lng": 38.91667, "population": 265360}, {"name": "Bariadi", "lat": -2.8, "lng": 33.98333, "population": 260927}, {"name": "Kasulu", "lat": -4.57667, "lng": 30.1025, "population": 238321}, {"name": "Singida", "lat": -4.81629, "lng": 34.74358, "population": 232459}, {"name": "Kigoma", "lat": -4.87694, "lng": 29.62667, "population": 232388}, {"name": "Moshi", "lat": -3.35, "lng": 37.33333, "population": 221733}, {"name": "Tunduma", "lat": -9.3, "lng": 32.76667, "population": 219309}, {"name": "Ifakara", "lat": -8.13333, "lng": 36.68333, "population": 205843}, {"name": "Mpanda", "lat": -6.34379, "lng": 31.06951, "population": 204338}, {"name": "Iringa", "lat": -7.76667, "lng": 35.7, "population": 202490}, {"name": "Bunda", "lat": -2.02153, "lng": 33.87109, "population": 182970}, {"name": "Musoma", "lat": -1.5, "lng": 33.8, "population": 164172}, {"name": "Bukoba", "lat": -1.33167, "lng": 31.81222, "population": 144938}, {"name": "Mtwara", "lat": -10.26667, "lng": 40.18333, "population": 140793}, {"name": "Shinyanga", "lat": -3.66393, "lng": 33.42118, "population": 139727}, {"name": "Tarime", "lat": -1.35, "lng": 34.36667, "population": 133043}, {"name": "Nzega", "lat": -4.21667, "lng": 33.18333, "population": 125193}, {"name": "Makumbako", "lat": -8.85, "lng": 34.83333, "population": 116232}, {"name": "Sengerema", "lat": -2.66667, "lng": 32.65, "population": 110000}, {"name": "Handeni", "lat": -5.43333, "lng": 38.01667, "population": 108968}, {"name": "Katumba", "lat": -9.23333, "lng": 33.61667, "population": 108558}, {"name": "Mafinga", "lat": -8.30019, "lng": 35.29366, "population": 99305}, {"name": "Lindi", "lat": -9.99709, "lng": 39.71649, "population": 95096}, {"name": "Ushirombo", "lat": -3.49194, "lng": 31.96389, "population": 95052}, {"name": "Njombe", "lat": -9.34917, "lng": 34.77167, "population": 92537}, {"name": "Kilosa", "lat": -6.83333, "lng": 36.98333, "population": 91889}, {"name": "Masasi", "lat": -10.71667, "lng": 38.8, "population": 89700}, {"name": "Vwawa", "lat": -9.10806, "lng": 32.93472, "population": 85000}, {"name": "Bagamoyo", "lat": -6.44222, "lng": 38.90422, "population": 82426}, {"name": "Kondoa", "lat": -4.9, "lng": 35.78333, "population": 80443}, {"name": "Katoro", "lat": -2.99983, "lng": 31.93261, "population": 75000}, {"name": "Vikindu", "lat": -7.00667, "lng": 39.29849, "population": 70000}, {"name": "Babati", "lat": -4.21667, "lng": 35.75, "population": 67445}, {"name": "Korogwe", "lat": -5.15, "lng": 38.48333, "population": 62032}, {"name": "Mbinga", "lat": -10.93333, "lng": 35.01667, "population": 60868}, {"name": "Uyovu", "lat": -3.28333, "lng": 31.52583, "population": 60849}, {"name": "Buseresere", "lat": -3.04877, "lng": 31.88542, "population": 52870}, {"name": "Chake Chake", "lat": -5.24586, "lng": 39.76659, "population": 52047}, {"name": "Kibaigwa", "lat": -6.08125, "lng": 36.64657, "population": 50054}, {"name": "Utengule", "lat": -8.9, "lng": 33.33333, "population": 50000}, {"name": "Tukuyu", "lat": -9.25, "lng": 33.65, "population": 50000}, {"name": "Masumbwe", "lat": -3.63333, "lng": 32.18333, "population": 50000}, {"name": "Merelani", "lat": -3.56182, "lng": 36.97895, "population": 50000}, {"name": "Mbuguni", "lat": -3.56667, "lng": 36.95, "population": 49801}, {"name": "Tunduru", "lat": -11.06667, "lng": 37.35, "population": 48000}, {"name": "Kyela", "lat": -9.58333, "lng": 33.85, "population": 47000}, {"name": "Mbulu", "lat": -3.85, "lng": 35.53333, "population": 45384}, {"name": "Ikwiriri", "lat": -7.95618, "lng": 38.97164, "population": 45000}, {"name": "Igunga", "lat": -4.28333, "lng": 33.88333, "population": 45000}, {"name": "Diobahika", "lat": -3.33907, "lng": 31.52344, "population": 45000}, {"name": "Mwandege", "lat": -6.97558, "lng": 39.2893, "population": 45000}, {"name": "Nansio", "lat": -2.13333, "lng": 33.05, "population": 44000}, {"name": "Rujewa", "lat": -8.7, "lng": 34.38333, "population": 42013}, {"name": "Namanyere", "lat": -7.51667, "lng": 31.05, "population": 40000}, {"name": "Mlowo", "lat": -9.0, "lng": 32.98333, "population": 40000}, {"name": "Mapinga", "lat": -6.6, "lng": 39.06667, "population": 40000}, {"name": "Geiro", "lat": -6.15, "lng": 36.86667, "population": 40000}, {"name": "Dumila", "lat": -6.38395, "lng": 37.34331, "population": 40000}, {"name": "Nguruka", "lat": -5.10917, "lng": 31.04194, "population": 39135}, {"name": "Newala Kisimani", "lat": -10.95, "lng": 39.28333, "population": 38099}, {"name": "Kidatu", "lat": -7.69916, "lng": 36.95722, "population": 37542}, {"name": "Boma la Ngombe", "lat": -3.33333, "lng": 37.15, "population": 37538}, {"name": "Kidodi", "lat": -7.60361, "lng": 37.00438, "population": 35953}, {"name": "Wete", "lat": -5.05589, "lng": 39.72938, "population": 35951}, {"name": "Misungwi", "lat": -2.85, "lng": 33.08333, "population": 35530}, {"name": "Magu", "lat": -2.59075, "lng": 33.44619, "population": 35000}, {"name": "Mlimba", "lat": -8.8, "lng": 35.81667, "population": 34970}, {"name": "Mafinga", "lat": -7.25, "lng": 35.06667, "population": 34958}, {"name": "Newala", "lat": -10.93333, "lng": 39.3, "population": 34862}, {"name": "Chalinze", "lat": -6.63784, "lng": 38.35396, "population": 34335}, {"name": "Same", "lat": -4.06667, "lng": 37.73333, "population": 34322}, {"name": "Biharamulo", "lat": -2.63194, "lng": 31.30889, "population": 34038}, {"name": "Lushoto", "lat": -4.78333, "lng": 38.28333, "population": 34000}, {"name": "Somanda", "lat": -3.36667, "lng": 33.95, "population": 33932}, {"name": "Kirando", "lat": -7.41667, "lng": 30.6, "population": 33111}, {"name": "Tumbi", "lat": -5.06667, "lng": 32.73333, "population": 32900}, {"name": "Bugarama", "lat": -2.87056, "lng": 30.52806, "population": 32494}, {"name": "Ngudu", "lat": -2.96667, "lng": 33.33333, "population": 32446}, {"name": "Urambo", "lat": -5.06667, "lng": 32.05, "population": 31752}, {"name": "Mvomero", "lat": -6.25, "lng": 38.66667, "population": 31324}, {"name": "Chanika", "lat": -5.41667, "lng": 38.01667, "population": 30905}, {"name": "Nungwi", "lat": -5.72651, "lng": 39.2987, "population": 30762}, {"name": "Kibiti", "lat": -7.72178, "lng": 38.93749, "population": 30163}, {"name": "Mpwapwa", "lat": -6.35, "lng": 36.48333, "population": 30000}, {"name": "Kisesa", "lat": -2.55, "lng": 33.03333, "population": 30000}, {"name": "Chato", "lat": -2.63778, "lng": 31.76694, "population": 30000}, {"name": "Kisesa", "lat": -3.08333, "lng": 34.15, "population": 29804}, {"name": "Lukuledi", "lat": -10.56667, "lng": 38.8, "population": 29699}, {"name": "Mlandizi", "lat": -6.7, "lng": 38.73333, "population": 29394}, {"name": "Ilula", "lat": -7.6766, "lng": 36.03658, "population": 29193}, {"name": "Mugumu", "lat": -1.85, "lng": 34.7, "population": 29000}, {"name": "Kibondo", "lat": -3.58639, "lng": 30.72028, "population": 28666}, {"name": "Mkuranga", "lat": -7.11799, "lng": 39.20782, "population": 28037}, {"name": "Shanwa", "lat": -3.16667, "lng": 33.76667, "population": 28000}, {"name": "Bungu", "lat": -7.63369, "lng": 39.05818, "population": 27873}, {"name": "Kasamwa", "lat": -2.85, "lng": 32.43333, "population": 27681}, {"name": "Sikonge", "lat": -5.63333, "lng": 32.76667, "population": 27113}, {"name": "Malinyi", "lat": -8.93333, "lng": 36.13333, "population": 27041}, {"name": "Mtinko", "lat": -4.55, "lng": 34.85, "population": 26725}, {"name": "Maramba", "lat": -5.05, "lng": 38.61667, "population": 26531}, {"name": "Magugu", "lat": -4.01667, "lng": 35.76667, "population": 26131}, {"name": "Matundasi", "lat": -8.45, "lng": 33.28333, "population": 26073}, {"name": "Sokoni", "lat": -6.43333, "lng": 39.55, "population": 25821}, {"name": "Sepuka", "lat": -4.75, "lng": 34.53333, "population": 25657}, {"name": "Luchingu", "lat": -10.9, "lng": 39.33333, "population": 25145}, {"name": "Sirari", "lat": -1.25367, "lng": 34.47596, "population": 25000}, {"name": "Manyoni", "lat": -5.75, "lng": 34.83333, "population": 25000}, {"name": "Liwale", "lat": -9.76667, "lng": 37.93333, "population": 25000}, {"name": "Igurusi", "lat": -8.85, "lng": 33.85, "population": 25000}, {"name": "Mhalamba", "lat": -2.5812, "lng": 32.00991, "population": 25000}, {"name": "Shelui", "lat": -4.36667, "lng": 34.2, "population": 24817}, {"name": "Chimala", "lat": -8.85637, "lng": 34.02393, "population": 24817}, {"name": "Kakonko", "lat": -3.28278, "lng": 30.96417, "population": 24688}, {"name": "Uvinza", "lat": -5.10361, "lng": 30.39111, "population": 24650}, {"name": "Nyalikungu", "lat": -3.18333, "lng": 33.78333, "population": 24648}, {"name": "Matai", "lat": -8.3, "lng": 31.51667, "population": 24070}, {"name": "Itigi", "lat": -5.7, "lng": 34.48333, "population": 24000}, {"name": "Ruaha", "lat": -7.65685, "lng": 36.98299, "population": 24000}, {"name": "Makongolosi", "lat": -8.4, "lng": 33.15, "population": 23787}, {"name": "Old Shinyanga", "lat": -3.55, "lng": 33.4, "population": 23747}, {"name": "Mkoani", "lat": -5.36667, "lng": 39.65, "population": 23719}, {"name": "Mgandu", "lat": -5.95, "lng": 34.13333, "population": 23718}, {"name": "Songwa", "lat": -3.51667, "lng": 33.51667, "population": 23618}, {"name": "Kiomboi", "lat": -4.26667, "lng": 34.36667, "population": 23519}, {"name": "Kilindoni", "lat": -7.91446, "lng": 39.66204, "population": 23426}, {"name": "Mwadui", "lat": -3.55, "lng": 33.6, "population": 23296}, {"name": "Nangomba", "lat": -10.9, "lng": 38.5, "population": 23028}, {"name": "Urunda", "lat": -8.65, "lng": 34.3, "population": 23000}, {"name": "Kingori", "lat": -3.28333, "lng": 36.98333, "population": 22839}, {"name": "Igugunu", "lat": -4.56667, "lng": 34.63333, "population": 22810}, {"name": "Chala", "lat": -7.58333, "lng": 31.26667, "population": 22624}, {"name": "Lalago", "lat": -3.45, "lng": 33.95, "population": 22551}, {"name": "Kigonsera", "lat": -10.8, "lng": 35.05, "population": 22155}, {"name": "Tinde", "lat": -3.88333, "lng": 33.2, "population": 22082}, {"name": "Rulenge", "lat": -2.7175, "lng": 30.6325, "population": 22069}, {"name": "Maswa", "lat": -2.68333, "lng": 33.98333, "population": 22025}, {"name": "Mwanhuzi", "lat": -3.52723, "lng": 34.31513, "population": 21664}, {"name": "Mhango", "lat": -3.28333, "lng": 32.85, "population": 21553}, {"name": "Kilwa Masoko", "lat": -8.9251, "lng": 39.5131, "population": 21519}, {"name": "Katesh", "lat": -4.52483, "lng": 35.3849, "population": 21462}, {"name": "Kiwira", "lat": -9.17307, "lng": 33.54152, "population": 21342}, {"name": "Isaka", "lat": -3.9, "lng": 32.93333, "population": 21094}, {"name": "Usangi", "lat": -3.7, "lng": 37.66667, "population": 21000}, {"name": "Usa River", "lat": -3.36667, "lng": 36.85, "population": 21000}, {"name": "Hedaru", "lat": -4.5, "lng": 37.9, "population": 21000}, {"name": "Nachingwea", "lat": -10.3725, "lng": 38.76251, "population": 21000}, {"name": "Basotu", "lat": -4.36667, "lng": 35.08333, "population": 20937}, {"name": "Mazinde", "lat": -4.8, "lng": 38.21667, "population": 20534}, {"name": "Muriti", "lat": -1.98333, "lng": 32.91667, "population": 20254}, {"name": "Matui", "lat": -4.8, "lng": 38.25, "population": 20241}, {"name": "Nsunga", "lat": -1.14389, "lng": 31.39472, "population": 20049}, {"name": "Muheza", "lat": -5.16667, "lng": 38.78333, "population": 20000}, {"name": "Mikumi", "lat": -7.40409, "lng": 36.98309, "population": 20000}, {"name": "Makuyuni", "lat": -3.55, "lng": 36.1, "population": 20000}, {"name": "Kiratu", "lat": -3.33333, "lng": 35.66667, "population": 20000}, {"name": "Tandahimba", "lat": -10.75, "lng": 39.63333, "population": 20000}, {"name": "Ruangwa", "lat": -10.06667, "lng": 38.93333, "population": 20000}, {"name": "Matongo", "lat": -1.46771, "lng": 34.52279, "population": 20000}, {"name": "Dareda", "lat": -4.21667, "lng": 35.55, "population": 19876}, {"name": "Nshamba", "lat": -1.79833, "lng": 31.55111, "population": 19815}, {"name": "Ikungi", "lat": -5.13333, "lng": 34.76667, "population": 19692}, {"name": "Nanyamba", "lat": -10.68333, "lng": 39.83333, "population": 19555}, {"name": "Kibakwe", "lat": -6.71667, "lng": 36.36667, "population": 19526}, {"name": "Maposeni", "lat": -10.58333, "lng": 35.4, "population": 19472}, {"name": "Kabanga", "lat": -2.63861, "lng": 30.46778, "population": 19421}, {"name": "Laela", "lat": -8.56667, "lng": 32.05, "population": 19185}, {"name": "Bashanet", "lat": -4.23333, "lng": 35.41667, "population": 19087}, {"name": "Magomeni", "lat": -6.8, "lng": 39.25, "population": 19086}, {"name": "Kihangara", "lat": -2.58333, "lng": 33.35, "population": 19082}, {"name": "Mtwango", "lat": -9.01667, "lng": 34.8, "population": 19040}, {"name": "Shirati", "lat": -1.13333, "lng": 33.98333, "population": 18904}, {"name": "Ilembula", "lat": -8.9, "lng": 34.58333, "population": 18870}, {"name": "Dongobesh", "lat": -4.06667, "lng": 35.38333, "population": 18864}, {"name": "Matiri", "lat": -10.75, "lng": 34.9, "population": 18830}, {"name": "Magole", "lat": -6.37697, "lng": 37.37373, "population": 18753}, {"name": "Nangwa", "lat": -4.46667, "lng": 35.45, "population": 18595}, {"name": "Galappo", "lat": -4.26667, "lng": 35.85, "population": 18528}, {"name": "Katerero", "lat": -1.4, "lng": 31.73333, "population": 18430}, {"name": "Nyakabindi", "lat": -2.63333, "lng": 33.98333, "population": 18428}, {"name": "Izazi", "lat": -7.2, "lng": 35.73333, "population": 18010}, {"name": "Lubata", "lat": -6.1, "lng": 37.45, "population": 18000}, {"name": "Tarakea", "lat": -3.00083, "lng": 37.56416, "population": 18000}, {"name": "Madizini", "lat": -6.14089, "lng": 37.63604, "population": 18000}, {"name": "Msowero", "lat": -6.53333, "lng": 37.2, "population": 17861}, {"name": "Ipinda", "lat": -9.48333, "lng": 33.9, "population": 17775}, {"name": "Mto wa Mbu", "lat": -3.35, "lng": 35.85, "population": 17754}, {"name": "Usevia", "lat": -7.1, "lng": 31.23333, "population": 17742}, {"name": "Nanganga", "lat": -10.38333, "lng": 39.15, "population": 17468}, {"name": "Ilongero", "lat": -4.66667, "lng": 34.86667, "population": 17342}, {"name": "Kibara", "lat": -2.15, "lng": 33.45, "population": 17211}, {"name": "Ngerengere", "lat": -6.75, "lng": 38.11667, "population": 17181}, {"name": "Puma", "lat": -5.0, "lng": 34.73333, "population": 17092}, {"name": "Malampaka", "lat": -3.13333, "lng": 33.53333, "population": 16916}, {"name": "Lugoba", "lat": -6.45, "lng": 38.33333, "population": 16902}, {"name": "Ngara", "lat": -2.51222, "lng": 30.65583, "population": 16890}, {"name": "Mwandiga", "lat": -4.83, "lng": 29.65806, "population": 16822}, {"name": "Mungaa", "lat": -4.96667, "lng": 34.88333, "population": 16715}, {"name": "Nyamuswa", "lat": -1.9, "lng": 34.01667, "population": 16507}, {"name": "Butiama", "lat": -1.76667, "lng": 33.96667, "population": 16376}, {"name": "Kishapu", "lat": -3.61667, "lng": 33.86667, "population": 16371}, {"name": "Nyangao", "lat": -10.33333, "lng": 39.28333, "population": 16343}, {"name": "Tingi", "lat": -11.3, "lng": 35.03333, "population": 16315}, {"name": "Kitama", "lat": -10.71667, "lng": 39.73333, "population": 16232}, {"name": "Lembeni", "lat": -3.78333, "lng": 37.61667, "population": 16008}, {"name": "Kamachumu", "lat": -1.61861, "lng": 31.62, "population": 15701}, {"name": "Mlalo", "lat": -4.93333, "lng": 38.93333, "population": 15576}, {"name": "Makuyuni", "lat": -4.73333, "lng": 38.1, "population": 15516}, {"name": "Usagara", "lat": -2.68333, "lng": 33.0, "population": 15514}, {"name": "Mabama", "lat": -5.13333, "lng": 32.53333, "population": 15320}, {"name": "Mlangali", "lat": -9.78333, "lng": 34.51667, "population": 15168}, {"name": "Mahanje", "lat": -9.93333, "lng": 35.33333, "population": 15009}, {"name": "Namanga", "lat": -2.55116, "lng": 36.78377, "population": 14922}, {"name": "Nkoaranga", "lat": -3.33391, "lng": 36.84887, "population": 14738}, {"name": "Nyakahanga", "lat": -1.60333, "lng": 31.14139, "population": 14611}, {"name": "Endasak", "lat": -4.41667, "lng": 35.51667, "population": 14576}, {"name": "Ndungu", "lat": -4.36667, "lng": 38.05, "population": 14545}, {"name": "Misasi", "lat": -3.0, "lng": 33.08333, "population": 14170}, {"name": "Mabamba", "lat": -3.59833, "lng": 30.50194, "population": 14140}, {"name": "Dunda", "lat": -8.11667, "lng": 34.25, "population": 14080}, {"name": "Kyaka", "lat": -1.25222, "lng": 31.42028, "population": 13810}, {"name": "Mahuta", "lat": -10.86667, "lng": 39.45, "population": 13548}, {"name": "Nanhyanga", "lat": -10.8, "lng": 39.55, "population": 13519}, {"name": "Naberera", "lat": -4.2, "lng": 36.93333, "population": 13499}, {"name": "Itumba", "lat": -9.4, "lng": 33.18333, "population": 13438}, {"name": "Liuli", "lat": -11.08333, "lng": 34.63333, "population": 13119}, {"name": "Ndago", "lat": -4.6, "lng": 34.35, "population": 13012}, {"name": "Mwanga", "lat": -4.8, "lng": 38.2, "population": 12846}, {"name": "Chiungutwa", "lat": -10.88333, "lng": 38.98333, "population": 12764}, {"name": "Masoko", "lat": -9.33333, "lng": 33.75, "population": 12720}, {"name": "Karema", "lat": -6.82052, "lng": 30.43887, "population": 12630}, {"name": "Malya", "lat": -2.98333, "lng": 33.51667, "population": 12627}, {"name": "Kisarawe", "lat": -6.9, "lng": 39.06667, "population": 12507}, {"name": "Madimba", "lat": -10.4, "lng": 40.33333, "population": 12507}, {"name": "Soni", "lat": -4.85, "lng": 38.36667, "population": 12402}, {"name": "Kaliua", "lat": -5.06056, "lng": 31.79361, "population": 12362}, {"name": "Ulenje", "lat": -8.93333, "lng": 33.68333, "population": 12219}, {"name": "Mtama", "lat": -10.3, "lng": 39.36667, "population": 11928}, {"name": "Katoro", "lat": -1.39972, "lng": 31.50028, "population": 11925}, {"name": "Utete", "lat": -7.98598, "lng": 38.75795, "population": 11888}, {"name": "Kongwa", "lat": -6.2, "lng": 36.41667, "population": 11840}, {"name": "Matonga", "lat": -2.38333, "lng": 34.08333, "population": 11828}, {"name": "Mbekenyera", "lat": -10.0, "lng": 38.98333, "population": 11794}, {"name": "Inyonga", "lat": -6.71667, "lng": 32.06667, "population": 11790}, {"name": "Namikupa", "lat": -10.83333, "lng": 39.6, "population": 11733}, {"name": "Muleba", "lat": -1.83972, "lng": 31.65444, "population": 11555}, {"name": "Lupiro", "lat": -8.38333, "lng": 36.66667, "population": 11430}, {"name": "Kimamba", "lat": -6.78333, "lng": 37.13333, "population": 11235}, {"name": "Namalenga", "lat": -10.95, "lng": 39.1, "population": 11204}, {"name": "Mtimbira", "lat": -8.78333, "lng": 36.35, "population": 11122}, {"name": "Kisanga", "lat": -7.43622, "lng": 37.70337, "population": 10978}, {"name": "Kitangari", "lat": -10.65, "lng": 39.33333, "population": 10956}, {"name": "Ngorongoro", "lat": -3.23973, "lng": 35.48747, "population": 10836}, {"name": "Nyanguge", "lat": -2.55, "lng": 33.2, "population": 10746}, {"name": "Matamba", "lat": -8.98333, "lng": 33.96667, "population": 10642}, {"name": "Bugene", "lat": -1.59111, "lng": 31.14028, "population": 10609}, {"name": "Mugango", "lat": -1.68333, "lng": 33.7, "population": 10550}, {"name": "Mingoyo", "lat": -10.10526, "lng": 39.61859, "population": 10480}, {"name": "Kandete", "lat": -9.15, "lng": 33.8, "population": 10318}, {"name": "Makungu", "lat": -8.73333, "lng": 35.28333, "population": 10291}, {"name": "Igurubi", "lat": -4.0, "lng": 33.7, "population": 10083}, {"name": "Kisasa", "lat": -6.17526, "lng": 35.79266, "population": 10000}, {"name": "Majengo", "lat": -5.15, "lng": 38.98333, "population": 9874}, {"name": "Micheweni", "lat": -4.96667, "lng": 39.83333, "population": 9838}, {"name": "Poli", "lat": -3.36146, "lng": 36.81751, "population": 9568}, {"name": "Konde", "lat": -4.95, "lng": 39.75, "population": 9530}, {"name": "Makanya", "lat": -4.36667, "lng": 37.83333, "population": 9505}, {"name": "Longido", "lat": -2.73319, "lng": 36.69773, "population": 9403}, {"name": "Maneromango", "lat": -7.1988, "lng": 38.78478, "population": 9402}, {"name": "Mwembe", "lat": -4.15, "lng": 37.85, "population": 9032}, {"name": "Mbamba Bay", "lat": -11.28333, "lng": 34.76667, "population": 8997}, {"name": "Magomeni", "lat": -5.23333, "lng": 38.11667, "population": 8944}, {"name": "Manda", "lat": -10.46667, "lng": 34.58333, "population": 8393}, {"name": "Kihurio", "lat": -4.46667, "lng": 38.06667, "population": 8377}, {"name": "Pangani", "lat": -5.42526, "lng": 38.97473, "population": 8343}, {"name": "Masuguru", "lat": -11.36667, "lng": 38.41667, "population": 7946}, {"name": "Kintinku", "lat": -5.88333, "lng": 35.23333, "population": 7906}, {"name": "Lulindi", "lat": -10.81667, "lng": 39.13333, "population": 7807}, {"name": "Issenye", "lat": -2.0, "lng": 34.33333, "population": 7778}, {"name": "Mahenge", "lat": -8.68333, "lng": 36.71667, "population": 7768}, {"name": "Mwaya", "lat": -9.55, "lng": 33.95, "population": 7558}, {"name": "Kwakoa", "lat": -3.76667, "lng": 37.71667, "population": 7514}, {"name": "Bukene", "lat": -4.23333, "lng": 32.88333, "population": 7444}, {"name": "Usoke", "lat": -5.16667, "lng": 32.35, "population": 7295}, {"name": "Kisiwani", "lat": -4.13333, "lng": 37.95, "population": 7126}, {"name": "Malangali", "lat": -8.56667, "lng": 34.85, "population": 7112}, {"name": "Mtambile", "lat": -5.38333, "lng": 39.7, "population": 6797}, {"name": "Nakatunguru", "lat": -2.11667, "lng": 33.06667, "population": 6064}, {"name": "Kilimatinde", "lat": -5.85, "lng": 34.95, "population": 5975}, {"name": "Monduli", "lat": -3.3, "lng": 36.45, "population": 5694}, {"name": "Bububu", "lat": -6.1, "lng": 39.21667, "population": 5646}, {"name": "Mahonda", "lat": -6.45, "lng": 39.46667, "population": 5569}, {"name": "Msanga", "lat": -6.05, "lng": 36.03333, "population": 5527}, {"name": "Nkove", "lat": -7.95, "lng": 30.85, "population": 5389}, {"name": "Kibaya", "lat": -5.3, "lng": 36.56667, "population": 5028}, {"name": "Mbumi", "lat": -7.90577, "lng": 39.21047, "population": 4305}, {"name": "Bukonyo", "lat": -1.95, "lng": 32.93333, "population": 4051}, {"name": "Kirya", "lat": -3.91667, "lng": 37.48333, "population": 3998}, {"name": "Kijini", "lat": -5.85, "lng": 39.31667, "population": 3720}, {"name": "Gamba", "lat": -5.9, "lng": 39.3, "population": 3644}, {"name": "Ilembo", "lat": -9.25, "lng": 33.38333, "population": 2607}, {"name": "Mkokotoni", "lat": -5.87506, "lng": 39.25523, "population": 2572}, {"name": "Uwelini", "lat": -5.4, "lng": 39.68333, "population": 2472}, {"name": "Kiwengwa", "lat": -5.98957, "lng": 39.3768, "population": 2429}, {"name": "Koani Ndogo", "lat": -6.13333, "lng": 39.28333, "population": 2311}, {"name": "Koani", "lat": -6.13333, "lng": 39.28333, "population": 2211}, {"name": "Nganane", "lat": -6.4, "lng": 39.55, "population": 1929}, {"name": "Mvomero", "lat": -6.30122, "lng": 37.44398, "population": 0}]