[{"name": "New York City", "lat": 40.71427, "lng": -74.00597, "population": 8804190}, {"name": "Los Angeles", "lat": 34.05223, "lng": -118.24368, "population": 3820914}, {"name": "Brooklyn", "lat": 40.6501, "lng": -73.94958, "population": 2736074}, {"name": "Chicago", "lat": 41.85003, "lng": -87.65005, "population": 2664452}, {"name": "Queens", "lat": 40.68149, "lng": -73.83652, "population": 2316841}, {"name": "Houston", "lat": 29.76328, "lng": -95.36327, "population": 2314157}, {"name": "Phoenix", "lat": 33.44838, "lng": -112.07404, "population": 1650070}, {"name": "Philadelphia", "lat": 39.95238, "lng": -75.16362, "population": 1573916}, {"name": "San Antonio", "lat": 29.42412, "lng": -98.49363, "population": 1526656}, {"name": "Manhattan", "lat": 40.78343, "lng": -73.96625, "population": 1487536}, {"name": "San Diego", "lat": 32.71571, "lng": -117.16472, "population": 1404452}, {"name": "The Bronx", "lat": 40.84985, "lng": -73.86641, "population": 1385108}, {"name": "Dallas", "lat": 32.78306, "lng": -96.80667, "population": 1326087}, {"name": "Jacksonville", "lat": 30.33218, "lng": -81.65565, "population": 1009833}, {"name": "Fort Worth", "lat": 32.72541, "lng": -97.32085, "population": 1008106}, {"name": "San Jose", "lat": 37.33939, "lng": -121.89496, "population": 997368}, {"name": "Austin", "lat": 30.26715, "lng": -97.74306, "population": 974447}, {"name": "Columbus", "lat": 39.96118, "lng": -82.99879, "population": 913175}, {"name": "Charlotte", "lat": 35.22709, "lng": -80.84313, "population": 911311}, {"name": "Indianapolis", "lat": 39.76838, "lng": -86.15804, "population": 887642}, {"name": "San Francisco", "lat": 37.77493, "lng": -122.41942, "population": 827526}, {"name": "Seattle", "lat": 47.60621, "lng": -122.33207, "population": 780995}, {"name": "Denver", "lat": 39.73915, "lng": -104.9847, "population": 729019}, {"name": "Washington", "lat": 38.89511, "lng": -77.03637, "population": 689545}, {"name": "Nashville", "lat": 36.16589, "lng": -86.78444, "population": 689447}, {"name": "Oklahoma City", "lat": 35.46756, "lng": -97.51643, "population": 681054}, {"name": "El Paso", "lat": 31.75872, "lng": -106.48693, "population": 678815}, {"name": "Boston", "lat": 42.35843, "lng": -71.05977, "population": 653833}, {"name": "Portland", "lat": 45.52345, "lng": -122.67621, "population": 652503}, {"name": "Detroit", "lat": 42.33143, "lng": -83.04575, "population": 645705}, {"name": "Las Vegas", "lat": 36.17497, "lng": -115.13722, "population": 641903}, {"name": "New South Memphis", "lat": 35.08676, "lng": -90.05676, "population": 641608}, {"name": "Memphis", "lat": 35.14953, "lng": -90.04898, "population": 633104}, {"name": "Louisville", "lat": 38.25424, "lng": -85.75941, "population": 624444}, {"name": "Baltimore", "lat": 39.29038, "lng": -76.61219, "population": 585708}, {"name": "South Boston", "lat": 42.33343, "lng": -71.04949, "population": 571281}, {"name": "Albuquerque", "lat": 35.08449, "lng": -106.65114, "population": 564559}, {"name": "Milwaukee", "lat": 43.0389, "lng": -87.90647, "population": 563531}, {"name": "Tucson", "lat": 32.22174, "lng": -110.92648, "population": 542629}, {"name": "Fresno", "lat": 36.74773, "lng": -119.77237, "population": 542107}, {"name": "Sacramento", "lat": 38.58157, "lng": -121.4944, "population": 524943}, {"name": "Atlanta", "lat": 33.749, "lng": -84.38798, "population": 510823}, {"name": "Miami", "lat": 25.77427, "lng": -80.19366, "population": 487014}, {"name": "Omaha", "lat": 41.25626, "lng": -95.94043, "population": 486051}, {"name": "Raleigh", "lat": 35.7721, "lng": -78.63861, "population": 482295}, {"name": "Kansas City", "lat": 39.09973, "lng": -94.57857, "population": 475378}, {"name": "Long Beach", "lat": 33.76696, "lng": -118.18923, "population": 474140}, {"name": "Mesa", "lat": 33.42227, "lng": -111.82264, "population": 471825}, {"name": "Staten Island", "lat": 40.56233, "lng": -74.13986, "population": 468730}, {"name": "Colorado Springs", "lat": 38.83388, "lng": -104.82136, "population": 456568}, {"name": "Virginia Beach", "lat": 36.85293, "lng": -75.97799, "population": 454808}, {"name": "Oakland", "lat": 37.80437, "lng": -122.2708, "population": 419267}, {"name": "Tampa", "lat": 27.94752, "lng": -82.45843, "population": 414547}, {"name": "Tulsa", "lat": 36.15398, "lng": -95.99277, "population": 413066}, {"name": "Minneapolis", "lat": 44.97997, "lng": -93.26384, "population": 410939}, {"name": "Wichita", "lat": 37.69224, "lng": -97.33754, "population": 396119}, {"name": "Arlington", "lat": 32.73569, "lng": -97.10807, "population": 388125}, {"name": "Bakersfield", "lat": 35.37329, "lng": -119.01871, "population": 373640}, {"name": "Cleveland", "lat": 41.4995, "lng": -81.69541, "population": 365379}, {"name": "New Orleans", "lat": 29.95465, "lng": -90.07507, "population": 362701}, {"name": "Aurora", "lat": 39.72943, "lng": -104.83192, "population": 359407}, {"name": "Honolulu", "lat": 21.30694, "lng": -157.85833, "population": 350964}, {"name": "Anaheim", "lat": 33.83529, "lng": -117.9145, "population": 350742}, {"name": "West Raleigh", "lat": 35.78682, "lng": -78.66389, "population": 338759}, {"name": "Orlando", "lat": 28.53834, "lng": -81.37924, "population": 334854}, {"name": "Lexington", "lat": 37.98869, "lng": -84.47772, "population": 320347}, {"name": "Riverside", "lat": 33.95335, "lng": -117.39616, "population": 317261}, {"name": "Corpus Christi", "lat": 27.80058, "lng": -97.39638, "population": 316239}, {"name": "Lexington-Fayette", "lat": 38.0498, "lng": -84.45855, "population": 314488}, {"name": "Cincinnati", "lat": 39.12711, "lng": -84.51439, "population": 311097}, {"name": "Santa Ana", "lat": 33.74557, "lng": -117.86783, "population": 310227}, {"name": "Stockton", "lat": 37.9577, "lng": -121.29078, "population": 305658}, {"name": "Pittsburgh", "lat": 40.44062, "lng": -79.99589, "population": 304391}, {"name": "Saint Paul", "lat": 44.94441, "lng": -93.09327, "population": 303176}, {"name": "Lincoln", "lat": 40.8, "lng": -96.66696, "population": 294757}, {"name": "Anchorage", "lat": 61.21806, "lng": -149.90028, "population": 289600}, {"name": "Meads", "lat": 38.41258, "lng": -82.70905, "population": 288649}, {"name": "Henderson", "lat": 36.0397, "lng": -114.98194, "population": 285667}, {"name": "Greensboro", "lat": 36.07264, "lng": -79.79198, "population": 285342}, {"name": "Plano", "lat": 33.01984, "lng": -96.69889, "population": 283558}, {"name": "Newark", "lat": 40.73566, "lng": -74.17237, "population": 281944}, {"name": "Madison", "lat": 43.07305, "lng": -89.40123, "population": 280305}, {"name": "St. Louis", "lat": 38.62727, "lng": -90.19789, "population": 279695}, {"name": "Chula Vista", "lat": 32.64005, "lng": -117.0842, "population": 265757}, {"name": "Toledo", "lat": 41.66394, "lng": -83.55521, "population": 265638}, {"name": "Jersey City", "lat": 40.72816, "lng": -74.07764, "population": 264290}, {"name": "Reno", "lat": 39.52963, "lng": -119.8138, "population": 264165}, {"name": "Chandler", "lat": 33.30616, "lng": -111.84125, "population": 260828}, {"name": "Fort Wayne", "lat": 41.1306, "lng": -85.12886, "population": 260326}, {"name": "Buffalo", "lat": 42.88645, "lng": -78.87837, "population": 258071}, {"name": "Durham", "lat": 35.99403, "lng": -78.89862, "population": 257636}, {"name": "St. Petersburg", "lat": 27.77086, "lng": -82.67927, "population": 257083}, {"name": "Irvine", "lat": 33.66946, "lng": -117.82311, "population": 256927}, {"name": "Laredo", "lat": 27.50641, "lng": -99.50754, "population": 256153}, {"name": "Lubbock", "lat": 33.57786, "lng": -101.85517, "population": 249042}, {"name": "Gilbert", "lat": 33.35283, "lng": -111.78903, "population": 247542}, {"name": "Tri-Cities", "lat": 46.2454, "lng": -119.19617, "population": 244036}, {"name": "Winston-Salem", "lat": 36.09986, "lng": -80.24422, "population": 241218}, {"name": "Glendale", "lat": 33.53865, "lng": -112.18599, "population": 240126}, {"name": "Norfolk", "lat": 36.84681, "lng": -76.28522, "population": 238005}, {"name": "Hialeah", "lat": 25.8576, "lng": -80.27811, "population": 237069}, {"name": "Garland", "lat": 32.91262, "lng": -96.63888, "population": 236897}, {"name": "Scottsdale", "lat": 33.50921, "lng": -111.89903, "population": 236839}, {"name": "Irving", "lat": 32.81402, "lng": -96.94889, "population": 236607}, {"name": "Boise", "lat": 43.6135, "lng": -116.20345, "population": 235684}, {"name": "Chesapeake", "lat": 36.81904, "lng": -76.27494, "population": 235429}, {"name": "North Las Vegas", "lat": 36.19886, "lng": -115.1175, "population": 234807}, {"name": "Fremont", "lat": 37.54827, "lng": -121.98857, "population": 232206}, {"name": "Spokane", "lat": 47.65966, "lng": -117.42908, "population": 229447}, {"name": "Baton Rouge", "lat": 30.44332, "lng": -91.18747, "population": 227470}, {"name": "Upper West Side", "lat": 40.78705, "lng": -73.97542, "population": 226989}, {"name": "Richmond", "lat": 37.55376, "lng": -77.46026, "population": 226610}, {"name": "Paradise", "lat": 36.09719, "lng": -115.14666, "population": 223167}, {"name": "Tacoma", "lat": 47.25288, "lng": -122.44429, "population": 222906}, {"name": "Jamaica", "lat": 40.69149, "lng": -73.80569, "population": 216866}, {"name": "San Bernardino", "lat": 34.10834, "lng": -117.28977, "population": 216108}, {"name": "Salt Lake City", "lat": 40.76078, "lng": -111.89105, "population": 215548}, {"name": "Huntsville", "lat": 34.7304, "lng": -86.58594, "population": 215006}, {"name": "Des Moines", "lat": 41.60054, "lng": -93.60911, "population": 214133}, {"name": "Fontana", "lat": 34.09223, "lng": -117.43505, "population": 212704}, {"name": "Modesto", "lat": 37.6391, "lng": -120.99688, "population": 211266}, {"name": "Rochester", "lat": 43.15478, "lng": -77.61556, "population": 209802}, {"name": "Maryvale", "lat": 33.50199, "lng": -112.17765, "population": 208189}, {"name": "Arlington", "lat": 38.88101, "lng": -77.10428, "population": 207627}, {"name": "Oxnard", "lat": 34.1975, "lng": -119.17705, "population": 207254}, {"name": "Columbus", "lat": 32.46098, "lng": -84.98771, "population": 206922}, {"name": "Worcester", "lat": 42.26259, "lng": -71.80229, "population": 206518}, {"name": "Moreno Valley", "lat": 33.93752, "lng": -117.23059, "population": 204198}, {"name": "Little Rock", "lat": 34.74648, "lng": -92.28959, "population": 202591}, {"name": "Fayetteville", "lat": 35.05266, "lng": -78.87836, "population": 201963}, {"name": "Huntington Beach", "lat": 33.6603, "lng": -117.99923, "population": 201899}, {"name": "Tallahassee", "lat": 30.43826, "lng": -84.28073, "population": 201731}, {"name": "Yonkers", "lat": 40.9304, "lng": -73.89789, "population": 201116}, {"name": "Glendale", "lat": 34.14251, "lng": -118.25508, "population": 201020}, {"name": "Cypress", "lat": 29.96911, "lng": -95.69717, "population": 200839}, {"name": "Aurora", "lat": 41.76058, "lng": -88.32007, "population": 200661}, {"name": "Amarillo", "lat": 35.222, "lng": -101.8313, "population": 198645}, {"name": "Akron", "lat": 41.08144, "lng": -81.51901, "population": 197542}, {"name": "Vancouver", "lat": 45.63873, "lng": -122.66149, "population": 196442}, {"name": "Birmingham", "lat": 33.52066, "lng": -86.80249, "population": 196357}, {"name": "Montgomery", "lat": 32.36681, "lng": -86.29997, "population": 195287}, {"name": "Grand Rapids", "lat": 42.96336, "lng": -85.66809, "population": 195097}, {"name": "Peoria", "lat": 33.5806, "lng": -112.23738, "population": 190985}, {"name": "Providence", "lat": 41.82399, "lng": -71.41283, "population": 190934}, {"name": "Knoxville", "lat": 35.96064, "lng": -83.92074, "population": 190740}, {"name": "Sunrise Manor", "lat": 36.21108, "lng": -115.07306, "population": 189372}, {"name": "Grand Prairie", "lat": 32.74596, "lng": -96.99778, "population": 187809}, {"name": "Shreveport", "lat": 32.52515, "lng": -93.75018, "population": 187593}, {"name": "Brownsville", "lat": 25.90175, "lng": -97.49748, "population": 186738}, {"name": "Overland Park", "lat": 38.98223, "lng": -94.67079, "population": 186515}, {"name": "Newport News", "lat": 36.98038, "lng": -76.42975, "population": 186247}, {"name": "Mobile", "lat": 30.69436, "lng": -88.04305, "population": 183289}, {"name": "Fort Lauderdale", "lat": 26.12231, "lng": -80.14338, "population": 183146}, {"name": "Santa Clarita", "lat": 34.39166, "lng": -118.54259, "population": 182371}, {"name": "Chattanooga", "lat": 35.04563, "lng": -85.30968, "population": 181099}, {"name": "East Flatbush", "lat": 40.65371, "lng": -73.93042, "population": 178464}, {"name": "Spring Valley", "lat": 36.10803, "lng": -115.245, "population": 178395}, {"name": "Santa Rosa", "lat": 38.44047, "lng": -122.71443, "population": 178127}, {"name": "Eugene", "lat": 44.05207, "lng": -123.08675, "population": 176654}, {"name": "Tempe", "lat": 33.41477, "lng": -111.90931, "population": 175826}, {"name": "Oceanside", "lat": 33.19587, "lng": -117.37948, "population": 175691}, {"name": "Salem", "lat": 44.9429, "lng": -123.0351, "population": 175535}, {"name": "Garden Grove", "lat": 33.77391, "lng": -117.94145, "population": 175393}, {"name": "Rancho Cucamonga", "lat": 34.1064, "lng": -117.59311, "population": 175236}, {"name": "Cape Coral", "lat": 26.56285, "lng": -81.94953, "population": 175229}, {"name": "East New York", "lat": 40.66677, "lng": -73.88236, "population": 173198}, {"name": "Sioux Falls", "lat": 43.54369, "lng": -96.72796, "population": 171544}, {"name": "Ontario", "lat": 34.06334, "lng": -117.65089, "population": 171214}, {"name": "Fort Collins", "lat": 40.58526, "lng": -105.08442, "population": 170924}, {"name": "Springfield", "lat": 37.21533, "lng": -93.29824, "population": 170188}, {"name": "Hollywood", "lat": 34.09834, "lng": -118.32674, "population": 167664}, {"name": "Elk Grove", "lat": 38.4088, "lng": -121.37162, "population": 166913}, {"name": "Clarksville", "lat": 36.52977, "lng": -87.35945, "population": 166722}, {"name": "Pembroke Pines", "lat": 26.00315, "lng": -80.22394, "population": 166611}, {"name": "Deer Valley", "lat": 33.68393, "lng": -112.13488, "population": 165656}, {"name": "Murfreesboro", "lat": 35.84562, "lng": -86.39027, "population": 165430}, {"name": "Port Saint Lucie", "lat": 27.29393, "lng": -80.35033, "population": 164603}, {"name": "Corona", "lat": 33.87529, "lng": -117.56644, "population": 164226}, {"name": "McKinney", "lat": 33.19762, "lng": -96.61527, "population": 162898}, {"name": "Lancaster", "lat": 34.69804, "lng": -118.13674, "population": 161103}, {"name": "Cary", "lat": 35.79154, "lng": -78.78112, "population": 159769}, {"name": "Alexandria", "lat": 38.80484, "lng": -77.04692, "population": 159467}, {"name": "Tempe Junction", "lat": 33.41421, "lng": -111.94348, "population": 158368}, {"name": "Palmdale", "lat": 34.57943, "lng": -118.11646, "population": 158351}, {"name": "Hayward", "lat": 37.66882, "lng": -122.0808, "population": 158289}, {"name": "Salinas", "lat": 36.67774, "lng": -121.6555, "population": 157380}, {"name": "Sunnyvale", "lat": 37.36883, "lng": -122.03635, "population": 155805}, {"name": "Frisco", "lat": 33.15067, "lng": -96.82361, "population": 154407}, {"name": "Springfield", "lat": 42.10148, "lng": -72.58981, "population": 154341}, {"name": "East Chattanooga", "lat": 35.06535, "lng": -85.24912, "population": 154024}, {"name": "Pasadena", "lat": 29.69106, "lng": -95.2091, "population": 153784}, {"name": "Jackson", "lat": 32.29876, "lng": -90.18481, "population": 153701}, {"name": "Pomona", "lat": 34.05529, "lng": -117.75228, "population": 153266}, {"name": "Kansas City", "lat": 39.11417, "lng": -94.62746, "population": 152933}, {"name": "Washington Heights", "lat": 40.8501, "lng": -73.93541, "population": 152613}, {"name": "Lakewood", "lat": 39.70471, "lng": -105.08137, "population": 152597}, {"name": "Escondido", "lat": 33.11921, "lng": -117.08642, "population": 151038}, {"name": "Astoria", "lat": 40.77205, "lng": -73.93014, "population": 150165}, {"name": "Hollywood", "lat": 26.0112, "lng": -80.14949, "population": 149728}, {"name": "Borough Park", "lat": 40.63399, "lng": -73.99681, "population": 149248}, {"name": "Valencia", "lat": 34.44361, "lng": -118.60953, "population": 148456}, {"name": "Rockford", "lat": 42.27113, "lng": -89.094, "population": 148278}, {"name": "East Hampton", "lat": 37.03737, "lng": -76.33161, "population": 147993}, {"name": "Joliet", "lat": 41.52519, "lng": -88.0834, "population": 147861}, {"name": "Savannah", "lat": 32.08354, "lng": -81.09983, "population": 147780}, {"name": "Paterson", "lat": 40.91677, "lng": -74.17181, "population": 147754}, {"name": "Bridgeport", "lat": 41.17923, "lng": -73.18945, "population": 147629}, {"name": "Naperville", "lat": 41.78586, "lng": -88.14729, "population": 147100}, {"name": "Gainesville", "lat": 29.65163, "lng": -82.32483, "population": 145214}, {"name": "Mesquite", "lat": 32.7668, "lng": -96.59916, "population": 144788}, {"name": "Syracuse", "lat": 43.04812, "lng": -76.14742, "population": 144142}, {"name": "Torrance", "lat": 33.83585, "lng": -118.34063, "population": 143592}, {"name": "Surprise", "lat": 33.63059, "lng": -112.33322, "population": 143148}, {"name": "Metairie Terrace", "lat": 29.97854, "lng": -90.16396, "population": 142489}, {"name": "Columbia", "lat": 34.00071, "lng": -81.03481, "population": 142416}, {"name": "Pasadena", "lat": 34.14778, "lng": -118.14452, "population": 142250}, {"name": "Orange", "lat": 33.78779, "lng": -117.85311, "population": 140992}, {"name": "Fullerton", "lat": 33.87029, "lng": -117.92534, "population": 140847}, {"name": "Killeen", "lat": 31.11712, "lng": -97.7278, "population": 140806}, {"name": "McAllen", "lat": 26.20341, "lng": -98.23001, "population": 140269}, {"name": "Bellevue", "lat": 47.61038, "lng": -122.20068, "population": 139820}, {"name": "Metairie", "lat": 29.98409, "lng": -90.15285, "population": 138481}, {"name": "Hampton", "lat": 37.02987, "lng": -76.34522, "population": 137148}, {"name": "Miramar", "lat": 25.98731, "lng": -80.23227, "population": 137132}, {"name": "Van Nuys", "lat": 34.18667, "lng": -118.44897, "population": 136443}, {"name": "West Valley City", "lat": 40.69161, "lng": -112.00105, "population": 136208}, {"name": "Dayton", "lat": 39.75895, "lng": -84.19161, "population": 135512}, {"name": "Olathe", "lat": 38.8814, "lng": -94.81913, "population": 134305}, {"name": "Warren", "lat": 42.49044, "lng": -83.01304, "population": 134056}, {"name": "Thornton", "lat": 39.86804, "lng": -104.97192, "population": 133451}, {"name": "Carrollton", "lat": 32.95373, "lng": -96.89028, "population": 133168}, {"name": "Charleston", "lat": 32.77632, "lng": -79.93275, "population": 132609}, {"name": "Midland", "lat": 31.99735, "lng": -102.07791, "population": 132524}, {"name": "Waco", "lat": 31.54933, "lng": -97.14667, "population": 132356}, {"name": "Sterling Heights", "lat": 42.58031, "lng": -83.0302, "population": 132052}, {"name": "Denton", "lat": 33.21484, "lng": -97.13307, "population": 131044}, {"name": "Cedar Rapids", "lat": 42.00833, "lng": -91.64407, "population": 130405}, {"name": "New Haven", "lat": 41.30815, "lng": -72.92816, "population": 130322}, {"name": "Roseville", "lat": 38.75212, "lng": -121.28801, "population": 130269}, {"name": "Visalia", "lat": 36.33023, "lng": -119.29206, "population": 130104}, {"name": "Coral Springs", "lat": 26.27119, "lng": -80.2706, "population": 129485}, {"name": "Thousand Oaks", "lat": 34.17056, "lng": -118.83759, "population": 129339}, {"name": "Columbia", "lat": 38.95171, "lng": -92.33407, "population": 129330}, {"name": "Elizabeth", "lat": 40.66399, "lng": -74.2107, "population": 129007}, {"name": "Stamford", "lat": 41.05343, "lng": -73.53873, "population": 128874}, {"name": "Concord", "lat": 37.97798, "lng": -122.03107, "population": 128667}, {"name": "Norman", "lat": 35.22257, "lng": -97.43948, "population": 128026}, {"name": "Alhambra", "lat": 33.49838, "lng": -112.13432, "population": 127764}, {"name": "Athens", "lat": 33.96095, "lng": -83.37794, "population": 127315}, {"name": "Kent", "lat": 47.38093, "lng": -122.23484, "population": 126952}, {"name": "Simi Valley", "lat": 34.26945, "lng": -118.78148, "population": 126788}, {"name": "East Los Angeles", "lat": 34.0239, "lng": -118.17202, "population": 126496}, {"name": "Santa Clara", "lat": 37.35411, "lng": -121.95524, "population": 126215}, {"name": "Sunset Park", "lat": 40.64548, "lng": -74.01241, "population": 126000}, {"name": "Topeka", "lat": 39.04833, "lng": -95.67804, "population": 125963}, {"name": "Abilene", "lat": 32.44874, "lng": -99.73314, "population": 125182}, {"name": "Koreatown", "lat": 34.05779, "lng": -118.30091, "population": 124281}, {"name": "Sheepshead Bay", "lat": 40.59122, "lng": -73.94458, "population": 122534}, {"name": "Amherst", "lat": 42.97839, "lng": -78.79976, "population": 122366}, {"name": "Victorville", "lat": 34.53611, "lng": -117.29116, "population": 122225}, {"name": "Vallejo", "lat": 38.10409, "lng": -122.25664, "population": 121692}, {"name": "Lafayette", "lat": 30.22409, "lng": -92.01984, "population": 121374}, {"name": "Chico", "lat": 39.72849, "lng": -121.83748, "population": 121345}, {"name": "North Stamford", "lat": 41.13815, "lng": -73.54346, "population": 121230}, {"name": "Hartford", "lat": 41.76371, "lng": -72.68509, "population": 121054}, {"name": "Berkeley", "lat": 37.87159, "lng": -122.27275, "population": 120972}, {"name": "West Palm Beach", "lat": 26.71534, "lng": -80.05337, "population": 120932}, {"name": "Allentown", "lat": 40.60843, "lng": -75.49018, "population": 120207}, {"name": "Evansville", "lat": 37.97476, "lng": -87.55585, "population": 119943}, {"name": "Palm Bay", "lat": 28.03446, "lng": -80.58866, "population": 119760}, {"name": "Fargo", "lat": 46.87719, "lng": -96.7898, "population": 118523}, {"name": "Clearwater", "lat": 27.96585, "lng": -82.8001, "population": 117292}, {"name": "Independence", "lat": 39.09112, "lng": -94.41551, "population": 117255}, {"name": "Billings", "lat": 45.78329, "lng": -108.50069, "population": 117116}, {"name": "Ann Arbor", "lat": 42.27756, "lng": -83.74088, "population": 117070}, {"name": "El Monte", "lat": 34.06862, "lng": -118.02757, "population": 116732}, {"name": "Harlem", "lat": 40.80788, "lng": -73.94542, "population": 116345}, {"name": "Westminster", "lat": 39.83665, "lng": -105.0372, "population": 116317}, {"name": "Round Rock", "lat": 30.50826, "lng": -97.6789, "population": 115997}, {"name": "Wilmington", "lat": 34.23556, "lng": -77.94604, "population": 115933}, {"name": "East Harlem", "lat": 40.79472, "lng": -73.9425, "population": 115921}, {"name": "Arvada", "lat": 39.80276, "lng": -105.08748, "population": 115368}, {"name": "Beaumont", "lat": 30.08605, "lng": -94.10185, "population": 115282}, {"name": "Provo", "lat": 40.23384, "lng": -111.65853, "population": 115162}, {"name": "Peoria", "lat": 40.69365, "lng": -89.58899, "population": 115070}, {"name": "Carlsbad", "lat": 33.15809, "lng": -117.35059, "population": 114746}, {"name": "Odessa", "lat": 31.84568, "lng": -102.36764, "population": 114428}, {"name": "Springfield", "lat": 39.80172, "lng": -89.64371, "population": 114394}, {"name": "Downey", "lat": 33.94001, "lng": -118.13257, "population": 114219}, {"name": "Elmhurst", "lat": 40.73649, "lng": -73.87791, "population": 113364}, {"name": "Costa Mesa", "lat": 33.64113, "lng": -117.91867, "population": 113204}, {"name": "Miami Gardens", "lat": 25.94204, "lng": -80.2456, "population": 113187}, {"name": "North Peoria", "lat": 40.71754, "lng": -89.58426, "population": 113004}, {"name": "Fairfield", "lat": 38.24936, "lng": -122.03997, "population": 112970}, {"name": "Lansing", "lat": 42.73253, "lng": -84.55553, "population": 112644}, {"name": "Bushwick", "lat": 40.69427, "lng": -73.91875, "population": 112620}, {"name": "Gravesend", "lat": 40.5976, "lng": -73.96514, "population": 112229}, {"name": "Rochester", "lat": 44.02163, "lng": -92.4699, "population": 112225}, {"name": "Elgin", "lat": 42.03725, "lng": -88.28119, "population": 112111}, {"name": "West Jordan", "lat": 40.60967, "lng": -111.9391, "population": 111946}, {"name": "Inglewood", "lat": 33.96168, "lng": -118.35313, "population": 111666}, {"name": "Tuscaloosa", "lat": 33.20984, "lng": -87.56917, "population": 111338}, {"name": "Richardson", "lat": 32.94818, "lng": -96.72972, "population": 110815}, {"name": "Lowell", "lat": 42.63342, "lng": -71.31617, "population": 110699}, {"name": "East Independence", "lat": 39.09556, "lng": -94.35523, "population": 110675}, {"name": "Gresham", "lat": 45.49818, "lng": -122.43148, "population": 110553}, {"name": "Antioch", "lat": 38.00492, "lng": -121.80579, "population": 110542}, {"name": "Cambridge", "lat": 42.3751, "lng": -71.10561, "population": 110402}, {"name": "High Point", "lat": 35.95569, "lng": -80.00532, "population": 110268}, {"name": "Manchester", "lat": 42.99564, "lng": -71.45479, "population": 110229}, {"name": "Temecula", "lat": 33.49364, "lng": -117.14836, "population": 110003}, {"name": "Murrieta", "lat": 33.55391, "lng": -117.21392, "population": 109830}, {"name": "Centennial", "lat": 39.57916, "lng": -104.87692, "population": 109741}, {"name": "Richmond", "lat": 37.93576, "lng": -122.34775, "population": 109708}, {"name": "Corona", "lat": 40.74705, "lng": -73.86014, "population": 109698}, {"name": "Pueblo", "lat": 38.25445, "lng": -104.60914, "population": 109412}, {"name": "Pearland", "lat": 29.56357, "lng": -95.28605, "population": 108821}, {"name": "Waterbury", "lat": 41.55815, "lng": -73.0515, "population": 108802}, {"name": "Greeley", "lat": 40.42331, "lng": -104.70913, "population": 108795}, {"name": "West Covina", "lat": 34.06862, "lng": -117.93895, "population": 108484}, {"name": "Enterprise", "lat": 36.02525, "lng": -115.24194, "population": 108481}, {"name": "North Charleston", "lat": 32.85462, "lng": -79.97481, "population": 108304}, {"name": "Everett", "lat": 47.97898, "lng": -122.20208, "population": 108010}, {"name": "College Station", "lat": 30.62798, "lng": -96.33441, "population": 107889}, {"name": "Pompano Beach", "lat": 26.23786, "lng": -80.12477, "population": 107762}, {"name": "South Fulton", "lat": 33.59259, "lng": -84.67294, "population": 107436}, {"name": "Norwalk", "lat": 33.90224, "lng": -118.08173, "population": 107140}, {"name": "Boulder", "lat": 40.01499, "lng": -105.27055, "population": 106803}, {"name": "Broken Arrow", "lat": 36.0526, "lng": -95.79082, "population": 106563}, {"name": "Daly City", "lat": 37.70577, "lng": -122.46192, "population": 106562}, {"name": "Sandy Springs", "lat": 33.92427, "lng": -84.37854, "population": 105330}, {"name": "Burbank", "lat": 34.18084, "lng": -118.30897, "population": 105319}, {"name": "Green Bay", "lat": 44.51916, "lng": -88.01983, "population": 105207}, {"name": "Santa Maria", "lat": 34.95303, "lng": -120.43572, "population": 105093}, {"name": "Universal City", "lat": 34.1389, "lng": -118.35341, "population": 105000}, {"name": "Wichita Falls", "lat": 33.91371, "lng": -98.49339, "population": 104710}, {"name": "Lakeland", "lat": 28.03947, "lng": -81.9498, "population": 104401}, {"name": "Clovis", "lat": 36.82523, "lng": -119.70292, "population": 104180}, {"name": "Lewisville", "lat": 33.04623, "lng": -96.99417, "population": 104039}, {"name": "Tyler", "lat": 32.35126, "lng": -95.30106, "population": 103700}, {"name": "El Cajon", "lat": 32.79477, "lng": -116.96253, "population": 103679}, {"name": "San Mateo", "lat": 37.56299, "lng": -122.32553, "population": 103536}, {"name": "Brandon", "lat": 27.9378, "lng": -82.28592, "population": 103483}, {"name": "Rialto", "lat": 34.1064, "lng": -117.37032, "population": 103132}, {"name": "Davenport", "lat": 41.52364, "lng": -90.57764, "population": 102582}, {"name": "Edison", "lat": 40.51872, "lng": -74.4121, "population": 102548}, {"name": "Hillsboro", "lat": 45.52289, "lng": -122.98983, "population": 102347}, {"name": "Las Cruces", "lat": 32.31232, "lng": -106.77834, "population": 101643}, {"name": "South Bend", "lat": 41.68338, "lng": -86.25001, "population": 101516}, {"name": "Albany", "lat": 42.65258, "lng": -73.75623, "population": 101228}, {"name": "New Bedford", "lat": 41.63526, "lng": -70.92701, "population": 101079}, {"name": "Vista", "lat": 33.20004, "lng": -117.24254, "population": 100890}, {"name": "Davie", "lat": 26.06287, "lng": -80.2331, "population": 100882}, {"name": "Chinatown", "lat": 37.7966, "lng": -122.40858, "population": 100574}, {"name": "Renton", "lat": 47.48288, "lng": -122.21707, "population": 100242}, {"name": "Roanoke", "lat": 37.27097, "lng": -79.94143, "population": 100011}, {"name": "San Angelo", "lat": 31.46377, "lng": -100.43704, "population": 99893}, {"name": "Kenosha", "lat": 42.58474, "lng": -87.82119, "population": 99858}, {"name": "Clinton Township", "lat": 42.58698, "lng": -82.91992, "population": 99753}, {"name": "Columbia", "lat": 39.24038, "lng": -76.83942, "population": 99615}, {"name": "Erie", "lat": 42.12922, "lng": -80.08506, "population": 99475}, {"name": "Portsmouth Heights", "lat": 36.82098, "lng": -76.36883, "population": 99049}, {"name": "Richmond Hill", "lat": 40.69983, "lng": -73.83125, "population": 98984}, {"name": "Alief", "lat": 29.71106, "lng": -95.59633, "population": 98725}, {"name": "Spring Hill", "lat": 28.47688, "lng": -82.52546, "population": 98621}, {"name": "Compton", "lat": 33.89585, "lng": -118.22007, "population": 98462}, {"name": "League City", "lat": 29.50745, "lng": -95.09493, "population": 98312}, {"name": "Flint", "lat": 43.01253, "lng": -83.68746, "population": 98310}, {"name": "Allen", "lat": 33.10317, "lng": -96.67055, "population": 98143}, {"name": "Dorchester", "lat": 42.29732, "lng": -71.0745, "population": 97826}, {"name": "Mission Viejo", "lat": 33.60002, "lng": -117.672, "population": 97156}, {"name": "Vacaville", "lat": 38.35658, "lng": -121.98774, "population": 96803}, {"name": "Ventura", "lat": 34.27834, "lng": -119.29317, "population": 96769}, {"name": "Highlands Ranch", "lat": 39.55388, "lng": -104.96943, "population": 96713}, {"name": "Lawton", "lat": 34.60869, "lng": -98.39033, "population": 96655}, {"name": "Beaverton", "lat": 45.48706, "lng": -122.80371, "population": 96577}, {"name": "South Gate", "lat": 33.95474, "lng": -118.21202, "population": 96401}, {"name": "Portsmouth", "lat": 36.83543, "lng": -76.29827, "population": 96201}, {"name": "Sparks", "lat": 39.53491, "lng": -119.75269, "population": 96094}, {"name": "Yuma", "lat": 32.72532, "lng": -114.6244, "population": 95548}, {"name": "Brockton", "lat": 42.08343, "lng": -71.01838, "population": 95314}, {"name": "Dearborn", "lat": 42.32226, "lng": -83.17631, "population": 95171}, {"name": "Federal Way", "lat": 47.32232, "lng": -122.31262, "population": 95171}, {"name": "Lee's Summit", "lat": 38.91084, "lng": -94.38217, "population": 95094}, {"name": "Asheville", "lat": 35.60095, "lng": -82.55402, "population": 95056}, {"name": "Spokane Valley", "lat": 47.67323, "lng": -117.23937, "population": 94919}, {"name": "Fordham", "lat": 40.85927, "lng": -73.89847, "population": 94678}, {"name": "Livonia", "lat": 42.36837, "lng": -83.35271, "population": 94635}, {"name": "Roswell", "lat": 34.02316, "lng": -84.36159, "population": 94501}, {"name": "Orem", "lat": 40.2969, "lng": -111.69465, "population": 94457}, {"name": "Fall River", "lat": 41.70149, "lng": -71.15505, "population": 94000}, {"name": "Lawrence", "lat": 38.97167, "lng": -95.23525, "population": 93917}, {"name": "The Woodlands", "lat": 30.15799, "lng": -95.48938, "population": 93847}, {"name": "West Albany", "lat": 42.68313, "lng": -73.77845, "population": 93794}, {"name": "Yakima", "lat": 46.60207, "lng": -120.5059, "population": 93701}, {"name": "Quincy", "lat": 42.25288, "lng": -71.00227, "population": 93618}, {"name": "Flatbush", "lat": 40.65205, "lng": -73.95903, "population": 93361}, {"name": "Hesperia", "lat": 34.42639, "lng": -117.30088, "population": 93295}, {"name": "Carson", "lat": 33.83141, "lng": -118.28202, "population": 93281}, {"name": "Boca Raton", "lat": 26.35869, "lng": -80.0831, "population": 93235}, {"name": "Santa Monica", "lat": 34.01949, "lng": -118.49138, "population": 93220}, {"name": "San Marcos", "lat": 33.14337, "lng": -117.16614, "population": 92931}, {"name": "Boyle Heights", "lat": 34.0339, "lng": -118.20535, "population": 92785}, {"name": "Plantation", "lat": 26.13421, "lng": -80.23184, "population": 92560}, {"name": "Lynn", "lat": 42.46676, "lng": -70.94949, "population": 92457}, {"name": "Miami Beach", "lat": 25.79065, "lng": -80.13005, "population": 92312}, {"name": "Arden-Arcade", "lat": 38.6025, "lng": -121.37854, "population": 92186}, {"name": "Westminster", "lat": 33.75918, "lng": -118.00673, "population": 92114}, {"name": "Longmont", "lat": 40.16721, "lng": -105.10193, "population": 92088}, {"name": "Santa Barbara", "lat": 34.42083, "lng": -119.69819, "population": 91842}, {"name": "Redding", "lat": 40.58654, "lng": -122.39168, "population": 91582}, {"name": "Macon", "lat": 32.84069, "lng": -83.6324, "population": 91351}, {"name": "Meridian", "lat": 43.61211, "lng": -116.39151, "population": 90739}, {"name": "San Leandro", "lat": 37.72493, "lng": -122.15608, "population": 90712}, {"name": "Greenville", "lat": 35.61266, "lng": -77.36635, "population": 90597}, {"name": "Edmond", "lat": 35.65283, "lng": -97.4781, "population": 90092}, {"name": "Chinatown", "lat": 40.71649, "lng": -73.99625, "population": 90000}, {"name": "Nampa", "lat": 43.54072, "lng": -116.56346, "population": 89839}, {"name": "Trenton", "lat": 40.21705, "lng": -74.74294, "population": 89620}, {"name": "Sandy Hills", "lat": 40.58106, "lng": -111.85077, "population": 89575}, {"name": "Newton", "lat": 42.33704, "lng": -71.20922, "population": 88817}, {"name": "Toms River", "lat": 39.95373, "lng": -74.19792, "population": 88791}, {"name": "Carmel", "lat": 39.97837, "lng": -86.11804, "population": 88713}, {"name": "Norwalk", "lat": 41.1176, "lng": -73.4079, "population": 88485}, {"name": "Waukegan", "lat": 42.36363, "lng": -87.84479, "population": 88475}, {"name": "Deltona", "lat": 28.90054, "lng": -81.26367, "population": 88474}, {"name": "Hawthorne", "lat": 33.9164, "lng": -118.35257, "population": 88451}, {"name": "Fort Smith", "lat": 35.38592, "lng": -94.39855, "population": 88194}, {"name": "Suffolk", "lat": 36.72836, "lng": -76.58496, "population": 88161}, {"name": "Sugar Land", "lat": 29.61968, "lng": -95.63495, "population": 88156}, {"name": "Livermore", "lat": 37.68187, "lng": -121.76801, "population": 88126}, {"name": "Nashua", "lat": 42.76537, "lng": -71.46757, "population": 87970}, {"name": "Reading", "lat": 40.33565, "lng": -75.92687, "population": 87879}, {"name": "Concord", "lat": 35.40888, "lng": -80.58158, "population": 87696}, {"name": "Indio", "lat": 33.7207, "lng": -116.21677, "population": 87533}, {"name": "Rio Rancho", "lat": 35.23338, "lng": -106.66447, "population": 87521}, {"name": "Enchanted Hills", "lat": 35.33676, "lng": -106.59296, "population": 87521}, {"name": "Santa Fe", "lat": 35.68698, "lng": -105.9378, "population": 87505}, {"name": "Sandy", "lat": 40.59161, "lng": -111.8841, "population": 87461}, {"name": "Whittier", "lat": 33.97918, "lng": -118.03284, "population": 87438}, {"name": "Canarsie", "lat": 40.64372, "lng": -73.90069, "population": 87366}, {"name": "Kirkland", "lat": 47.68149, "lng": -122.20874, "population": 87281}, {"name": "Menifee", "lat": 33.72835, "lng": -117.14642, "population": 87174}, {"name": "Newport Beach", "lat": 33.61891, "lng": -117.92895, "population": 87127}, {"name": "Tracy", "lat": 37.73987, "lng": -121.42618, "population": 87075}, {"name": "Citrus Heights", "lat": 38.70712, "lng": -121.28106, "population": 87056}, {"name": "Bend", "lat": 44.05817, "lng": -121.31531, "population": 87014}, {"name": "Canton", "lat": 42.30865, "lng": -83.48216, "population": 86825}, {"name": "Lehigh Acres", "lat": 26.62535, "lng": -81.6248, "population": 86784}, {"name": "Greenburgh", "lat": 41.03287, "lng": -73.84291, "population": 86764}, {"name": "Bloomington", "lat": 44.8408, "lng": -93.29828, "population": 86435}, {"name": "West Town", "lat": 41.89381, "lng": -87.67493, "population": 86429}, {"name": "Germantown", "lat": 39.17316, "lng": -77.27165, "population": 86395}, {"name": "Clifton", "lat": 40.85843, "lng": -74.16376, "population": 86334}, {"name": "Duluth", "lat": 46.78327, "lng": -92.10658, "population": 86110}, {"name": "Champaign", "lat": 40.11642, "lng": -88.24338, "population": 86096}, {"name": "Near North Side", "lat": 41.90003, "lng": -87.6345, "population": 85711}, {"name": "Chino", "lat": 34.01223, "lng": -117.68894, "population": 85595}, {"name": "Alhambra", "lat": 34.09529, "lng": -118.12701, "population": 85551}, {"name": "Ogden", "lat": 41.223, "lng": -111.97383, "population": 85444}, {"name": "Redwood City", "lat": 37.48522, "lng": -122.23635, "population": 85288}, {"name": "Bellingham", "lat": 48.75955, "lng": -122.48822, "population": 85146}, {"name": "O'Fallon", "lat": 38.81061, "lng": -90.69985, "population": 85040}, {"name": "Hoover", "lat": 33.40539, "lng": -86.81138, "population": 84848}, {"name": "Melbourne", "lat": 28.08363, "lng": -80.60811, "population": 84678}, {"name": "Danbury", "lat": 41.39482, "lng": -73.45401, "population": 84657}, {"name": "East Norwalk", "lat": 41.10565, "lng": -73.39845, "population": 84530}, {"name": "Edinburg", "lat": 26.30174, "lng": -98.16334, "population": 84497}, {"name": "Sunrise", "lat": 26.13397, "lng": -80.1131, "population": 84439}, {"name": "Bloomington", "lat": 39.16533, "lng": -86.52639, "population": 84067}, {"name": "Cicero", "lat": 41.84559, "lng": -87.75394, "population": 83886}, {"name": "Hemet", "lat": 33.74761, "lng": -116.97307, "population": 83861}, {"name": "San Pedro", "lat": 33.73585, "lng": -118.29229, "population": 83556}, {"name": "Ahwatukee Foothills", "lat": 33.34171, "lng": -111.98403, "population": 83464}, {"name": "Johns Creek", "lat": 34.02893, "lng": -84.19858, "population": 83335}, {"name": "Mission", "lat": 26.21591, "lng": -98.32529, "population": 83298}, {"name": "Troy", "lat": 42.60559, "lng": -83.14993, "population": 83280}, {"name": "Buena Park", "lat": 33.86751, "lng": -117.99812, "population": 83270}, {"name": "Mid-City", "lat": 34.04126, "lng": -118.36058, "population": 83000}, {"name": "Palm Coast", "lat": 29.58497, "lng": -81.20784, "population": 82893}, {"name": "Fayetteville", "lat": 36.06258, "lng": -94.15743, "population": 82830}, {"name": "Sioux City", "lat": 42.49999, "lng": -96.40031, "population": 82821}, {"name": "Lake Forest", "lat": 33.64697, "lng": -117.68922, "population": 82492}, {"name": "Merced", "lat": 37.30216, "lng": -120.48297, "population": 82436}, {"name": "Longview", "lat": 32.5007, "lng": -94.74049, "population": 82287}, {"name": "Bryan", "lat": 30.67436, "lng": -96.36996, "population": 82118}, {"name": "Westland", "lat": 42.3242, "lng": -83.40021, "population": 82000}, {"name": "Warwick", "lat": 41.7001, "lng": -71.41617, "population": 81699}, {"name": "Lakewood", "lat": 33.85363, "lng": -118.13396, "population": 81611}, {"name": "Farmington Hills", "lat": 42.48531, "lng": -83.37716, "population": 81330}, {"name": "San Tan Valley", "lat": 33.1911, "lng": -111.528, "population": 81321}, {"name": "Mount Pleasant", "lat": 32.79407, "lng": -79.86259, "population": 81317}, {"name": "Cranston", "lat": 41.77982, "lng": -71.43728, "population": 81073}, {"name": "Largo", "lat": 27.90979, "lng": -82.78842, "population": 81000}, {"name": "Homestead", "lat": 25.46872, "lng": -80.47756, "population": 80737}, {"name": "South Suffolk", "lat": 36.71709, "lng": -76.59023, "population": 80690}, {"name": "Avondale", "lat": 33.4356, "lng": -112.3496, "population": 80684}, {"name": "Tustin", "lat": 33.74585, "lng": -117.82617, "population": 80583}, {"name": "Mountain View", "lat": 37.38605, "lng": -122.08385, "population": 80435}, {"name": "Napa", "lat": 38.29714, "lng": -122.28553, "population": 80434}, {"name": "Somerville", "lat": 42.3876, "lng": -71.0995, "population": 80318}, {"name": "Kendall", "lat": 25.67927, "lng": -80.31727, "population": 80241}, {"name": "Lawrence", "lat": 42.70704, "lng": -71.16311, "population": 80231}, {"name": "Parma", "lat": 41.40477, "lng": -81.72291, "population": 79937}, {"name": "New Rochelle", "lat": 40.91149, "lng": -73.78235, "population": 79846}, {"name": "Lynchburg", "lat": 37.41375, "lng": -79.14225, "population": 79812}, {"name": "Medford", "lat": 42.32652, "lng": -122.87559, "population": 79805}, {"name": "Deerfield Beach", "lat": 26.31841, "lng": -80.09977, "population": 79768}, {"name": "Sylmar", "lat": 34.30778, "lng": -118.44925, "population": 79614}, {"name": "Pleasanton", "lat": 37.66243, "lng": -121.87468, "population": 79510}, {"name": "Belmont Cragin", "lat": 41.9317, "lng": -87.76867, "population": 79159}, {"name": "Brooklyn Park", "lat": 45.09413, "lng": -93.35634, "population": 79149}, {"name": "Goodyear", "lat": 33.43532, "lng": -112.35821, "population": 79003}, {"name": "Kennewick", "lat": 46.21125, "lng": -119.13723, "population": 78896}, {"name": "Alameda", "lat": 37.77099, "lng": -122.26087, "population": 78630}, {"name": "Town 'n' Country", "lat": 28.01057, "lng": -82.57732, "population": 78442}, {"name": "Bellflower", "lat": 33.88168, "lng": -118.11701, "population": 78441}, {"name": "Chino Hills", "lat": 33.9938, "lng": -117.75888, "population": 78309}, {"name": "Bloomington", "lat": 40.4842, "lng": -88.99369, "population": 78292}, {"name": "Alafaya", "lat": 28.5641, "lng": -81.2114, "population": 78113}, {"name": "Springdale", "lat": 36.18674, "lng": -94.12881, "population": 77859}, {"name": "Racine", "lat": 42.72613, "lng": -87.78285, "population": 77742}, {"name": "Hammond", "lat": 41.58337, "lng": -87.50004, "population": 77614}, {"name": "Milpitas", "lat": 37.42827, "lng": -121.90662, "population": 77604}, {"name": "Gary", "lat": 41.59337, "lng": -87.34643, "population": 77156}, {"name": "Scranton", "lat": 41.40916, "lng": -75.6649, "population": 77118}, {"name": "Baldwin Park", "lat": 34.08529, "lng": -117.9609, "population": 77071}, {"name": "Auburn", "lat": 47.30732, "lng": -122.22845, "population": 77006}, {"name": "Fishers", "lat": 39.95559, "lng": -86.01387, "population": 76794}, {"name": "Saint Joseph", "lat": 39.76861, "lng": -94.84663, "population": 76780}, {"name": "Pharr", "lat": 26.1948, "lng": -98.18362, "population": 76538}, {"name": "Upland", "lat": 34.09751, "lng": -117.64839, "population": 76443}, {"name": "Folsom", "lat": 38.67796, "lng": -121.17606, "population": 76375}, {"name": "Baytown", "lat": 29.7355, "lng": -94.97743, "population": 76335}, {"name": "San Ramon", "lat": 37.77993, "lng": -121.97802, "population": 76134}, {"name": "Camden", "lat": 39.92595, "lng": -75.11962, "population": 76119}, {"name": "Lake Charles", "lat": 30.21309, "lng": -93.2044, "population": 76070}, {"name": "Kalamazoo", "lat": 42.29171, "lng": -85.58723, "population": 76041}, {"name": "Brick", "lat": 40.05928, "lng": -74.13708, "population": 76021}, {"name": "Arlington Heights", "lat": 42.08836, "lng": -87.98063, "population": 75926}, {"name": "Plymouth", "lat": 45.01052, "lng": -93.45551, "population": 75907}, {"name": "South Ozone Park", "lat": 40.6701, "lng": -73.81902, "population": 75878}, {"name": "Doral", "lat": 25.81954, "lng": -80.35533, "population": 75874}, {"name": "Waterford", "lat": 42.69303, "lng": -83.41181, "population": 75737}, {"name": "Evanston", "lat": 42.04114, "lng": -87.69006, "population": 75527}, {"name": "Manteca", "lat": 37.79743, "lng": -121.21605, "population": 75448}, {"name": "Wyoming", "lat": 42.91336, "lng": -85.70531, "population": 75275}, {"name": "Loveland", "lat": 40.39776, "lng": -105.07498, "population": 75182}, {"name": "Cheektowaga", "lat": 42.90339, "lng": -78.75475, "population": 75178}, {"name": "Kings Bridge", "lat": 40.87871, "lng": -73.90514, "population": 75132}, {"name": "Bismarck", "lat": 46.80833, "lng": -100.78374, "population": 75092}, {"name": "Perris", "lat": 33.78252, "lng": -117.22865, "population": 74971}, {"name": "Bethlehem", "lat": 40.62593, "lng": -75.37046, "population": 74892}, {"name": "Albany", "lat": 31.57851, "lng": -84.15574, "population": 74843}, {"name": "Schaumburg", "lat": 42.03336, "lng": -88.08341, "population": 74693}, {"name": "Gastonia", "lat": 35.26208, "lng": -81.1873, "population": 74543}, {"name": "Brownsville", "lat": 40.66094, "lng": -73.92014, "population": 74497}, {"name": "Union City", "lat": 37.59577, "lng": -122.01913, "population": 74494}, {"name": "Bolingbrook", "lat": 41.69864, "lng": -88.0684, "population": 74306}, {"name": "Iowa City", "lat": 41.66113, "lng": -91.53017, "population": 74220}, {"name": "Layton", "lat": 41.06022, "lng": -111.97105, "population": 74143}, {"name": "Missouri City", "lat": 29.61857, "lng": -95.53772, "population": 74139}, {"name": "Appleton", "lat": 44.26193, "lng": -88.41538, "population": 74139}, {"name": "Shelby", "lat": 42.67087, "lng": -83.03298, "population": 74099}, {"name": "Fort Myers", "lat": 26.62168, "lng": -81.84059, "population": 74013}, {"name": "Boynton Beach", "lat": 26.52535, "lng": -80.06643, "population": 73966}, {"name": "Jonesboro", "lat": 35.8423, "lng": -90.70428, "population": 73907}, {"name": "South Lawndale", "lat": 41.84364, "lng": -87.71255, "population": 73826}, {"name": "Logan Square", "lat": 41.92337, "lng": -87.69922, "population": 73702}, {"name": "Rapid City", "lat": 44.08054, "lng": -103.23101, "population": 73569}, {"name": "Warner Robins", "lat": 32.61574, "lng": -83.62664, "population": 73490}, {"name": "Rochester Hills", "lat": 42.65837, "lng": -83.14993, "population": 73424}, {"name": "Decatur", "lat": 39.84031, "lng": -88.9548, "population": 73254}, {"name": "Southfield", "lat": 42.47337, "lng": -83.22187, "population": 73156}, {"name": "Saint George", "lat": 37.10415, "lng": -113.58412, "population": 72897}, {"name": "New Britain", "lat": 41.66121, "lng": -72.77954, "population": 72808}, {"name": "Daytona Beach", "lat": 29.21081, "lng": -81.02283, "population": 72647}, {"name": "Franklin", "lat": 35.92506, "lng": -86.86889, "population": 72639}, {"name": "Turlock", "lat": 37.49466, "lng": -120.84659, "population": 72292}, {"name": "Temple", "lat": 31.09823, "lng": -97.34278, "population": 72277}, {"name": "West Ridge", "lat": 41.99975, "lng": -87.69284, "population": 72211}, {"name": "Apple Valley", "lat": 34.50083, "lng": -117.18588, "population": 72174}, {"name": "Lynwood", "lat": 33.93029, "lng": -118.21146, "population": 71989}, {"name": "Waukesha", "lat": 43.01168, "lng": -88.23148, "population": 71970}, {"name": "Canton", "lat": 40.79895, "lng": -81.37845, "population": 71885}, {"name": "Gulfport", "lat": 30.36742, "lng": -89.09282, "population": 71856}, {"name": "Pawtucket", "lat": 41.87871, "lng": -71.38256, "population": 71591}, {"name": "Lauderhill", "lat": 26.14036, "lng": -80.21338, "population": 71579}, {"name": "Rock Hill", "lat": 34.92487, "lng": -81.02508, "population": 71548}, {"name": "Silver Spring", "lat": 38.99067, "lng": -77.02609, "population": 71452}, {"name": "West Gulfport", "lat": 30.40409, "lng": -89.0942, "population": 71329}, {"name": "Flower Mound", "lat": 33.01457, "lng": -97.09696, "population": 71253}, {"name": "Centreville", "lat": 38.84039, "lng": -77.42888, "population": 71135}, {"name": "Lafayette", "lat": 40.4167, "lng": -86.87529, "population": 71111}, {"name": "Passaic", "lat": 40.85677, "lng": -74.12848, "population": 71085}, {"name": "Riverview", "lat": 27.86614, "lng": -82.32648, "population": 71050}, {"name": "Redlands", "lat": 34.05557, "lng": -117.18254, "population": 71035}, {"name": "Missoula", "lat": 46.87215, "lng": -113.994, "population": 71022}, {"name": "Rancho Cordova", "lat": 38.58907, "lng": -121.30273, "population": 71017}, {"name": "Wilmington", "lat": 39.74595, "lng": -75.54659, "population": 70898}, {"name": "New Braunfels", "lat": 29.703, "lng": -98.12445, "population": 70543}, {"name": "Cherry Hill", "lat": 39.93484, "lng": -75.03073, "population": 70475}, {"name": "Flagstaff", "lat": 35.19807, "lng": -111.65127, "population": 70320}, {"name": "Muncie", "lat": 40.19338, "lng": -85.38636, "population": 70087}, {"name": "Mira Mesa", "lat": 32.9156, "lng": -117.14392, "population": 70000}, {"name": "Woodland Hills", "lat": 34.16834, "lng": -118.60592, "population": 70000}, {"name": "Weston", "lat": 26.10037, "lng": -80.39977, "population": 69959}, {"name": "Frederick", "lat": 39.41427, "lng": -77.41054, "population": 69479}, {"name": "Pasco", "lat": 46.23958, "lng": -119.10057, "population": 69451}, {"name": "Pittsburg", "lat": 38.02798, "lng": -121.88468, "population": 69424}, {"name": "Ridgewood", "lat": 40.7001, "lng": -73.90569, "population": 69317}, {"name": "Palatine", "lat": 42.1103, "lng": -88.03424, "population": 69308}, {"name": "North Richland Hills", "lat": 32.8343, "lng": -97.2289, "population": 69204}, {"name": "Union City", "lat": 40.77955, "lng": -74.02375, "population": 69156}, {"name": "Kissimmee", "lat": 28.30468, "lng": -81.41667, "population": 69152}, {"name": "Walnut Creek", "lat": 37.90631, "lng": -122.06496, "population": 68910}, {"name": "Cordova", "lat": 35.15565, "lng": -89.7762, "population": 68779}, {"name": "Mount Vernon", "lat": 40.9126, "lng": -73.83708, "population": 68628}, {"name": "Conroe", "lat": 30.31188, "lng": -95.45605, "population": 68602}, {"name": "Dothan", "lat": 31.22323, "lng": -85.39049, "population": 68567}, {"name": "Northridge", "lat": 34.22834, "lng": -118.53675, "population": 68469}, {"name": "Waterloo", "lat": 42.49276, "lng": -92.34296, "population": 68460}, {"name": "Maple Grove", "lat": 45.07246, "lng": -93.45579, "population": 68385}, {"name": "Framingham", "lat": 42.27926, "lng": -71.41617, "population": 68318}, {"name": "Redondo Beach", "lat": 33.84918, "lng": -118.38841, "population": 68166}, {"name": "Bossier City", "lat": 32.51599, "lng": -93.73212, "population": 68094}, {"name": "Yorba Linda", "lat": 33.88863, "lng": -117.81311, "population": 67973}, {"name": "Woodbury", "lat": 44.92386, "lng": -92.95938, "population": 67855}, {"name": "Eau Claire", "lat": 44.81135, "lng": -91.49849, "population": 67778}, {"name": "Waldorf", "lat": 38.62456, "lng": -76.93914, "population": 67752}, {"name": "Forest Hills", "lat": 40.71621, "lng": -73.85014, "population": 67714}, {"name": "Davis", "lat": 38.54491, "lng": -121.74052, "population": 67666}, {"name": "Glen Burnie", "lat": 39.16261, "lng": -76.62469, "population": 67639}, {"name": "Camarillo", "lat": 34.21639, "lng": -119.0376, "population": 67608}, {"name": "Victoria", "lat": 28.80527, "lng": -97.0036, "population": 67574}, {"name": "Gaithersburg", "lat": 39.14344, "lng": -77.20137, "population": 67456}, {"name": "Jacksonville", "lat": 34.75405, "lng": -77.43024, "population": 67357}, {"name": "South San Francisco", "lat": 37.65466, "lng": -122.40775, "population": 67271}, {"name": "Kenner", "lat": 29.99409, "lng": -90.24174, "population": 67091}, {"name": "Jackson Heights", "lat": 40.75566, "lng": -73.88541, "population": 67067}, {"name": "Rockville", "lat": 39.084, "lng": -77.15276, "population": 66980}, {"name": "Jackson", "lat": 35.61452, "lng": -88.81395, "population": 66975}, {"name": "Lincoln Park", "lat": 41.9217, "lng": -87.64783, "population": 66959}, {"name": "Yuba City", "lat": 39.14045, "lng": -121.61691, "population": 66941}, {"name": "Portland", "lat": 43.65737, "lng": -70.2589, "population": 66881}, {"name": "Palo Alto", "lat": 37.44188, "lng": -122.14302, "population": 66853}, {"name": "Casas Adobes", "lat": 32.32341, "lng": -110.9951, "population": 66795}, {"name": "Marysville", "lat": 48.05176, "lng": -122.17708, "population": 66773}, {"name": "South Jordan", "lat": 40.56217, "lng": -111.92966, "population": 66648}, {"name": "Oshkosh", "lat": 44.02471, "lng": -88.54261, "population": 66555}, {"name": "North Little Rock", "lat": 34.76954, "lng": -92.26709, "population": 66504}, {"name": "Bayside", "lat": 40.76844, "lng": -73.77708, "population": 66455}, {"name": "Bayonne", "lat": 40.66871, "lng": -74.11431, "population": 66311}, {"name": "Eagan", "lat": 44.80413, "lng": -93.16689, "population": 66286}, {"name": "Delray Beach", "lat": 26.46146, "lng": -80.07282, "population": 66255}, {"name": "Johnson City", "lat": 36.31344, "lng": -82.35347, "population": 66027}, {"name": "Dale City", "lat": 38.63706, "lng": -77.31109, "population": 65969}, {"name": "Cedar Park", "lat": 30.5052, "lng": -97.82029, "population": 65945}, {"name": "Parkchester", "lat": 40.83899, "lng": -73.86041, "population": 65876}, {"name": "Atascocita", "lat": 29.99883, "lng": -95.1766, "population": 65844}, {"name": "Saint Cloud", "lat": 45.5608, "lng": -94.16249, "population": 65842}, {"name": "Ellicott City", "lat": 39.26733, "lng": -76.79831, "population": 65834}, {"name": "Laguna Niguel", "lat": 33.52253, "lng": -117.70755, "population": 65806}, {"name": "Saint Charles", "lat": 38.78394, "lng": -90.48123, "population": 65794}, {"name": "Harlingen", "lat": 26.19063, "lng": -97.6961, "population": 65774}, {"name": "San Clemente", "lat": 33.42697, "lng": -117.61199, "population": 65526}, {"name": "West Lynchburg", "lat": 37.4032, "lng": -79.17808, "population": 65517}, {"name": "Middletown", "lat": 40.39428, "lng": -74.11709, "population": 65490}, {"name": "Framingham Center", "lat": 42.29732, "lng": -71.43701, "population": 65413}, {"name": "Schenectady", "lat": 42.81424, "lng": -73.93957, "population": 65305}, {"name": "Cheyenne", "lat": 41.13998, "lng": -104.82025, "population": 65132}, {"name": "Broomfield", "lat": 39.92054, "lng": -105.08665, "population": 65065}, {"name": "Ames", "lat": 42.03471, "lng": -93.61994, "population": 65060}, {"name": "Park Slope", "lat": 40.6701, "lng": -73.98597, "population": 65047}, {"name": "Shawnee", "lat": 39.04167, "lng": -94.72024, "population": 65046}, {"name": "Reseda", "lat": 34.20112, "lng": -118.53647, "population": 65000}, {"name": "Conway", "lat": 35.0887, "lng": -92.4421, "population": 64980}, {"name": "East Orange", "lat": 40.76732, "lng": -74.20487, "population": 64949}, {"name": "Portage Park", "lat": 41.95781, "lng": -87.76506, "population": 64841}, {"name": "Skokie", "lat": 42.03336, "lng": -87.73339, "population": 64821}, {"name": "West Bloomfield Township", "lat": 42.56891, "lng": -83.38356, "population": 64690}, {"name": "Tamarac", "lat": 26.21286, "lng": -80.24977, "population": 64681}, {"name": "Youngstown", "lat": 41.09978, "lng": -80.64952, "population": 64628}, {"name": "Lodi", "lat": 38.1302, "lng": -121.27245, "population": 64596}, {"name": "North Hollywood", "lat": 34.17223, "lng": -118.37897, "population": 64587}, {"name": "Greenville", "lat": 34.85262, "lng": -82.39401, "population": 64579}, {"name": "Mansfield", "lat": 32.56319, "lng": -97.14168, "population": 64274}, {"name": "Santa Cruz", "lat": 36.97412, "lng": -122.0308, "population": 64220}, {"name": "Pico Rivera", "lat": 33.98307, "lng": -118.09673, "population": 64218}, {"name": "Madera", "lat": 36.96134, "lng": -120.06072, "population": 64208}, {"name": "Janesville", "lat": 42.68279, "lng": -89.01872, "population": 64123}, {"name": "West Des Moines", "lat": 41.57721, "lng": -93.71133, "population": 64113}, {"name": "Montebello", "lat": 34.00946, "lng": -118.10535, "population": 63921}, {"name": "Georgetown", "lat": 30.63269, "lng": -97.67723, "population": 63716}, {"name": "Alpharetta", "lat": 34.07538, "lng": -84.29409, "population": 63693}, {"name": "Lorain", "lat": 41.45282, "lng": -82.18237, "population": 63647}, {"name": "Bowling Green", "lat": 36.99032, "lng": -86.4436, "population": 63616}, {"name": "Flatlands", "lat": 40.62122, "lng": -73.93486, "population": 63601}, {"name": "Dundalk", "lat": 39.25066, "lng": -76.52052, "population": 63597}, {"name": "Eden Prairie", "lat": 44.85469, "lng": -93.47079, "population": 63496}, {"name": "North Bergen", "lat": 40.80427, "lng": -74.01208, "population": 63484}, {"name": "Florence-Graham", "lat": 33.96772, "lng": -118.24438, "population": 63387}, {"name": "Waltham", "lat": 42.37649, "lng": -71.23561, "population": 63378}, {"name": "West Hartford", "lat": 41.76204, "lng": -72.74204, "population": 63268}, {"name": "Rogers", "lat": 36.33202, "lng": -94.11854, "population": 63159}, {"name": "Carol City", "lat": 25.94065, "lng": -80.2456, "population": 63031}, {"name": "Encinitas", "lat": 33.03699, "lng": -117.29198, "population": 62930}, {"name": "East Village", "lat": 40.72927, "lng": -73.98736, "population": 62832}, {"name": "Haverhill", "lat": 42.7762, "lng": -71.07728, "population": 62765}, {"name": "Jupiter", "lat": 26.93422, "lng": -80.09421, "population": 62707}, {"name": "Council Bluffs", "lat": 41.26194, "lng": -95.86083, "population": 62597}, {"name": "Wellington", "lat": 26.65868, "lng": -80.24144, "population": 62560}, {"name": "West Coon Rapids", "lat": 45.15969, "lng": -93.34967, "population": 62528}, {"name": "North Miami", "lat": 25.89009, "lng": -80.18671, "population": 62435}, {"name": "Hamilton", "lat": 39.3995, "lng": -84.56134, "population": 62407}, {"name": "North Port", "lat": 27.04422, "lng": -82.23593, "population": 62345}, {"name": "Tulare", "lat": 36.20773, "lng": -119.34734, "population": 62315}, {"name": "Coon Rapids", "lat": 45.11997, "lng": -93.28773, "population": 62240}, {"name": "Millcreek", "lat": 40.68689, "lng": -111.87549, "population": 62139}, {"name": "La Habra", "lat": 33.93196, "lng": -117.94617, "population": 62131}, {"name": "Blaine", "lat": 45.1608, "lng": -93.23495, "population": 62124}, {"name": "Auburn", "lat": 32.60986, "lng": -85.48078, "population": 62059}, {"name": "Lake Elsinore", "lat": 33.66808, "lng": -117.32726, "population": 61981}, {"name": "Carmichael", "lat": 38.61713, "lng": -121.32828, "population": 61762}, {"name": "Taylor", "lat": 42.24087, "lng": -83.26965, "population": 61568}, {"name": "Burnsville", "lat": 44.76774, "lng": -93.27772, "population": 61481}, {"name": "Monterey Park", "lat": 34.06251, "lng": -118.12285, "population": 61468}, {"name": "Castro Valley", "lat": 37.6941, "lng": -122.08635, "population": 61388}, {"name": "Irvington", "lat": 40.73232, "lng": -74.23487, "population": 61323}, {"name": "Rocklin", "lat": 38.79073, "lng": -121.23578, "population": 61213}, {"name": "Utica", "lat": 43.1009, "lng": -75.23266, "population": 61100}, {"name": "Malden", "lat": 42.4251, "lng": -71.06616, "population": 61068}, {"name": "National City", "lat": 32.67811, "lng": -117.0992, "population": 61060}, {"name": "Financial District", "lat": 40.70789, "lng": -74.00857, "population": 60976}, {"name": "Springfield", "lat": 44.04624, "lng": -123.02203, "population": 60870}, {"name": "Bethesda", "lat": 38.98067, "lng": -77.10026, "population": 60858}, {"name": "Terre Haute", "lat": 39.4667, "lng": -87.41391, "population": 60825}, {"name": "Vineland", "lat": 39.48623, "lng": -75.02573, "population": 60818}, {"name": "West Hollywood", "lat": 26.02065, "lng": -80.18394, "population": 60806}, {"name": "San Marcos", "lat": 29.88327, "lng": -97.94139, "population": 60684}, {"name": "Brentwood", "lat": 40.78121, "lng": -73.24623, "population": 60664}, {"name": "Lakeville", "lat": 44.64969, "lng": -93.24272, "population": 60633}, {"name": "West Allis", "lat": 43.01668, "lng": -88.00703, "population": 60620}, {"name": "Redmond", "lat": 47.67399, "lng": -122.12151, "population": 60598}, {"name": "Canoga Park", "lat": 34.20112, "lng": -118.59814, "population": 60578}, {"name": "Cupertino", "lat": 37.323, "lng": -122.03218, "population": 60572}, {"name": "Taylorsville", "lat": 40.66772, "lng": -111.93883, "population": 60514}, {"name": "Bristol", "lat": 41.67176, "lng": -72.94927, "population": 60452}, {"name": "Moore", "lat": 35.33951, "lng": -97.4867, "population": 60451}, {"name": "Gardena", "lat": 33.88835, "lng": -118.30896, "population": 60447}, {"name": "Petaluma", "lat": 38.23242, "lng": -122.63665, "population": 60438}, {"name": "Bensalem", "lat": 40.10455, "lng": -74.95128, "population": 60427}, {"name": "Grand Junction", "lat": 39.06387, "lng": -108.55065, "population": 60358}, {"name": "Casper", "lat": 42.86663, "lng": -106.31308, "population": 60285}, {"name": "Rowlett", "lat": 32.9029, "lng": -96.56388, "population": 60236}, {"name": "La Mesa", "lat": 32.76783, "lng": -117.02308, "population": 60089}, {"name": "Pine Hills", "lat": 28.55778, "lng": -81.4534, "population": 60076}, {"name": "Bensonhurst", "lat": 40.60177, "lng": -73.99403, "population": 60000}, {"name": "Coney Island", "lat": 40.57788, "lng": -73.99403, "population": 60000}, {"name": "Rancho Penasquitos", "lat": 32.95949, "lng": -117.11531, "population": 60000}, {"name": "Valley Glen", "lat": 34.18568, "lng": -118.42032, "population": 60000}, {"name": "Meriden", "lat": 41.53815, "lng": -72.80704, "population": 59988}, {"name": "Pontiac", "lat": 42.63892, "lng": -83.29105, "population": 59917}, {"name": "Port Orange", "lat": 29.13832, "lng": -80.99561, "population": 59866}, {"name": "Hamden", "lat": 41.39593, "lng": -72.89677, "population": 59847}, {"name": "Lakewood", "lat": 47.17176, "lng": -122.51846, "population": 59829}, {"name": "Fountainebleau", "lat": 25.77288, "lng": -80.34783, "population": 59764}, {"name": "Saint Clair Shores", "lat": 42.49698, "lng": -82.88881, "population": 59715}, {"name": "Springfield", "lat": 39.92423, "lng": -83.80882, "population": 59680}, {"name": "Great Falls", "lat": 47.50024, "lng": -111.30081, "population": 59638}, {"name": "Chapel Hill", "lat": 35.9132, "lng": -79.05584, "population": 59568}, {"name": "Canyon Country", "lat": 34.42333, "lng": -118.47203, "population": 59530}, {"name": "Huntington Park", "lat": 33.98168, "lng": -118.22507, "population": 59430}, {"name": "Lancaster", "lat": 40.03788, "lng": -76.30551, "population": 59339}, {"name": "Coconut Creek", "lat": 26.25175, "lng": -80.17894, "population": 59302}, {"name": "Leander", "lat": 30.57881, "lng": -97.85307, "population": 59202}, {"name": "Idaho Falls", "lat": 43.46658, "lng": -112.03414, "population": 59184}, {"name": "San Rafael", "lat": 37.97353, "lng": -122.53109, "population": 59162}, {"name": "Noblesville", "lat": 40.04559, "lng": -86.0086, "population": 59093}, {"name": "Marietta", "lat": 33.9526, "lng": -84.54993, "population": 59067}, {"name": "Fairfield", "lat": 41.14121, "lng": -73.26373, "population": 59052}, {"name": "Owensboro", "lat": 37.77422, "lng": -87.11333, "population": 59042}, {"name": "Eastvale", "lat": 33.96358, "lng": -117.56418, "population": 59039}, {"name": "Royal Oak", "lat": 42.48948, "lng": -83.14465, "population": 59008}, {"name": "Brentwood", "lat": 37.93187, "lng": -121.69579, "population": 58968}, {"name": "Dubuque", "lat": 42.50056, "lng": -90.66457, "population": 58799}, {"name": "Brookline", "lat": 42.33176, "lng": -71.12116, "population": 58732}, {"name": "Novi", "lat": 42.48059, "lng": -83.47549, "population": 58723}, {"name": "Des Plaines", "lat": 42.03336, "lng": -87.8834, "population": 58677}, {"name": "Carson City", "lat": 39.1638, "lng": -119.7674, "population": 58639}, {"name": "Orland Park", "lat": 41.63031, "lng": -87.85394, "population": 58619}, {"name": "Bartlett", "lat": 35.20453, "lng": -89.87398, "population": 58579}, {"name": "Woodland", "lat": 38.67852, "lng": -121.7733, "population": 58567}, {"name": "Lehi", "lat": 40.39162, "lng": -111.85077, "population": 58486}, {"name": "White Plains", "lat": 41.03399, "lng": -73.76291, "population": 58459}, {"name": "Arcadia", "lat": 34.13973, "lng": -118.03534, "population": 58408}, {"name": "Reston", "lat": 38.96872, "lng": -77.3411, "population": 58404}, {"name": "Ocala", "lat": 29.1872, "lng": -82.14009, "population": 58218}, {"name": "Clay", "lat": 43.1859, "lng": -76.17243, "population": 58206}, {"name": "Central City", "lat": 33.44001, "lng": -112.05805, "population": 58161}, {"name": "South Vineland", "lat": 39.44595, "lng": -75.02879, "population": 58122}, {"name": "Sanford", "lat": 28.80055, "lng": -81.27312, "population": 58111}, {"name": "Bowie", "lat": 38.94278, "lng": -76.73028, "population": 58025}, {"name": "Kokomo", "lat": 40.48643, "lng": -86.1336, "population": 57995}, {"name": "Wayne", "lat": 40.92538, "lng": -74.27654, "population": 57915}, {"name": "Santee", "lat": 32.83838, "lng": -116.97392, "population": 57787}, {"name": "Dublin", "lat": 37.70215, "lng": -121.93579, "population": 57721}, {"name": "Palm Harbor", "lat": 28.07807, "lng": -82.76371, "population": 57439}, {"name": "Medford", "lat": 42.41843, "lng": -71.10616, "population": 57403}, {"name": "Midwest City", "lat": 35.44951, "lng": -97.3967, "population": 57249}, {"name": "Center City", "lat": 39.9512, "lng": -75.15923, "population": 57239}, {"name": "Margate", "lat": 26.24453, "lng": -80.20644, "population": 57234}, {"name": "South Whittier", "lat": 33.95015, "lng": -118.03917, "population": 57156}, {"name": "Tinley Park", "lat": 41.57337, "lng": -87.78449, "population": 57143}, {"name": "Pflugerville", "lat": 30.43937, "lng": -97.62, "population": 57122}, {"name": "New Brunswick", "lat": 40.48622, "lng": -74.45182, "population": 57035}, {"name": "Grand Forks", "lat": 47.92526, "lng": -97.03285, "population": 57011}, {"name": "Fountain Valley", "lat": 33.70918, "lng": -117.95367, "population": 56987}, {"name": "North Hills", "lat": 34.23639, "lng": -118.48472, "population": 56946}, {"name": "Diamond Bar", "lat": 34.02862, "lng": -117.81034, "population": 56897}, {"name": "Taunton", "lat": 41.9001, "lng": -71.08977, "population": 56789}, {"name": "Oak Lawn", "lat": 41.71087, "lng": -87.75811, "population": 56781}, {"name": "Union", "lat": 40.6976, "lng": -74.2632, "population": 56771}, {"name": "Ankeny", "lat": 41.72971, "lng": -93.60577, "population": 56764}, {"name": "Chicopee", "lat": 42.1487, "lng": -72.60787, "population": 56741}, {"name": "Irving Park", "lat": 41.95336, "lng": -87.73645, "population": 56520}, {"name": "Berwyn", "lat": 41.85059, "lng": -87.79367, "population": 56368}, {"name": "Manhattan", "lat": 39.18361, "lng": -96.57167, "population": 56308}, {"name": "Kendale Lakes", "lat": 25.70816, "lng": -80.407, "population": 56148}, {"name": "Smyrna", "lat": 33.88399, "lng": -84.51438, "population": 56146}, {"name": "Dearborn Heights", "lat": 42.33698, "lng": -83.27326, "population": 56145}, {"name": "Porterville", "lat": 36.06523, "lng": -119.01677, "population": 56058}, {"name": "Piscataway", "lat": 40.49927, "lng": -74.39904, "population": 56044}, {"name": "Hendersonville", "lat": 36.30477, "lng": -86.62, "population": 56018}, {"name": "Morningside Heights", "lat": 40.81, "lng": -73.9625, "population": 55929}, {"name": "Rocky Mount", "lat": 35.93821, "lng": -77.79053, "population": 55806}, {"name": "Corvallis", "lat": 44.56457, "lng": -123.26204, "population": 55780}, {"name": "Olympia", "lat": 47.04491, "lng": -122.90169, "population": 55733}, {"name": "Valdosta", "lat": 30.83334, "lng": -83.28032, "population": 55724}, {"name": "Hanford", "lat": 36.32745, "lng": -119.64568, "population": 55659}, {"name": "Castle Rock", "lat": 39.37221, "lng": -104.85609, "population": 55591}, {"name": "Greenwood", "lat": 39.61366, "lng": -86.10665, "population": 55586}, {"name": "Chicago Lawn", "lat": 41.77503, "lng": -87.69644, "population": 55551}, {"name": "Hempstead", "lat": 40.70621, "lng": -73.61874, "population": 55547}, {"name": "Novato", "lat": 38.10742, "lng": -122.5697, "population": 55530}, {"name": "Kettering", "lat": 39.6895, "lng": -84.16883, "population": 55525}, {"name": "Bellevue", "lat": 41.13667, "lng": -95.89084, "population": 55510}, {"name": "Shoreline", "lat": 47.75565, "lng": -122.34152, "population": 55439}, {"name": "Decatur", "lat": 34.60593, "lng": -86.98334, "population": 55437}, {"name": "Paramount", "lat": 33.88946, "lng": -118.15979, "population": 55412}, {"name": "Port Arthur", "lat": 29.88519, "lng": -93.94233, "population": 55340}, {"name": "Abington", "lat": 40.12067, "lng": -75.11795, "population": 55310}, {"name": "Anderson", "lat": 40.10532, "lng": -85.68025, "population": 55305}, {"name": "Tamiami", "lat": 25.75871, "lng": -80.39839, "population": 55271}, {"name": "Towson", "lat": 39.4015, "lng": -76.60191, "population": 55197}, {"name": "North Chicopee", "lat": 42.18343, "lng": -72.59953, "population": 55179}, {"name": "Uptown", "lat": 41.9659, "lng": -87.65262, "population": 55137}, {"name": "Sarasota", "lat": 27.33643, "lng": -82.53065, "population": 55118}, {"name": "Cypress Hills", "lat": 40.67705, "lng": -73.89125, "population": 54944}, {"name": "West Haven", "lat": 41.27065, "lng": -72.94705, "population": 54927}, {"name": "Rosemead", "lat": 34.08057, "lng": -118.07285, "population": 54908}, {"name": "Edgewater", "lat": 41.98337, "lng": -87.66395, "population": 54873}, {"name": "Jackson", "lat": 39.7765, "lng": -74.86238, "population": 54856}, {"name": "Highland", "lat": 34.12834, "lng": -117.20865, "population": 54854}, {"name": "Mount Prospect", "lat": 42.06642, "lng": -87.93729, "population": 54747}, {"name": "Colton", "lat": 34.0739, "lng": -117.31365, "population": 54621}, {"name": "Encanto", "lat": 33.47937, "lng": -112.07823, "population": 54614}, {"name": "Pocatello", "lat": 42.8713, "lng": -112.44553, "population": 54441}, {"name": "Bradenton", "lat": 27.49893, "lng": -82.57482, "population": 54437}, {"name": "Rogers Park", "lat": 42.00864, "lng": -87.66672, "population": 54402}, {"name": "Weymouth", "lat": 42.22093, "lng": -70.93977, "population": 54395}, {"name": "Port Charlotte", "lat": 26.97617, "lng": -82.09064, "population": 54392}, {"name": "Normal", "lat": 40.5142, "lng": -88.99063, "population": 54373}, {"name": "Spring", "lat": 30.07994, "lng": -95.41716, "population": 54298}, {"name": "Allapattah", "lat": 25.81454, "lng": -80.22394, "population": 54289}, {"name": "Richland", "lat": 46.28569, "lng": -119.28446, "population": 54248}, {"name": "Euless", "lat": 32.83707, "lng": -97.08195, "population": 54219}, {"name": "Blue Springs", "lat": 39.01695, "lng": -94.28161, "population": 54148}, {"name": "East Pensacola Heights", "lat": 30.42881, "lng": -87.17997, "population": 54104}, {"name": "Hacienda Heights", "lat": 33.99307, "lng": -117.96868, "population": 54038}, {"name": "Ozone Park", "lat": 40.67677, "lng": -73.84375, "population": 53985}, {"name": "Briarwood", "lat": 40.70935, "lng": -73.81529, "population": 53877}, {"name": "Cathedral City", "lat": 33.77974, "lng": -116.46529, "population": 53826}, {"name": "Lakewood", "lat": 40.09789, "lng": -74.21764, "population": 53805}, {"name": "Elyria", "lat": 41.36838, "lng": -82.10765, "population": 53775}, {"name": "Pensacola", "lat": 30.42131, "lng": -87.21691, "population": 53724}, {"name": "Wheaton", "lat": 41.86614, "lng": -88.10701, "population": 53715}, {"name": "Commerce City", "lat": 39.80832, "lng": -104.93387, "population": 53696}, {"name": "Hoboken", "lat": 40.74399, "lng": -74.03236, "population": 53635}, {"name": "Watsonville", "lat": 36.91023, "lng": -121.75689, "population": 53628}, {"name": "Lake Havasu City", "lat": 34.4839, "lng": -114.32245, "population": 53553}, {"name": "Little Havana", "lat": 25.76806, "lng": -80.23306, "population": 53430}, {"name": "Revere", "lat": 42.40843, "lng": -71.01199, "population": 53422}, {"name": "West New York", "lat": 40.78788, "lng": -74.01431, "population": 53366}, {"name": "Yucaipa", "lat": 34.03363, "lng": -117.04309, "population": 53328}, {"name": "Gilroy", "lat": 37.00578, "lng": -121.56828, "population": 53231}, {"name": "Poinciana", "lat": 28.14029, "lng": -81.45841, "population": 53193}, {"name": "University of Texas", "lat": 30.28604, "lng": -97.73889, "population": 53082}, {"name": "Kingsport", "lat": 36.54843, "lng": -82.56182, "population": 53014}, {"name": "Levittown", "lat": 40.15511, "lng": -74.82877, "population": 52983}, {"name": "Palm Beach Gardens", "lat": 26.82339, "lng": -80.13865, "population": 52923}, {"name": "Milford", "lat": 41.22232, "lng": -73.0565, "population": 52759}, {"name": "Delano", "lat": 35.76884, "lng": -119.24705, "population": 52733}, {"name": "West Sacramento", "lat": 38.58046, "lng": -121.53023, "population": 52721}, {"name": "Huntersville", "lat": 35.41069, "lng": -80.84285, "population": 52704}, {"name": "Perth Amboy", "lat": 40.50677, "lng": -74.26542, "population": 52682}, {"name": "Sherman Oaks", "lat": 34.15112, "lng": -118.44925, "population": 52677}, {"name": "Southaven", "lat": 34.98898, "lng": -90.01259, "population": 52589}, {"name": "Saint Peters", "lat": 38.80033, "lng": -90.62651, "population": 52575}, {"name": "Downtown DC", "lat": 38.8935, "lng": -77.01991, "population": 52560}, {"name": "Harrisonburg", "lat": 38.44957, "lng": -78.86892, "population": 52538}, {"name": "Peabody", "lat": 42.52787, "lng": -70.92866, "population": 52504}, {"name": "Placentia", "lat": 33.87224, "lng": -117.87034, "population": 52495}, {"name": "Lenexa", "lat": 38.95362, "lng": -94.73357, "population": 52490}, {"name": "DeSoto", "lat": 32.58986, "lng": -96.85695, "population": 52486}, {"name": "Burlington", "lat": 36.09569, "lng": -79.4378, "population": 52472}, {"name": "South Hill", "lat": 47.14121, "lng": -122.27012, "population": 52431}, {"name": "Elkhart", "lat": 41.68199, "lng": -85.97667, "population": 52348}, {"name": "La Crosse", "lat": 43.80136, "lng": -91.23958, "population": 52306}, {"name": "Oak Park", "lat": 41.88503, "lng": -87.7845, "population": 52287}, {"name": "Florissant", "lat": 38.78922, "lng": -90.32261, "population": 52268}, {"name": "Sammamish", "lat": 47.64177, "lng": -122.0804, "population": 52253}, {"name": "Wakefield", "lat": 40.89788, "lng": -73.85236, "population": 52201}, {"name": "Albany", "lat": 44.63651, "lng": -123.10593, "population": 52175}, {"name": "Hoffman Estates", "lat": 42.04281, "lng": -88.0798, "population": 52138}, {"name": "Albany Park", "lat": 41.96836, "lng": -87.72339, "population": 52079}, {"name": "Methuen", "lat": 42.7262, "lng": -71.19089, "population": 52044}, {"name": "Glendora", "lat": 34.13612, "lng": -117.86534, "population": 52009}, {"name": "Wilmington", "lat": 33.78002, "lng": -118.26257, "population": 52000}, {"name": "Queens Village", "lat": 40.72677, "lng": -73.74152, "population": 51919}, {"name": "Brookhaven", "lat": 33.85844, "lng": -84.3402, "population": 51910}, {"name": "Levittown", "lat": 40.72593, "lng": -73.51429, "population": 51881}, {"name": "Palm Desert", "lat": 33.72255, "lng": -116.37697, "population": 51869}, {"name": "Joplin", "lat": 37.08423, "lng": -94.51328, "population": 51818}, {"name": "Enid", "lat": 36.39559, "lng": -97.87839, "population": 51776}, {"name": "Bonita Springs", "lat": 26.33981, "lng": -81.7787, "population": 51704}, {"name": "Irondequoit", "lat": 43.2134, "lng": -77.57972, "population": 51692}, {"name": "Caldwell", "lat": 43.66294, "lng": -116.68736, "population": 51686}, {"name": "Minnetonka", "lat": 44.9133, "lng": -93.50329, "population": 51669}, {"name": "Pinellas Park", "lat": 27.8428, "lng": -82.69954, "population": 51617}, {"name": "Battle Creek", "lat": 42.3173, "lng": -85.17816, "population": 51589}, {"name": "Casa Grande", "lat": 32.8795, "lng": -111.75735, "population": 51460}, {"name": "South Shore", "lat": 41.76198, "lng": -87.57783, "population": 51451}, {"name": "Mott Haven", "lat": 40.80899, "lng": -73.92291, "population": 51450}, {"name": "The Villages", "lat": 28.93408, "lng": -81.95994, "population": 51442}, {"name": "Grand Island", "lat": 40.92501, "lng": -98.34201, "population": 51440}, {"name": "Grapevine", "lat": 32.93429, "lng": -97.07807, "population": 51404}, {"name": "Stratford", "lat": 41.18454, "lng": -73.13317, "population": 51384}, {"name": "Kentwood", "lat": 42.86947, "lng": -85.64475, "population": 51357}, {"name": "City of Milford (balance)", "lat": 41.22374, "lng": -73.06164, "population": 51271}, {"name": "Tigard", "lat": 45.43123, "lng": -122.77149, "population": 51253}, {"name": "East Hartford", "lat": 41.78232, "lng": -72.61203, "population": 51252}, {"name": "Apple Valley", "lat": 44.73191, "lng": -93.21772, "population": 51221}, {"name": "Plainfield", "lat": 40.63371, "lng": -74.40737, "population": 51217}, {"name": "Leesburg", "lat": 39.11566, "lng": -77.5636, "population": 51209}, {"name": "Parsippany", "lat": 40.85788, "lng": -74.42599, "population": 51144}, {"name": "Coral Gables", "lat": 25.72149, "lng": -80.26838, "population": 51117}, {"name": "The Trails of Frisco", "lat": 33.16087, "lng": -96.87182, "population": 51059}, {"name": "The Hammocks", "lat": 25.67149, "lng": -80.4445, "population": 51003}, {"name": "Buckeye", "lat": 33.37032, "lng": -112.58378, "population": 50876}, {"name": "Flagami", "lat": 25.76232, "lng": -80.31616, "population": 50834}, {"name": "Catalina Foothills", "lat": 32.29785, "lng": -110.9187, "population": 50796}, {"name": "Lakewood", "lat": 41.48199, "lng": -81.79819, "population": 50656}, {"name": "North La Crosse", "lat": 43.84635, "lng": -91.24819, "population": 50470}, {"name": "Burien", "lat": 47.47038, "lng": -122.34679, "population": 50467}, {"name": "Havertown", "lat": 39.98095, "lng": -75.30852, "population": 50430}, {"name": "Logan", "lat": 41.73549, "lng": -111.83439, "population": 50371}, {"name": "South Peabody", "lat": 42.50982, "lng": -70.94949, "population": 50293}, {"name": "Aliso Viejo", "lat": 33.56504, "lng": -117.72712, "population": 50195}, {"name": "Harrisburg", "lat": 40.2737, "lng": -76.88442, "population": 50183}, {"name": "Galveston", "lat": 29.30135, "lng": -94.7977, "population": 50180}, {"name": "Poway", "lat": 32.96282, "lng": -117.03586, "population": 50157}, {"name": "Edina", "lat": 44.88969, "lng": -93.34995, "population": 50138}, {"name": "Minnetonka Mills", "lat": 44.94107, "lng": -93.4419, "population": 50117}, {"name": "Stonecrest", "lat": 33.70849, "lng": -84.13485, "population": 50000}, {"name": "Cerritos", "lat": 33.85835, "lng": -118.06479, "population": 49975}, {"name": "Redford", "lat": 42.38337, "lng": -83.2966, "population": 49936}, {"name": "East Honolulu", "lat": 21.28906, "lng": -157.71734, "population": 49914}, {"name": "Troy", "lat": 42.72841, "lng": -73.69179, "population": 49906}, {"name": "Sunnyside", "lat": 40.73982, "lng": -73.93542, "population": 49833}, {"name": "Lincoln", "lat": 38.89156, "lng": -121.29301, "population": 49757}, {"name": "Wharton", "lat": 39.92678, "lng": -75.15712, "population": 49732}, {"name": "Whitman", "lat": 39.91678, "lng": -75.15546, "population": 49732}, {"name": "Downers Grove", "lat": 41.80892, "lng": -88.01117, "population": 49732}, {"name": "Azusa", "lat": 34.13362, "lng": -117.90756, "population": 49690}, {"name": "Wilson", "lat": 35.72127, "lng": -77.91554, "population": 49643}, {"name": "Monroe", "lat": 32.50931, "lng": -92.1193, "population": 49598}, {"name": "Parker", "lat": 39.5186, "lng": -104.76136, "population": 49550}, {"name": "La Mirada", "lat": 33.91724, "lng": -118.01201, "population": 49520}, {"name": "Minot", "lat": 48.23251, "lng": -101.29627, "population": 49450}, {"name": "Aloha", "lat": 45.49428, "lng": -122.86705, "population": 49425}, {"name": "Saginaw", "lat": 43.41947, "lng": -83.95081, "population": 49347}, {"name": "Bedford", "lat": 32.84402, "lng": -97.14307, "population": 49337}, {"name": "Rancho Santa Margarita", "lat": 33.64086, "lng": -117.6031, "population": 49324}, {"name": "Cypress", "lat": 33.81696, "lng": -118.03729, "population": 49290}, {"name": "Murray", "lat": 40.66689, "lng": -111.88799, "population": 49250}, {"name": "Cuyahoga Falls", "lat": 41.13394, "lng": -81.48456, "population": 49146}, {"name": "Coeur d'Alene", "lat": 47.67768, "lng": -116.78047, "population": 49122}, {"name": "Bloomfield", "lat": 40.80677, "lng": -74.18542, "population": 49120}, {"name": "Rowland Heights", "lat": 33.97612, "lng": -117.90534, "population": 48993}, {"name": "Covina", "lat": 34.09001, "lng": -117.89034, "population": 48984}, {"name": "Stillwater", "lat": 36.11561, "lng": -97.05837, "population": 48967}, {"name": "Niagara Falls", "lat": 43.0945, "lng": -79.05671, "population": 48916}, {"name": "Collierville", "lat": 35.04204, "lng": -89.66453, "population": 48863}, {"name": "Oxford Circle", "lat": 40.05011, "lng": -75.07184, "population": 48856}, {"name": "Summerville", "lat": 33.0185, "lng": -80.17565, "population": 48848}, {"name": "South Bel Air", "lat": 39.53316, "lng": -76.33746, "population": 48828}, {"name": "Sheboygan", "lat": 43.75083, "lng": -87.71453, "population": 48797}, {"name": "Middletown", "lat": 39.51506, "lng": -84.39828, "population": 48760}, {"name": "Aspen Hill", "lat": 39.07955, "lng": -77.07303, "population": 48759}, {"name": "Dunwoody", "lat": 33.94621, "lng": -84.33465, "population": 48733}, {"name": "Huntington", "lat": 38.41925, "lng": -82.44515, "population": 48638}, {"name": "Maricopa", "lat": 33.05811, "lng": -112.04764, "population": 48602}, {"name": "Roswell", "lat": 33.39437, "lng": -104.52491, "population": 48544}, {"name": "Cedar Hill", "lat": 32.58847, "lng": -96.95612, "population": 48507}, {"name": "East Brunswick", "lat": 40.42788, "lng": -74.41598, "population": 48495}, {"name": "East Lansing", "lat": 42.73698, "lng": -84.48387, "population": 48471}, {"name": "Apopka", "lat": 28.67617, "lng": -81.51186, "population": 48382}, {"name": "Maspeth", "lat": 40.72316, "lng": -73.91264, "population": 48325}, {"name": "Wheaton", "lat": 39.03983, "lng": -77.05526, "population": 48284}, {"name": "Mishawaka", "lat": 41.66199, "lng": -86.15862, "population": 48261}, {"name": "Portage", "lat": 42.20115, "lng": -85.58, "population": 48177}, {"name": "West Orange", "lat": 40.79871, "lng": -74.23904, "population": 48131}, {"name": "McLean", "lat": 38.93428, "lng": -77.17748, "population": 48115}, {"name": "Newark", "lat": 40.05812, "lng": -82.40126, "population": 47986}, {"name": "Ceres", "lat": 37.59493, "lng": -120.95771, "population": 47963}, {"name": "Alexandria", "lat": 31.31129, "lng": -92.44514, "population": 47889}, {"name": "Chesterfield", "lat": 38.66311, "lng": -90.57707, "population": 47864}, {"name": "Barnstable", "lat": 41.70011, "lng": -70.29947, "population": 47821}, {"name": "Salina", "lat": 38.84028, "lng": -97.61142, "population": 47813}, {"name": "Lawrence", "lat": 39.83865, "lng": -86.02526, "population": 47809}, {"name": "Bel Air South", "lat": 39.50506, "lng": -76.31977, "population": 47709}, {"name": "Pearl City", "lat": 21.39734, "lng": -157.97516, "population": 47698}, {"name": "Euclid", "lat": 41.5931, "lng": -81.52679, "population": 47676}, {"name": "Roseville", "lat": 42.49726, "lng": -82.93714, "population": 47637}, {"name": "Texas City", "lat": 29.38385, "lng": -94.9027, "population": 47618}, {"name": "Wauwatosa", "lat": 43.04946, "lng": -88.00759, "population": 47614}, {"name": "Vermont Square", "lat": 34.00204, "lng": -118.29896, "population": 47555}, {"name": "Florin", "lat": 38.49602, "lng": -121.40884, "population": 47513}, {"name": "Twin Falls", "lat": 42.56297, "lng": -114.46087, "population": 47468}, {"name": "Glenview", "lat": 42.06975, "lng": -87.78784, "population": 47446}, {"name": "East Providence", "lat": 41.81371, "lng": -71.37005, "population": 47408}, {"name": "Palm Springs", "lat": 33.8303, "lng": -116.54529, "population": 47371}, {"name": "San Luis Obispo", "lat": 35.28275, "lng": -120.65962, "population": 47339}, {"name": "Mission District", "lat": 37.75993, "lng": -122.41914, "population": 47234}, {"name": "Country Club", "lat": 25.94815, "lng": -80.317, "population": 47105}, {"name": "Gwynn Oak", "lat": 39.33261, "lng": -76.69275, "population": 47092}, {"name": "Winnetka", "lat": 34.21334, "lng": -118.57203, "population": 47000}, {"name": "Madison", "lat": 34.69926, "lng": -86.74833, "population": 46962}, {"name": "Jeffersonville", "lat": 38.27757, "lng": -85.73718, "population": 46960}, {"name": "San Jacinto", "lat": 33.78391, "lng": -116.95864, "population": 46951}, {"name": "Mentor", "lat": 41.66616, "lng": -81.33955, "population": 46901}, {"name": "Charleston", "lat": 38.34982, "lng": -81.63262, "population": 46838}, {"name": "Mansfield", "lat": 40.75839, "lng": -82.51545, "population": 46830}, {"name": "Hattiesburg", "lat": 31.32712, "lng": -89.29034, "population": 46805}, {"name": "Draper", "lat": 40.52467, "lng": -111.86382, "population": 46774}, {"name": "Middletown", "lat": 41.56232, "lng": -72.65065, "population": 46756}, {"name": "Wylie", "lat": 33.01512, "lng": -96.53888, "population": 46708}, {"name": "Columbus", "lat": 39.20144, "lng": -85.92138, "population": 46690}, {"name": "Laguna", "lat": 38.42102, "lng": -121.42384, "population": 46621}, {"name": "Smyrna", "lat": 35.98284, "lng": -86.5186, "population": 46607}, {"name": "Charlottesville", "lat": 38.02931, "lng": -78.47668, "population": 46597}, {"name": "Lacey", "lat": 47.03426, "lng": -122.82319, "population": 46409}, {"name": "Makakilo / Kapolei / Honokai Hale", "lat": 21.3374, "lng": -158.09676, "population": 46389}, {"name": "Littleton", "lat": 39.61332, "lng": -105.01665, "population": 46368}, {"name": "Beavercreek", "lat": 39.70923, "lng": -84.06327, "population": 46277}, {"name": "Kannapolis", "lat": 35.48736, "lng": -80.62173, "population": 46144}, {"name": "Everett", "lat": 42.40843, "lng": -71.05366, "population": 46050}, {"name": "Binghamton", "lat": 42.09869, "lng": -75.91797, "population": 46032}, {"name": "Brighton", "lat": 42.3501, "lng": -71.15644, "population": 45977}, {"name": "Elmhurst", "lat": 41.89947, "lng": -87.94034, "population": 45957}, {"name": "Hell's Kitchen", "lat": 40.76496, "lng": -73.9909, "population": 45884}, {"name": "Auburn Gresham", "lat": 41.74179, "lng": -87.65322, "population": 45842}, {"name": "City of Sammamish", "lat": 47.60444, "lng": -122.03768, "population": 45780}, {"name": "Antelope", "lat": 38.70824, "lng": -121.32995, "population": 45770}, {"name": "Keller", "lat": 32.93457, "lng": -97.25168, "population": 45758}, {"name": "Biloxi", "lat": 30.39603, "lng": -88.88531, "population": 45637}, {"name": "Apex", "lat": 35.73265, "lng": -78.85029, "population": 45585}, {"name": "West Lafayette", "lat": 40.42587, "lng": -86.90807, "population": 45550}, {"name": "Cutler Bay", "lat": 25.5783, "lng": -80.3377, "population": 45425}, {"name": "Titusville", "lat": 28.61222, "lng": -80.80755, "population": 45393}, {"name": "Altoona", "lat": 40.51868, "lng": -78.39474, "population": 45344}, {"name": "Newark", "lat": 37.52966, "lng": -122.04024, "population": 45336}, {"name": "Oro Valley", "lat": 32.39091, "lng": -110.96649, "population": 45303}, {"name": "Saint Louis Park", "lat": 44.9483, "lng": -93.34801, "population": 45250}, {"name": "Enfield", "lat": 41.97621, "lng": -72.59176, "population": 45212}, {"name": "Dublin", "lat": 40.09923, "lng": -83.11408, "population": 45098}, {"name": "Tuckahoe", "lat": 37.59015, "lng": -77.55638, "population": 44990}, {"name": "Potomac", "lat": 39.01817, "lng": -77.20859, "population": 44965}, {"name": "Cleveland Heights", "lat": 41.52005, "lng": -81.55624, "population": 44962}, {"name": "Sayreville", "lat": 40.45927, "lng": -74.36098, "population": 44920}, {"name": "Hackensack", "lat": 40.88593, "lng": -74.04347, "population": 44834}, {"name": "Pine Bluff", "lat": 34.22843, "lng": -92.0032, "population": 44772}, {"name": "West Seneca", "lat": 42.85006, "lng": -78.79975, "population": 44711}, {"name": "Strongsville", "lat": 41.3145, "lng": -81.83569, "population": 44668}, {"name": "Coachella", "lat": 33.6803, "lng": -116.17389, "population": 44635}, {"name": "Penn Hills", "lat": 40.50118, "lng": -79.83922, "population": 44610}, {"name": "Encino", "lat": 34.15917, "lng": -118.50119, "population": 44581}, {"name": "Bentonville", "lat": 36.37285, "lng": -94.20882, "population": 44499}, {"name": "Fort Pierce", "lat": 27.44671, "lng": -80.32561, "population": 44484}, {"name": "Bridgewater", "lat": 40.60079, "lng": -74.64815, "population": 44464}, {"name": "Danville", "lat": 37.82159, "lng": -121.99996, "population": 44400}, {"name": "Oakland Park", "lat": 26.17231, "lng": -80.13199, "population": 44319}, {"name": "Attleboro", "lat": 41.94454, "lng": -71.28561, "population": 44284}, {"name": "Severn", "lat": 39.13705, "lng": -76.6983, "population": 44231}, {"name": "Blacksburg", "lat": 37.22957, "lng": -80.41394, "population": 44215}, {"name": "Haltom City", "lat": 32.79957, "lng": -97.26918, "population": 44206}, {"name": "Brighton Park", "lat": 41.81892, "lng": -87.69894, "population": 44202}, {"name": "Lompoc", "lat": 34.63915, "lng": -120.45794, "population": 44164}, {"name": "Wesley Chapel", "lat": 28.23973, "lng": -82.32787, "population": 44092}, {"name": "Urbandale", "lat": 41.62666, "lng": -93.71217, "population": 44062}, {"name": "York", "lat": 39.9626, "lng": -76.72774, "population": 43992}, {"name": "Concord", "lat": 43.20814, "lng": -71.53757, "population": 43976}, {"name": "North Miami Beach", "lat": 25.93315, "lng": -80.16255, "population": 43971}, {"name": "El Centro", "lat": 32.792, "lng": -115.56305, "population": 43956}, {"name": "Rego Park", "lat": 40.72649, "lng": -73.85264, "population": 43925}, {"name": "North Brunswick", "lat": 40.454, "lng": -74.482, "population": 43905}, {"name": "Cleveland", "lat": 35.15952, "lng": -84.87661, "population": 43898}, {"name": "Echo Park", "lat": 34.07808, "lng": -118.26066, "population": 43832}, {"name": "North Bethesda", "lat": 39.04455, "lng": -77.11887, "population": 43828}, {"name": "Beaumont", "lat": 33.92946, "lng": -116.97725, "population": 43811}, {"name": "Kalihi-Palama", "lat": 21.32608, "lng": -157.87594, "population": 43805}, {"name": "Lombard", "lat": 41.88003, "lng": -88.00784, "population": 43797}, {"name": "Bountiful", "lat": 40.88939, "lng": -111.88077, "population": 43784}, {"name": "North Lauderdale", "lat": 26.2173, "lng": -80.22588, "population": 43703}, {"name": "Burleson", "lat": 32.54208, "lng": -97.32085, "population": 43625}, {"name": "Ocoee", "lat": 28.56917, "lng": -81.54396, "population": 43608}, {"name": "Ashburn", "lat": 39.04372, "lng": -77.48749, "population": 43511}, {"name": "Southington", "lat": 41.59649, "lng": -72.8776, "population": 43501}, {"name": "Augusta", "lat": 33.47097, "lng": -81.97484, "population": 43459}, {"name": "Bozeman", "lat": 45.67965, "lng": -111.03856, "population": 43405}, {"name": "Sierra Vista", "lat": 31.55454, "lng": -110.30369, "population": 43355}, {"name": "Freeport", "lat": 40.6576, "lng": -73.58318, "population": 43334}, {"name": "Pittsfield", "lat": 42.45008, "lng": -73.24538, "population": 43303}, {"name": "Hilo", "lat": 19.72991, "lng": -155.09073, "population": 43263}, {"name": "West Babylon", "lat": 40.71816, "lng": -73.35429, "population": 43213}, {"name": "DeKalb", "lat": 41.92947, "lng": -88.75036, "population": 43211}, {"name": "San Bruno", "lat": 37.63049, "lng": -122.41108, "population": 43185}, {"name": "Altamonte Springs", "lat": 28.66111, "lng": -81.36562, "population": 43159}, {"name": "Bell Gardens", "lat": 33.96529, "lng": -118.15146, "population": 43106}, {"name": "Schertz", "lat": 29.55217, "lng": -98.26973, "population": 43091}, {"name": "East Boston", "lat": 42.3751, "lng": -71.03922, "population": 43066}, {"name": "Morgan Hill", "lat": 37.1305, "lng": -121.65439, "population": 42948}, {"name": "Bothell", "lat": 47.76232, "lng": -122.2054, "population": 42939}, {"name": "Fond du Lac", "lat": 43.775, "lng": -88.43883, "population": 42933}, {"name": "Sicklerville", "lat": 39.71734, "lng": -74.96933, "population": 42891}, {"name": "Sayreville Junction", "lat": 40.46538, "lng": -74.33043, "population": 42890}, {"name": "Farmington", "lat": 36.72806, "lng": -108.21869, "population": 42871}, {"name": "Salem", "lat": 42.51977, "lng": -70.89552, "population": 42869}, {"name": "Arlington", "lat": 42.41537, "lng": -71.15644, "population": 42844}, {"name": "La Jolla", "lat": 32.84727, "lng": -117.2742, "population": 42808}, {"name": "Altadena", "lat": 34.18973, "lng": -118.13118, "population": 42777}, {"name": "Fairfield", "lat": 39.34589, "lng": -84.5605, "population": 42767}, {"name": "Ashburn", "lat": 41.74753, "lng": -87.71116, "population": 42752}, {"name": "Rancho Palos Verdes", "lat": 33.74446, "lng": -118.38702, "population": 42732}, {"name": "North Highlands", "lat": 38.68574, "lng": -121.37217, "population": 42694}, {"name": "Moline", "lat": 41.5067, "lng": -90.51513, "population": 42681}, {"name": "East Concord", "lat": 43.24202, "lng": -71.53813, "population": 42605}, {"name": "Jefferson City", "lat": 38.5767, "lng": -92.17352, "population": 42595}, {"name": "Henrietta", "lat": 43.05923, "lng": -77.61222, "population": 42581}, {"name": "Rockwall", "lat": 32.93123, "lng": -96.45971, "population": 42566}, {"name": "Plainfield", "lat": 41.62697, "lng": -88.20395, "population": 42527}, {"name": "Burlington", "lat": 44.47588, "lng": -73.21207, "population": 42452}, {"name": "Rohnert Park", "lat": 38.33964, "lng": -122.7011, "population": 42407}, {"name": "Urbana", "lat": 40.11059, "lng": -88.20727, "population": 42311}, {"name": "Southglenn", "lat": 39.58721, "lng": -104.95276, "population": 42268}, {"name": "Midland", "lat": 43.61558, "lng": -84.24721, "population": 42200}, {"name": "Prescott Valley", "lat": 34.61002, "lng": -112.31572, "population": 42197}, {"name": "Joint Base Pearl Harbor Hickam", "lat": 21.34906, "lng": -157.94713, "population": 42184}, {"name": "State College", "lat": 40.79339, "lng": -77.86, "population": 42161}, {"name": "Kearny", "lat": 40.76843, "lng": -74.14542, "population": 42137}, {"name": "El Dorado Hills", "lat": 38.68574, "lng": -121.08217, "population": 42108}, {"name": "Danville", "lat": 36.58597, "lng": -79.39502, "population": 42082}, {"name": "Belleville", "lat": 38.52005, "lng": -89.98399, "population": 42034}, {"name": "Linden", "lat": 40.62205, "lng": -74.24459, "population": 42021}, {"name": "Moorhead", "lat": 46.87386, "lng": -96.76951, "population": 42005}, {"name": "Woodside", "lat": 40.74538, "lng": -73.90541, "population": 41981}, {"name": "Brea", "lat": 33.91668, "lng": -117.90006, "population": 41944}, {"name": "Riverton", "lat": 40.52189, "lng": -111.9391, "population": 41900}, {"name": "Prescott", "lat": 34.54002, "lng": -112.4685, "population": 41899}, {"name": "Mount Laurel", "lat": 39.934, "lng": -74.891, "population": 41864}, {"name": "The Colony", "lat": 33.08901, "lng": -96.88639, "population": 41779}, {"name": "Manassas", "lat": 38.75095, "lng": -77.47527, "population": 41764}, {"name": "Brentwood", "lat": 36.03312, "lng": -86.78278, "population": 41763}, {"name": "Westfield", "lat": 42.12509, "lng": -72.74954, "population": 41690}, {"name": "Hutchinson", "lat": 38.06084, "lng": -97.92977, "population": 41569}, {"name": "Leominster", "lat": 42.52509, "lng": -71.75979, "population": 41569}, {"name": "Catonsville", "lat": 39.27205, "lng": -76.73192, "population": 41567}, {"name": "Hicksville", "lat": 40.76843, "lng": -73.52513, "population": 41547}, {"name": "Bartlett", "lat": 41.99503, "lng": -88.18563, "population": 41545}, {"name": "Buffalo Grove", "lat": 42.15141, "lng": -87.95979, "population": 41496}, {"name": "Woonsocket", "lat": 42.00288, "lng": -71.51478, "population": 41475}, {"name": "West Hills", "lat": 34.19731, "lng": -118.64398, "population": 41426}, {"name": "Edmonds", "lat": 47.81065, "lng": -122.37736, "population": 41375}, {"name": "Marana", "lat": 32.43674, "lng": -111.22538, "population": 41315}, {"name": "Shelton", "lat": 41.31649, "lng": -73.09316, "population": 41296}, {"name": "Cedar Falls", "lat": 42.52776, "lng": -92.44547, "population": 41255}, {"name": "Chatsworth", "lat": 34.25723, "lng": -118.6012, "population": 41255}, {"name": "Gage Park", "lat": 41.79503, "lng": -87.69616, "population": 41202}, {"name": "Beverly", "lat": 42.55843, "lng": -70.88005, "population": 41186}, {"name": "University", "lat": 28.07389, "lng": -82.43902, "population": 41163}, {"name": "Coppell", "lat": 32.95457, "lng": -97.01501, "population": 41159}, {"name": "Findlay", "lat": 41.04422, "lng": -83.64993, "population": 41149}, {"name": "Campbell", "lat": 37.28717, "lng": -121.94996, "population": 41117}, {"name": "Lake Ridge", "lat": 38.68789, "lng": -77.29776, "population": 41058}, {"name": "Burke", "lat": 38.79345, "lng": -77.27165, "population": 41055}, {"name": "Mankato", "lat": 44.15906, "lng": -94.00915, "population": 41044}, {"name": "Annandale", "lat": 38.83039, "lng": -77.19637, "population": 41008}, {"name": "Covington", "lat": 39.08367, "lng": -84.50855, "population": 40997}, {"name": "New City", "lat": 41.80753, "lng": -87.65644, "population": 40997}, {"name": "Morris Heights", "lat": 40.84982, "lng": -73.91986, "population": 40982}, {"name": "Peachtree Corners", "lat": 33.9701, "lng": -84.22159, "population": 40978}, {"name": "South Valley", "lat": 35.01005, "lng": -106.67808, "population": 40976}, {"name": "Ormond Beach", "lat": 29.28581, "lng": -81.05589, "population": 40970}, {"name": "Carrollwood Village", "lat": 28.06752, "lng": -82.52093, "population": 40949}, {"name": "Huntsville", "lat": 30.72353, "lng": -95.55078, "population": 40938}, {"name": "Venice", "lat": 33.99084, "lng": -118.46008, "population": 40885}, {"name": "Sumter", "lat": 33.92044, "lng": -80.34147, "population": 40816}, {"name": "Annapolis", "lat": 38.97859, "lng": -76.49184, "population": 40812}, {"name": "Quincy", "lat": 39.9356, "lng": -91.40987, "population": 40780}, {"name": "Wilkes-Barre", "lat": 41.24591, "lng": -75.88131, "population": 40780}, {"name": "Lincoln Square", "lat": 41.97587, "lng": -87.68922, "population": 40761}, {"name": "La Puente", "lat": 34.02001, "lng": -117.94951, "population": 40745}, {"name": "Holyoke", "lat": 42.20426, "lng": -72.6162, "population": 40684}, {"name": "Sherman", "lat": 33.63566, "lng": -96.60888, "population": 40667}, {"name": "Goose Creek", "lat": 32.98101, "lng": -80.03259, "population": 40633}, {"name": "Maplewood", "lat": 44.95302, "lng": -92.99522, "population": 40567}, {"name": "Streamwood", "lat": 42.02558, "lng": -88.17841, "population": 40554}, {"name": "Fitchburg", "lat": 42.58342, "lng": -71.8023, "population": 40545}, {"name": "Hilton Head Island", "lat": 32.19382, "lng": -80.73816, "population": 40512}, {"name": "La Quinta", "lat": 33.66336, "lng": -116.31001, "population": 40476}, {"name": "Crystal Lake", "lat": 42.24113, "lng": -88.3162, "population": 40448}, {"name": "Hagerstown", "lat": 39.64176, "lng": -77.71999, "population": 40432}, {"name": "San Gabriel", "lat": 34.09611, "lng": -118.10583, "population": 40424}, {"name": "Hickory", "lat": 35.73319, "lng": -81.3412, "population": 40374}, {"name": "Beverly Cove", "lat": 42.55343, "lng": -70.85366, "population": 40365}, {"name": "Winter Garden", "lat": 28.56528, "lng": -81.58618, "population": 40356}, {"name": "Carol Stream", "lat": 41.91253, "lng": -88.13479, "population": 40356}, {"name": "Warren", "lat": 41.23756, "lng": -80.81842, "population": 40245}, {"name": "Marlboro", "lat": 40.31539, "lng": -74.24626, "population": 40191}, {"name": "Teaneck", "lat": 40.8976, "lng": -74.01597, "population": 40078}, {"name": "Calexico", "lat": 32.67895, "lng": -115.49888, "population": 40053}, {"name": "Florence", "lat": 34.79981, "lng": -87.67725, "population": 40026}, {"name": "St. Johns", "lat": 30.0815, "lng": -81.54774, "population": 40000}, {"name": "Shakopee", "lat": 44.79802, "lng": -93.5269, "population": 39981}, {"name": "Billerica", "lat": 42.55843, "lng": -71.26895, "population": 39904}, {"name": "Norwich", "lat": 41.52426, "lng": -72.07591, "population": 39899}, {"name": "Amherst", "lat": 42.36723, "lng": -72.51852, "population": 39833}, {"name": "Duncanville", "lat": 32.6518, "lng": -96.90834, "population": 39826}, {"name": "New Berlin", "lat": 42.9764, "lng": -88.10842, "population": 39825}, {"name": "Marlborough", "lat": 42.34593, "lng": -71.55229, "population": 39818}, {"name": "Oakley", "lat": 37.99742, "lng": -121.71245, "population": 39813},