[{"name": "Montevideo", "lat": -34.90328, "lng": -56.18816, "population": 1270737}, {"name": "Salto", "lat": -31.38811, "lng": -57.95983, "population": 99823}, {"name": "Paysandú", "lat": -32.3171, "lng": -58.08072, "population": 73249}, {"name": "Las Piedras", "lat": -34.7302, "lng": -56.21915, "population": 69682}, {"name": "Rivera", "lat": -30.90534, "lng": -55.55076, "population": 64631}, {"name": "Maldonado", "lat": -34.89791, "lng": -54.95021, "population": 55478}, {"name": "Tacuarembó", "lat": -31.71882, "lng": -55.97925, "population": 51854}, {"name": "Melo", "lat": -32.3682, "lng": -54.16409, "population": 51023}, {"name": "Mercedes", "lat": -33.2524, "lng": -58.03047, "population": 42359}, {"name": "Artigas", "lat": -30.40431, "lng": -56.46926, "population": 41909}, {"name": "Minas", "lat": -34.37589, "lng": -55.23771, "population": 38025}, {"name": "San José de Mayo", "lat": -34.33898, "lng": -56.71339, "population": 36529}, {"name": "Durazno", "lat": -33.38063, "lng": -56.52312, "population": 33926}, {"name": "Florida", "lat": -34.10032, "lng": -56.21477, "population": 32234}, {"name": "Barros Blancos", "lat": -34.7524, "lng": -56.00259, "population": 31650}, {"name": "San Carlos", "lat": -34.79123, "lng": -54.91824, "population": 27471}, {"name": "Treinta y Tres", "lat": -33.231, "lng": -54.38577, "population": 25653}, {"name": "Rocha", "lat": -34.47995, "lng": -54.33064, "population": 25515}, {"name": "Pando", "lat": -34.71716, "lng": -55.9584, "population": 24047}, {"name": "Fray Bentos", "lat": -33.11651, "lng": -58.31067, "population": 23279}, {"name": "Colonia del Sacramento", "lat": -34.46262, "lng": -57.83976, "population": 21714}, {"name": "Trinidad", "lat": -33.5165, "lng": -56.89957, "population": 21429}, {"name": "La Paz", "lat": -34.76031, "lng": -56.2259, "population": 19913}, {"name": "Canelones", "lat": -34.52381, "lng": -56.28215, "population": 19698}, {"name": "Carmelo", "lat": -34.00023, "lng": -58.28402, "population": 18041}, {"name": "Delta del Tigre", "lat": -34.76488, "lng": -56.3645, "population": 17973}, {"name": "Dolores", "lat": -33.53009, "lng": -58.21701, "population": 17174}, {"name": "Young", "lat": -32.69844, "lng": -57.62693, "population": 16756}, {"name": "Santa Lucía", "lat": -34.45333, "lng": -56.39056, "population": 16438}, {"name": "Progreso", "lat": -34.66737, "lng": -56.21758, "population": 16244}, {"name": "Paso de Carrasco", "lat": -34.86028, "lng": -56.05222, "population": 15393}, {"name": "Río Branco", "lat": -32.59802, "lng": -53.38583, "population": 14604}, {"name": "Paso de los Toros", "lat": -32.81667, "lng": -56.51667, "population": 12985}, {"name": "Juan L. Lacaze", "lat": -34.41888, "lng": -57.45285, "population": 12816}, {"name": "Bella Unión", "lat": -30.25966, "lng": -57.59919, "population": 12200}, {"name": "Libertad", "lat": -34.63459, "lng": -56.61739, "population": 10166}, {"name": "Rosario", "lat": -34.31667, "lng": -57.35, "population": 10085}, {"name": "Nueva Helvecia", "lat": -34.3, "lng": -57.23333, "population": 10054}, {"name": "Nueva Palmira", "lat": -33.87031, "lng": -58.41176, "population": 9857}, {"name": "Chui", "lat": -33.69792, "lng": -53.45926, "population": 9675}, {"name": "Punta del Este", "lat": -34.94747, "lng": -54.93382, "population": 9277}, {"name": "Colonia Nicolich", "lat": -34.81516, "lng": -56.02435, "population": 8902}, {"name": "Salinas", "lat": -34.77731, "lng": -55.83954, "population": 8626}, {"name": "Piriápolis", "lat": -34.86287, "lng": -55.27471, "population": 7968}, {"name": "Castillos", "lat": -34.19871, "lng": -53.85919, "population": 7541}, {"name": "Tranqueras", "lat": -31.2, "lng": -55.75, "population": 7235}, {"name": "Sarandí del Yi", "lat": -33.35, "lng": -55.63333, "population": 7176}, {"name": "San Ramón", "lat": -34.29155, "lng": -55.95571, "population": 7133}, {"name": "Lascano", "lat": -33.67235, "lng": -54.2065, "population": 6976}, {"name": "Tarariras", "lat": -34.26555, "lng": -57.61866, "population": 6632}, {"name": "Pan de Azúcar", "lat": -34.7787, "lng": -55.23582, "population": 6597}, {"name": "Joaquín Suárez", "lat": -34.73501, "lng": -56.0347, "population": 6570}, {"name": "Sarandí Grande", "lat": -33.73333, "lng": -56.33333, "population": 6130}, {"name": "Sauce", "lat": -34.65191, "lng": -56.06431, "population": 5910}, {"name": "Atlántida", "lat": -34.7719, "lng": -55.7584, "population": 5562}, {"name": "Barra de Carrasco", "lat": -34.87722, "lng": -56.02972, "population": 5410}, {"name": "José Pedro Varela", "lat": -33.45451, "lng": -54.53586, "population": 5118}, {"name": "Guichón", "lat": -32.35846, "lng": -57.19778, "population": 5051}, {"name": "Tala", "lat": -34.34349, "lng": -55.76375, "population": 4949}, {"name": "Cardona", "lat": -33.87049, "lng": -57.36954, "population": 4600}, {"name": "Toledo", "lat": -34.73807, "lng": -56.09469, "population": 4397}, {"name": "Empalme Olmos", "lat": -34.69753, "lng": -55.89268, "population": 4199}, {"name": "San Jacinto", "lat": -34.54465, "lng": -55.87151, "population": 3954}, {"name": "Vergara", "lat": -32.94419, "lng": -53.9381, "population": 3810}, {"name": "Minas de Corrales", "lat": -31.57375, "lng": -55.47075, "population": 3788}, {"name": "Santa Rosa", "lat": -34.49819, "lng": -56.03795, "population": 3727}, {"name": "Florencio Sánchez", "lat": -33.87785, "lng": -57.37166, "population": 3716}, {"name": "Vichadero", "lat": -31.77794, "lng": -54.69183, "population": 3698}, {"name": "Marindia", "lat": -34.77433, "lng": -55.82406, "population": 3543}, {"name": "La Paloma", "lat": -34.66268, "lng": -54.16452, "population": 3495}, {"name": "San Gregorio de Polanco", "lat": -32.61667, "lng": -55.83333, "population": 3415}, {"name": "Ombúes de Lavalle", "lat": -33.93783, "lng": -57.80959, "population": 3390}, {"name": "Colonia Valdense", "lat": -34.33957, "lng": -57.26246, "population": 3235}, {"name": "Fraile Muerto", "lat": -32.51667, "lng": -54.53333, "population": 3168}, {"name": "Las Toscas", "lat": -34.73333, "lng": -55.71667, "population": 3146}, {"name": "Tomás Gomensoro", "lat": -30.4287, "lng": -57.43609, "population": 2872}, {"name": "Quebracho", "lat": -31.93526, "lng": -57.9014, "population": 2853}, {"name": "Villa Constitución", "lat": -31.06913, "lng": -57.84946, "population": 2846}, {"name": "Solís de Mataojo", "lat": -34.59951, "lng": -55.46808, "population": 2825}, {"name": "Villa del Carmen", "lat": -33.23943, "lng": -56.00936, "population": 2703}, {"name": "Santa Teresa", "lat": -34.43333, "lng": -57.71667, "population": 2657}, {"name": "Rodríguez", "lat": -34.381, "lng": -56.53797, "population": 2604}, {"name": "Ecilda Paullier", "lat": -34.35778, "lng": -57.04883, "population": 2585}, {"name": "Baltasar Brum", "lat": -30.71905, "lng": -57.32596, "population": 2531}, {"name": "Los Cerrillos", "lat": -34.605, "lng": -56.35639, "population": 2508}, {"name": "Aiguá", "lat": -34.20498, "lng": -54.75665, "population": 2465}, {"name": "Nuevo Berlín", "lat": -32.97974, "lng": -58.05858, "population": 2450}, {"name": "Casupá", "lat": -34.09994, "lng": -55.64811, "population": 2402}, {"name": "Santa Clara de Olimar", "lat": -32.92254, "lng": -54.94447, "population": 2341}, {"name": "Isidoro Noblía", "lat": -31.96218, "lng": -54.12309, "population": 2331}, {"name": "José Batlle y Ordóñez", "lat": -33.46667, "lng": -55.11667, "population": 2203}, {"name": "Las Piedras", "lat": -30.26204, "lng": -57.58174, "population": 2185}, {"name": "Palmitas", "lat": -33.50719, "lng": -57.80079, "population": 2123}, {"name": "José Enrique Rodó", "lat": -33.69618, "lng": -57.53153, "population": 2120}, {"name": "Migues", "lat": -34.48759, "lng": -55.62793, "population": 2109}, {"name": "Belén", "lat": -30.78716, "lng": -57.77577, "population": 2033}, {"name": "Pajas Blancas", "lat": -34.80167, "lng": -56.33417, "population": 2000}, {"name": "San Bautista", "lat": -34.44016, "lng": -55.95861, "population": 1905}, {"name": "25 de Mayo", "lat": -34.18917, "lng": -56.33944, "population": 1852}, {"name": "25 de Agosto", "lat": -34.41167, "lng": -56.40222, "population": 1849}, {"name": "San Javier", "lat": -32.66523, "lng": -58.1332, "population": 1781}, {"name": "Montes", "lat": -34.49339, "lng": -55.56219, "population": 1760}, {"name": "Soca", "lat": -34.68432, "lng": -55.702, "population": 1742}, {"name": "San Félix", "lat": -32.34631, "lng": -58.10094, "population": 1718}, {"name": "Mariscala", "lat": -34.04085, "lng": -54.77732, "population": 1626}, {"name": "Cebollatí", "lat": -33.26703, "lng": -53.79425, "population": 1609}, {"name": "La Paloma", "lat": -32.72689, "lng": -55.5827, "population": 1567}, {"name": "Tambores", "lat": -31.87743, "lng": -56.24438, "population": 1561}, {"name": "Aceguá", "lat": -31.87178, "lng": -54.16351, "population": 1511}, {"name": "Puntas de Valdéz", "lat": -34.5855, "lng": -56.70097, "population": 1491}, {"name": "Santiago Vázquez", "lat": -34.79028, "lng": -56.35, "population": 1468}, {"name": "San Antonio", "lat": -34.4513, "lng": -56.08036, "population": 1453}, {"name": "General Enrique Martínez", "lat": -33.20388, "lng": -53.80524, "population": 1430}, {"name": "Alejandro Gallinal", "lat": -33.86252, "lng": -55.54264, "population": 1357}, {"name": "Puimayen", "lat": -33.77411, "lng": -53.40925, "population": 1346}, {"name": "Juanicó", "lat": -34.59454, "lng": -56.25334, "population": 1305}, {"name": "Cardal", "lat": -34.29056, "lng": -56.38889, "population": 1291}, {"name": "Rafael Perazza", "lat": -34.52335, "lng": -56.7971, "population": 1274}, {"name": "Villa Sara", "lat": -33.2534, "lng": -54.41947, "population": 1199}, {"name": "Porvenir", "lat": -32.39273, "lng": -57.96961, "population": 1159}, {"name": "Pueblo Sequeira", "lat": -30.9892, "lng": -56.87044, "population": 1149}, {"name": "Pueblo Centenario", "lat": -32.86667, "lng": -56.46667, "population": 1136}, {"name": "Villa Soriano", "lat": -33.39811, "lng": -58.32177, "population": 1124}, {"name": "Tupambaé", "lat": -32.83333, "lng": -54.76667, "population": 1122}, {"name": "La Floresta", "lat": -34.75572, "lng": -55.68141, "population": 1107}, {"name": "Santa Bernardina", "lat": -33.3536, "lng": -56.52498, "population": 1094}, {"name": "Piedras Coloradas", "lat": -32.37183, "lng": -57.60901, "population": 1094}, {"name": "Costa Azul", "lat": -34.62925, "lng": -54.15307, "population": 1090}, {"name": "Blanquillo", "lat": -32.76667, "lng": -55.63333, "population": 1084}, {"name": "Santa Catalina", "lat": -33.791, "lng": -57.48824, "population": 1067}, {"name": "Estación Porvenir", "lat": -32.37085, "lng": -57.85371, "population": 1055}, {"name": "Aguas Corrientes", "lat": -34.52194, "lng": -56.39361, "population": 1047}, {"name": "Curtina", "lat": -32.15, "lng": -56.11667, "population": 1037}, {"name": "Cuareim", "lat": -30.22519, "lng": -57.56802, "population": 1025}, {"name": "Velázquez", "lat": -34.03631, "lng": -54.28054, "population": 1022}]