[{"name": "Kingstown", "lat": 13.15527, "lng": -61.22742, "population": 24518}, {"name": "Calliaqua", "lat": 13.12867, "lng": -61.19178, "population": 24205}, {"name": "Diamond", "lat": 13.14077, "lng": -61.16803, "population": 1971}, {"name": "Redemption", "lat": 13.16444, "lng": -61.22944, "population": 1875}, {"name": "Georgetown", "lat": 13.28054, "lng": -61.1185, "population": 1680}, {"name": "Bottle and Glass", "lat": 13.24031, "lng": -61.2742, "population": 1666}, {"name": "New Montrose", "lat": 13.16344, "lng": -61.23144, "population": 1598}, {"name": "Greiggs", "lat": 13.21128, "lng": -61.16284, "population": 1476}, {"name": "Sion Hill", "lat": 13.15202, "lng": -61.21901, "population": 1387}, {"name": "Byera Village", "lat": 13.25636, "lng": -61.11954, "population": 1365}, {"name": "Questelles", "lat": 13.17619, "lng": -61.24893, "population": 1163}, {"name": "Old Montrose", "lat": 13.16679, "lng": -61.22891, "population": 1146}, {"name": "Petit Bordel", "lat": 13.28711, "lng": -61.24458, "population": 1084}, {"name": "Friendly Village", "lat": 13.22821, "lng": -61.12819, "population": 1074}, {"name": "Peruvian Vale", "lat": 13.17711, "lng": -61.14356, "population": 1060}, {"name": "Biabou", "lat": 13.1943, "lng": -61.13904, "population": 1050}, {"name": "Barrouallie", "lat": 13.23676, "lng": -61.27275, "population": 1000}, {"name": "Port Elizabeth", "lat": 13.01102, "lng": -61.23548, "population": 839}, {"name": "Chateaubelair", "lat": 13.29069, "lng": -61.24043, "population": 735}, {"name": "Layou", "lat": 13.20175, "lng": -61.27014, "population": 140}]