[{"name": "Ho Chi Minh City", "lat": 10.82302, "lng": 106.62965, "population": 14002598}, {"name": "Hanoi", "lat": 21.0245, "lng": 105.84117, "population": 8053663}, {"name": "Haiphong", "lat": 20.86481, "lng": 106.68345, "population": 2625200}, {"name": "Cần Thơ", "lat": 10.03711, "lng": 105.78825, "population": 1507187}, {"name": "Huế", "lat": 16.4619, "lng": 107.59546, "population": 1380000}, {"name": "Da Nang", "lat": 16.06778, "lng": 108.22083, "population": 1276000}, {"name": "Biên Hòa", "lat": 10.94469, "lng": 106.82432, "population": 1272235}, {"name": "Thanh Hóa", "lat": 19.8, "lng": 105.76667, "population": 850000}, {"name": "Vinh", "lat": 18.67337, "lng": 105.69232, "population": 790000}, {"name": "Thuận An", "lat": 10.9239, "lng": 106.71428, "population": 588616}, {"name": "Nha Trang", "lat": 12.24507, "lng": 109.19432, "population": 579000}, {"name": "Chợ Lớn", "lat": 10.75, "lng": 106.65, "population": 561000}, {"name": "Bình Thạnh", "lat": 10.811, "lng": 106.706, "population": 552164}, {"name": "Thủ Đức", "lat": 10.84863, "lng": 106.77209, "population": 524670}, {"name": "Qui Nhon", "lat": 13.77648, "lng": 109.22367, "population": 519208}, {"name": "Vũng Tàu", "lat": 10.34599, "lng": 107.08426, "population": 464860}, {"name": "Dĩ An", "lat": 10.90682, "lng": 106.7694, "population": 463023}, {"name": "Rạch Giá", "lat": 10.01245, "lng": 105.08091, "population": 459860}, {"name": "Bắc Giang", "lat": 21.27307, "lng": 106.1946, "population": 450000}, {"name": "Nam Định", "lat": 20.43389, "lng": 106.17729, "population": 448225}, {"name": "Buôn Ma Thuột", "lat": 12.66747, "lng": 108.03775, "population": 434256}, {"name": "Thái Nguyên", "lat": 21.59422, "lng": 105.84817, "population": 420000}, {"name": "Việt Trì", "lat": 21.32274, "lng": 105.40198, "population": 415280}, {"name": "Quận Mười", "lat": 10.76823, "lng": 106.66632, "population": 399000}, {"name": "Thủ Dầu Một", "lat": 10.9804, "lng": 106.6519, "population": 373105}, {"name": "Đống Đa", "lat": 21.02009, "lng": 105.83097, "population": 371606}, {"name": "Bến Cát", "lat": 11.15, "lng": 106.6, "population": 364578}, {"name": "Long Bien", "lat": 21.03333, "lng": 105.9, "population": 347829}, {"name": "Bắc Từ Liêm", "lat": 21.06532, "lng": 105.74661, "population": 340605}, {"name": "Quận Mười Một", "lat": 10.76383, "lng": 106.64355, "population": 332536}, {"name": "Gia Lâm", "lat": 21.05352, "lng": 106.00712, "population": 309353}, {"name": "An Nhơn", "lat": 13.88579, "lng": 109.10823, "population": 308396}, {"name": "Hai Bà Trưng", "lat": 21.01341, "lng": 105.84772, "population": 303586}, {"name": "Nghi Sơn", "lat": 19.32746, "lng": 105.82145, "population": 302210}, {"name": "Phu Quoc", "lat": 10.22409, "lng": 103.97156, "population": 294419}, {"name": "Thanh Xuân", "lat": 20.99472, "lng": 105.79977, "population": 293292}, {"name": "Cầu Giấy", "lat": 21.03228, "lng": 105.80073, "population": 292536}, {"name": "Bắc Ninh", "lat": 21.18608, "lng": 106.07631, "population": 287658}, {"name": "Phú Mỹ", "lat": 10.63333, "lng": 107.06667, "population": 287055}, {"name": "Long Xuyên", "lat": 10.38639, "lng": 105.43518, "population": 286140}, {"name": "Ba Vì", "lat": 21.08333, "lng": 105.38333, "population": 282600}, {"name": "Quảng Ngãi", "lat": 15.12047, "lng": 108.79232, "population": 278496}, {"name": "Quận Sáu", "lat": 10.7468, "lng": 106.64903, "population": 271050}, {"name": "Mỹ Tho", "lat": 10.36004, "lng": 106.35996, "population": 270700}, {"name": "Hạ Long", "lat": 20.95045, "lng": 107.07336, "population": 270054}, {"name": "Ðà Lạt", "lat": 11.94646, "lng": 108.44193, "population": 258014}, {"name": "Xuân Lộc", "lat": 10.93333, "lng": 107.23333, "population": 253140}, {"name": "Thị Trấn Đông Triều", "lat": 21.08242, "lng": 106.5138, "population": 248896}, {"name": "Hải Dương", "lat": 20.94099, "lng": 106.33302, "population": 241373}, {"name": "Thành Phố Bà Rịa", "lat": 10.49626, "lng": 107.1685, "population": 235192}, {"name": "Sơn Tây", "lat": 21.14053, "lng": 105.50686, "population": 230577}, {"name": "Ninh Hòa", "lat": 12.49187, "lng": 109.12495, "population": 230566}, {"name": "Phan Thiết", "lat": 10.92889, "lng": 108.10208, "population": 228536}, {"name": "Điện Bàn", "lat": 15.88853, "lng": 108.25447, "population": 226564}, {"name": "Cà Mau", "lat": 9.17682, "lng": 105.15242, "population": 226372}, {"name": "Ba Dinh", "lat": 21.03652, "lng": 105.82684, "population": 221893}, {"name": "Sóc Trăng", "lat": 9.59995, "lng": 105.97193, "population": 221430}, {"name": "Chí Linh", "lat": 21.06667, "lng": 106.31667, "population": 220421}, {"name": "Quận Ba", "lat": 10.77494, "lng": 106.68628, "population": 220375}, {"name": "Tân An", "lat": 10.53589, "lng": 106.41366, "population": 215250}, {"name": "Sa Dec", "lat": 10.29085, "lng": 105.75635, "population": 214610}, {"name": "Cao Lãnh", "lat": 10.46017, "lng": 105.63294, "population": 211912}, {"name": "Phan Rang-Tháp Chàm", "lat": 11.56432, "lng": 108.98858, "population": 207998}, {"name": "Việt Yên", "lat": 21.26667, "lng": 106.13333, "population": 205900}, {"name": "Kon Tum", "lat": 14.35451, "lng": 108.00759, "population": 205762}, {"name": "Thanh Khê", "lat": 16.0706, "lng": 108.19102, "population": 201240}, {"name": "Lạng Sơn", "lat": 21.85264, "lng": 106.76101, "population": 200108}, {"name": "Thuận Thanh", "lat": 21.046, "lng": 106.079, "population": 199577}, {"name": "Quận Bốn", "lat": 10.76684, "lng": 106.70574, "population": 199329}, {"name": "Cẩm Phả", "lat": 21.01004, "lng": 107.27345, "population": 190232}, {"name": "Quận Năm", "lat": 10.75567, "lng": 106.66745, "population": 187510}, {"name": "Vĩnh Châu", "lat": 9.32439, "lng": 105.98006, "population": 183918}, {"name": "Phúc Yên", "lat": 21.23695, "lng": 105.70483, "population": 180000}, {"name": "Phú Quốc", "lat": 10.28715, "lng": 104.01047, "population": 179480}, {"name": "Tân Châu", "lat": 10.79832, "lng": 105.23887, "population": 175211}, {"name": "Long Khánh", "lat": 10.92655, "lng": 107.24783, "population": 171276}, {"name": "Bảo Lộc", "lat": 11.54798, "lng": 107.80772, "population": 170920}, {"name": "Tây Hồ", "lat": 21.06895, "lng": 105.81053, "population": 168300}, {"name": "Đồng Xoài", "lat": 11.53495, "lng": 106.88324, "population": 168000}, {"name": "Tam Kỳ", "lat": 15.57364, "lng": 108.47403, "population": 165240}, {"name": "Ðông Hà", "lat": 16.81625, "lng": 107.10031, "population": 164228}, {"name": "Trảng Bàng", "lat": 11.02987, "lng": 106.35751, "population": 161831}, {"name": "Đưc Trọng", "lat": 11.73559, "lng": 108.3733, "population": 161232}, {"name": "La Gi", "lat": 10.65993, "lng": 107.77206, "population": 160652}, {"name": "Thành phố Trà Vinh", "lat": 9.94719, "lng": 106.34225, "population": 160310}, {"name": "Thốt Nốt", "lat": 10.27213, "lng": 105.5338, "population": 158225}, {"name": "Bạc Liêu", "lat": 9.29414, "lng": 105.72776, "population": 156110}, {"name": "Tuy Hòa", "lat": 13.09546, "lng": 109.32094, "population": 155921}, {"name": "Đức Phổ", "lat": 14.81355, "lng": 108.95931, "population": 155743}, {"name": "Cần Giuộc", "lat": 10.60857, "lng": 106.67135, "population": 152200}, {"name": "Kỳ Anh", "lat": 18.06243, "lng": 106.29832, "population": 150226}, {"name": "Hòa Thành", "lat": 11.28696, "lng": 106.12936, "population": 147666}, {"name": "Cam Ranh", "lat": 11.92144, "lng": 109.15913, "population": 146771}, {"name": "Giá Rai", "lat": 9.23444, "lng": 105.45833, "population": 145340}, {"name": "Huyện Lâm Hà", "lat": 11.81554, "lng": 108.21444, "population": 144707}, {"name": "Tịnh Biên", "lat": 10.59591, "lng": 104.93669, "population": 143098}, {"name": "Cai Lậy", "lat": 10.4, "lng": 106.11667, "population": 143050}, {"name": "Vĩnh Long", "lat": 10.25369, "lng": 105.9722, "population": 137870}, {"name": "Phủ Lý", "lat": 20.54531, "lng": 105.91221, "population": 136654}, {"name": "Hoàn Kiếm", "lat": 21.02857, "lng": 105.85064, "population": 135618}, {"name": "Cẩm Phả Mines", "lat": 21.01667, "lng": 107.3, "population": 135477}, {"name": "Tây Ninh", "lat": 11.31004, "lng": 106.09828, "population": 135254}, {"name": "Đồng Hới", "lat": 17.46885, "lng": 106.62226, "population": 133672}, {"name": "Quận Đức Thịnh", "lat": 10.30989, "lng": 105.73855, "population": 132000}, {"name": "Hải Châu", "lat": 15.91667, "lng": 108.13333, "population": 131427}, {"name": "Lào Cai", "lat": 22.48556, "lng": 103.97066, "population": 130671}, {"name": "Sầm Sơn", "lat": 19.73333, "lng": 105.9, "population": 129801}, {"name": "Ô Môn", "lat": 10.10974, "lng": 105.62318, "population": 129683}, {"name": "Thành phố Sông Công", "lat": 21.4772, "lng": 105.84137, "population": 128357}, {"name": "Buôn Hồ", "lat": 12.95226, "lng": 108.2962, "population": 127920}, {"name": "Chũ", "lat": 21.37379, "lng": 106.56649, "population": 127881}, {"name": "Bến Tre", "lat": 10.24147, "lng": 106.37585, "population": 124449}, {"name": "Chơn Thành", "lat": 11.42821, "lng": 106.63536, "population": 121083}, {"name": "Bồ Đề", "lat": 21.05618, "lng": 105.86675, "population": 120028}, {"name": "Hòa Cường", "lat": 16.04314, "lng": 108.18209, "population": 119363}, {"name": "Vĩnh Yên", "lat": 21.30891, "lng": 105.60489, "population": 119128}, {"name": "Bắc Quang", "lat": 22.48333, "lng": 104.86667, "population": 118690}, {"name": "Hưng Yên", "lat": 20.64637, "lng": 106.05112, "population": 118646}, {"name": "Nghi Xuân", "lat": 18.658, "lng": 105.752, "population": 118000}, {"name": "Cờ Đỏ", "lat": 10.09377, "lng": 105.42916, "population": 116576}, {"name": "Mỹ Hào", "lat": 20.91667, "lng": 106.08333, "population": 115608}, {"name": "Phong Điền", "lat": 16.58321, "lng": 107.36438, "population": 114820}, {"name": "Pleiku", "lat": 13.98333, "lng": 108.0, "population": 114225}, {"name": "Bình Thủy", "lat": 10.07431, "lng": 105.73974, "population": 113565}, {"name": "Hoàng Mai", "lat": 19.26758, "lng": 105.71594, "population": 113360}, {"name": "Gò Vấp", "lat": 10.81667, "lng": 106.68333, "population": 110850}, {"name": "Thới Lai", "lat": 10.06522, "lng": 105.55863, "population": 109684}, {"name": "Móng Cái", "lat": 21.52471, "lng": 107.96619, "population": 108553}, {"name": "Yên Vinh", "lat": 18.66667, "lng": 105.66667, "population": 107082}, {"name": "Ba Đồn", "lat": 17.75353, "lng": 106.42355, "population": 106413}, {"name": "Sơn La", "lat": 21.3256, "lng": 103.91882, "population": 106052}, {"name": "Hòa Bình", "lat": 20.81717, "lng": 105.33759, "population": 105260}, {"name": "Tuyên Quang", "lat": 21.82356, "lng": 105.21424, "population": 104645}, {"name": "Ngã Bảy", "lat": 9.81371, "lng": 105.82096, "population": 101192}, {"name": "Hồng Ngự", "lat": 10.8, "lng": 105.35, "population": 101155}, {"name": "Yên Bái", "lat": 21.72288, "lng": 104.9113, "population": 100631}, {"name": "Hà Tiên", "lat": 10.3831, "lng": 104.48753, "population": 100560}, {"name": "Phong Điền", "lat": 9.99753, "lng": 105.6673, "population": 98424}, {"name": "Vĩnh Thạnh", "lat": 10.22263, "lng": 105.39841, "population": 98399}, {"name": "Gò Công", "lat": 10.36667, "lng": 106.66667, "population": 97709}, {"name": "Nghĩa Đô", "lat": 21.05, "lng": 105.8, "population": 96418}, {"name": "Hương Thủy", "lat": 16.42184, "lng": 107.63999, "population": 95299}, {"name": "Bình Minh", "lat": 10.06821, "lng": 105.82221, "population": 94862}, {"name": "Sông Cầu", "lat": 13.4556, "lng": 109.22348, "population": 94066}, {"name": "Phú Thọ", "lat": 21.39963, "lng": 105.22221, "population": 91650}, {"name": "Bạch Mai", "lat": 20.98333, "lng": 105.83333, "population": 91308}, {"name": "Tân Bình", "lat": 10.8025, "lng": 106.66, "population": 89373}, {"name": "Thượng Cát", "lat": 21.09342, "lng": 105.73188, "population": 87406}, {"name": "Sơn Trà", "lat": 16.06068, "lng": 108.23256, "population": 86890}, {"name": "Vĩnh Tuy", "lat": 21.0, "lng": 105.88333, "population": 86618}, {"name": "Cái Răng", "lat": 10.0009, "lng": 105.75095, "population": 86278}, {"name": "Sóc Sơn", "lat": 21.25782, "lng": 105.84894, "population": 85431}, {"name": "Gia Nghĩa", "lat": 12.00423, "lng": 107.69074, "population": 85082}, {"name": "Dien Bien Phu", "lat": 21.38602, "lng": 103.02301, "population": 84672}, {"name": "Cam Lộ", "lat": 16.80797, "lng": 106.99405, "population": 83544}, {"name": "An Hải", "lat": 16.06667, "lng": 108.23333, "population": 82635}, {"name": "An Khê", "lat": 13.95, "lng": 108.65, "population": 81600}, {"name": "Cung Kiệm", "lat": 21.18697, "lng": 106.16076, "population": 80000}, {"name": "Cẩm Lệ", "lat": 16.01771, "lng": 108.20381, "population": 78837}, {"name": "Kon Tum", "lat": 14.38333, "lng": 107.98333, "population": 77456}, {"name": "Yên Hòa", "lat": 21.02185, "lng": 105.79147, "population": 77029}, {"name": "Thanh Liệt", "lat": 20.96667, "lng": 105.81667, "population": 76238}, {"name": "Củ Chi", "lat": 10.97333, "lng": 106.49325, "population": 75000}, {"name": "Cao Bằng", "lat": 22.66568, "lng": 106.25786, "population": 73549}, {"name": "Hương Trà", "lat": 16.52539, "lng": 107.4755, "population": 72677}, {"name": "Cổ Đô", "lat": 21.27964, "lng": 105.36404, "population": 70706}, {"name": "Châu Đốc", "lat": 10.7, "lng": 105.11667, "population": 70239}, {"name": "Linh Đàm", "lat": 20.96441, "lng": 105.83054, "population": 70000}, {"name": "Duyên Hải", "lat": 9.63497, "lng": 106.49237, "population": 69961}, {"name": "Núi Thành", "lat": 15.43194, "lng": 108.65946, "population": 69406}, {"name": "Nghĩa Lộ", "lat": 21.6, "lng": 104.51667, "population": 68206}, {"name": "Thái Hòa", "lat": 18.92031, "lng": 104.97441, "population": 66127}, {"name": "Thành Phố Uông Bí", "lat": 21.03433, "lng": 106.77049, "population": 63829}, {"name": "Long Mỹ", "lat": 9.68141, "lng": 105.57226, "population": 61781}, {"name": "Vinhomes Ocean Park", "lat": 20.9948, "lng": 105.9465, "population": 60000}, {"name": "Dại Mỗ", "lat": 20.98333, "lng": 105.76667, "population": 59980}, {"name": "Ngã Năm", "lat": 9.56513, "lng": 105.59897, "population": 58588}, {"name": "Trảng Bom", "lat": 10.95358, "lng": 107.00589, "population": 57560}, {"name": "Châu Phong", "lat": 10.71667, "lng": 105.13333, "population": 56322}, {"name": "Trần Văn Thời", "lat": 9.07713, "lng": 104.97914, "population": 55897}, {"name": "Hà Giang", "lat": 22.82333, "lng": 104.98357, "population": 55559}, {"name": "Cần Giờ", "lat": 10.41115, "lng": 106.95474, "population": 55137}, {"name": "Xóm Cái Nước", "lat": 9.8, "lng": 105.1, "population": 54397}, {"name": "Phong Thạnh", "lat": 9.32361, "lng": 105.34639, "population": 53912}, {"name": "Bỉm Sơn", "lat": 20.07806, "lng": 105.86028, "population": 53754}, {"name": "Thái Bình", "lat": 20.45, "lng": 106.34002, "population": 53071}, {"name": "Uyen Hung", "lat": 11.08416, "lng": 106.78834, "population": 52873}, {"name": "Cửa Nam", "lat": 21.02115, "lng": 105.85231, "population": 52750}, {"name": "Đố Sơn", "lat": 20.71361, "lng": 106.78944, "population": 51417}, {"name": "Hà Đông", "lat": 20.97136, "lng": 105.77876, "population": 50877}, {"name": "Cần Đước", "lat": 10.50966, "lng": 106.60308, "population": 50473}, {"name": "Mui Ne", "lat": 10.93314, "lng": 108.28327, "population": 50166}, {"name": "Vinhomes Smart City", "lat": 21.0045, "lng": 105.7404, "population": 50000}, {"name": "Vinhomes Times City", "lat": 20.9945, "lng": 105.8677, "population": 50000}, {"name": "Thị Trấn Ngải Giao", "lat": 10.6471, "lng": 107.24577, "population": 49065}, {"name": "Phú Khương", "lat": 11.28333, "lng": 106.13333, "population": 47966}, {"name": "Tây Mỗ", "lat": 21.00247, "lng": 105.7457, "population": 46469}, {"name": "Bắc Kạn", "lat": 22.14701, "lng": 105.83481, "population": 45036}, {"name": "Lai Châu", "lat": 22.39644, "lng": 103.45824, "population": 42973}, {"name": "Ấp Một", "lat": 9.84217, "lng": 105.53602, "population": 42766}, {"name": "Mai Dịch", "lat": 21.03333, "lng": 105.78333, "population": 40527}, {"name": "Đan Phượng", "lat": 21.08917, "lng": 105.6625, "population": 39917}, {"name": "Óc Eo", "lat": 10.24212, "lng": 105.155, "population": 39481}, {"name": "Lương Bằng", "lat": 20.74003, "lng": 106.05998, "population": 39420}, {"name": "Hưng Mỹ", "lat": 8.9, "lng": 104.98333, "population": 38687}, {"name": "Thới Bình", "lat": 9.35584, "lng": 105.09929, "population": 38116}, {"name": "Hồng Lĩnh", "lat": 18.52861, "lng": 105.70636, "population": 36940}, {"name": "Ninh Bình", "lat": 20.25809, "lng": 105.97965, "population": 36864}, {"name": "Cái Đôi Vàm", "lat": 8.85707, "lng": 104.81199, "population": 36444}, {"name": "Ô Chợ Dừa", "lat": 21.02146, "lng": 105.82464, "population": 36318}, {"name": "Quán Hàu", "lat": 17.40438, "lng": 106.64072, "population": 36210}, {"name": "Dương Minh Châu", "lat": 11.38414, "lng": 106.23078, "population": 35878}, {"name": "Xã Long Hải", "lat": 10.38706, "lng": 107.23884, "population": 35167}, {"name": "A Yun Pa", "lat": 13.40025, "lng": 108.43503, "population": 35058}, {"name": "Hàm Ninh", "lat": 10.18058, "lng": 104.04769, "population": 33503}, {"name": "Hoi An", "lat": 15.87944, "lng": 108.335, "population": 32757}, {"name": "Xóm Mỹ Xuân", "lat": 10.61667, "lng": 107.06667, "population": 32345}, {"name": "Gành Hào", "lat": 9.02827, "lng": 105.42116, "population": 31552}, {"name": "Láng Thượng", "lat": 21.02374, "lng": 105.8036, "population": 31279}, {"name": "Năm Căn", "lat": 8.75899, "lng": 104.99285, "population": 30135}, {"name": "Trâu Quỳ", "lat": 21.01951, "lng": 105.93694, "population": 30051}, {"name": "Cát Bà", "lat": 20.72779, "lng": 107.04819, "population": 30000}, {"name": "Tu Bông", "lat": 12.76667, "lng": 109.3, "population": 29751}, {"name": "An Trạch", "lat": 9.06861, "lng": 105.39583, "population": 28412}, {"name": "Dịch Vọng", "lat": 21.03333, "lng": 105.8, "population": 27979}, {"name": "Hà Tĩnh", "lat": 18.34282, "lng": 105.90569, "population": 27728}, {"name": "Cầu Diễn", "lat": 21.03929, "lng": 105.76659, "population": 27017}, {"name": "Quảng Phú", "lat": 12.81965, "lng": 108.07738, "population": 26733}, {"name": "Núi Sập", "lat": 10.26478, "lng": 105.26676, "population": 25633}, {"name": "Phú Quý", "lat": 10.5166, "lng": 108.93292, "population": 25267}, {"name": "Phước An", "lat": 12.71298, "lng": 108.30148, "population": 25120}, {"name": "Xuân Mai", "lat": 20.9, "lng": 105.58333, "population": 25100}, {"name": "Quang Minh", "lat": 21.18884, "lng": 105.77269, "population": 25000}, {"name": "Ecopark", "lat": 20.9621, "lng": 105.9318, "population": 25000}, {"name": "Vị Thanh", "lat": 9.78449, "lng": 105.47012, "population": 24477}, {"name": "Mỹ Lại", "lat": 15.18764, "lng": 108.88904, "population": 23978}, {"name": "Mỹ Khê", "lat": 15.15, "lng": 108.9, "population": 23978}, {"name": "Yên Phụ", "lat": 21.03333, "lng": 105.83333, "population": 23942}, {"name": "Buôn Trấp", "lat": 12.48478, "lng": 108.02982, "population": 23683}, {"name": "thị xã Quảng Trị", "lat": 16.75083, "lng": 107.18278, "population": 23356}, {"name": "Tam Giang", "lat": 8.8, "lng": 105.18333, "population": 23277}, {"name": "Tràm Chim", "lat": 10.67001, "lng": 105.56469, "population": 22725}, {"name": "Ấp Hô Phòng", "lat": 9.22583, "lng": 105.41861, "population": 22317}, {"name": "Lý Sơn", "lat": 15.37198, "lng": 109.11891, "population": 22174}, {"name": "Ấp Phước Tĩnh", "lat": 10.4, "lng": 107.18333, "population": 22106}, {"name": "Diễn Thành", "lat": 18.97652, "lng": 105.60034, "population": 21605}, {"name": "Ea Drăng", "lat": 13.2045, "lng": 108.21029, "population": 20600}, {"name": "Liễu Giai", "lat": 21.03333, "lng": 105.81667, "population": 20546}, {"name": "Mường Lay", "lat": 22.0, "lng": 103.13333, "population": 20450}, {"name": "Thị Trấn Đất Đỏ", "lat": 10.49093, "lng": 107.27014, "population": 20187}, {"name": "Vinhomes Royal City", "lat": 21.0028, "lng": 105.8151, "population": 20000}, {"name": "Nghèn", "lat": 18.45119, "lng": 105.77969, "population": 18965}, {"name": "Nhà Bè", "lat": 10.69672, "lng": 106.74032, "population": 17264}, {"name": "Trung Phụng", "lat": 21.0, "lng": 105.83333, "population": 16998}, {"name": "Cổ Lóa", "lat": 21.11667, "lng": 105.86667, "population": 16514}, {"name": "Đại Lộc", "lat": 15.88214, "lng": 108.12092, "population": 16215}, {"name": "Ít Ong", "lat": 21.5175, "lng": 104.02701, "population": 16153}, {"name": "Thị Trấn Việt Quang", "lat": 22.41509, "lng": 104.80682, "population": 16072}, {"name": "Đinh Văn", "lat": 11.78624, "lng": 108.24282, "population": 16036}, {"name": "Phú Đô", "lat": 21.01667, "lng": 105.76667, "population": 15983}, {"name": "Phước Hòa", "lat": 12.1, "lng": 107.11667, "population": 15418}, {"name": "Ấp Bình Châu", "lat": 10.55, "lng": 107.55, "population": 15344}, {"name": "Bà Nà", "lat": 15.98333, "lng": 107.98333, "population": 15276}, {"name": "Dương Đông", "lat": 10.21716, "lng": 103.95929, "population": 15000}, {"name": "Bình Long", "lat": 11.64711, "lng": 106.60586, "population": 15000}, {"name": "Quỳnh Lôi", "lat": 20.98333, "lng": 105.86667, "population": 14970}, {"name": "Yên Viên", "lat": 21.08333, "lng": 105.91667, "population": 14482}, {"name": "Ông Yến", "lat": 9.483, "lng": 105.34588, "population": 14141}, {"name": "Thổ Tăng", "lat": 21.25532, "lng": 105.48938, "population": 14049}, {"name": "Khe Sanh", "lat": 16.62825, "lng": 106.73884, "population": 13927}, {"name": "Thụy Phương", "lat": 21.08333, "lng": 105.78333, "population": 13676}, {"name": "Thạch Hà", "lat": 18.36788, "lng": 105.86122, "population": 13647}, {"name": "Ngọc Hồi", "lat": 20.92189, "lng": 105.85198, "population": 13453}, {"name": "Rạch Gốc", "lat": 8.61187, "lng": 105.00507, "population": 13144}, {"name": "Ba Chúc", "lat": 10.49427, "lng": 104.9072, "population": 13122}, {"name": "Côn Đảo", "lat": 8.70287, "lng": 106.64892, "population": 13112}, {"name": "Thị Trấn Ba Hàng", "lat": 21.41546, "lng": 105.8732, "population": 13023}, {"name": "Hồ Xá", "lat": 17.06836, "lng": 107.0052, "population": 13000}, {"name": "Tây Đằng", "lat": 21.19809, "lng": 105.42217, "population": 12877}, {"name": "Lao Bảo", "lat": 16.61406, "lng": 106.60065, "population": 12862}, {"name": "Cẩm Xuyên", "lat": 18.25029, "lng": 106.00132, "population": 12857}, {"name": "Ea Na", "lat": 12.54289, "lng": 107.98978, "population": 12780}, {"name": "Phú Túc", "lat": 13.19682, "lng": 108.69043, "population": 12000}, {"name": "Suối Nghệ", "lat": 10.59194, "lng": 107.21619, "population": 11894}, {"name": "Cửa Lô", "lat": 18.81667, "lng": 105.71667, "population": 11884}, {"name": "Trại Khoai", "lat": 21.13174, "lng": 105.34479, "population": 11833}, {"name": "Kép", "lat": 21.4, "lng": 106.26667, "population": 11832}, {"name": "Đức Thọ", "lat": 18.53957, "lng": 105.58302, "population": 11728}, {"name": "Mường Nhé", "lat": 22.19236, "lng": 102.4579, "population": 11671}, {"name": "Xuân Trùng", "lat": 21.05751, "lng": 105.28383, "population": 11506}, {"name": "Hàng Trạm", "lat": 20.39472, "lng": 105.6224, "population": 11503}, {"name": "Phụng Nghia", "lat": 20.95, "lng": 105.71667, "population": 11500}, {"name": "Lăng Cô", "lat": 16.23866, "lng": 108.08041, "population": 10810}, {"name": "Đại Nghĩa", "lat": 15.87901, "lng": 108.08903, "population": 10808}, {"name": "Hương Khê", "lat": 18.17669, "lng": 105.70019, "population": 10768}, {"name": "Đại Quang", "lat": 15.86667, "lng": 108.05, "population": 10666}, {"name": "Đại Đồng", "lat": 15.87439, "lng": 108.02133, "population": 10659}, {"name": "Sa Pa", "lat": 22.34023, "lng": 103.84415, "population": 10554}, {"name": "Khánh Vĩnh Yên", "lat": 18.46312, "lng": 105.7131, "population": 10244}, {"name": "Nguyễn Du", "lat": 21.01667, "lng": 105.85, "population": 10078}, {"name": "Ấp Bình Chánh", "lat": 10.55329, "lng": 105.25808, "population": 10000}, {"name": "Tra Que Vegetable Village", "lat": 15.90223, "lng": 108.33884, "population": 10000}, {"name": "Lim", "lat": 21.14388, "lng": 106.02018, "population": 9923}, {"name": "Xuyên Mộc", "lat": 10.56667, "lng": 107.41667, "population": 9804}, {"name": "Xã Bình Giả", "lat": 10.65, "lng": 107.26667, "population": 9780}, {"name": "Vụ Bản", "lat": 20.4642, "lng": 105.44348, "population": 9497}, {"name": "Lộc Bình", "lat": 21.75873, "lng": 106.92335, "population": 9427}, {"name": "Ông Do", "lat": 8.82432, "lng": 105.00874, "population": 9253}, {"name": "Ấp Xuân Sơn", "lat": 10.65, "lng": 107.35, "population": 9117}, {"name": "Sa Rài", "lat": 10.87016, "lng": 105.46583, "population": 9003}, {"name": "Liên Quan", "lat": 21.05723, "lng": 105.57919, "population": 8997}, {"name": "Ấp Tân Mỹ", "lat": 10.61667, "lng": 105.51667, "population": 8923}, {"name": "Thị Trấn Đồng Đăng", "lat": 21.9511, "lng": 106.69767, "population": 8922}, {"name": "Kim Song Trường", "lat": 18.46343, "lng": 105.68731, "population": 8905}, {"name": "Ấp Tân Ngãi", "lat": 10.23333, "lng": 106.28333, "population": 8887}, {"name": "Vượng Lộc", "lat": 18.4806, "lng": 105.73372, "population": 8866}, {"name": "Trường Sơn", "lat": 18.38333, "lng": 105.73333, "population": 8757}, {"name": "U Minh", "lat": 9.41286, "lng": 104.97353, "population": 8696}, {"name": "Thị Trấn Cao Lộc", "lat": 21.8665, "lng": 106.76833, "population": 8653}, {"name": "Tuần Giáo", "lat": 21.58333, "lng": 103.41667, "population": 8512}, {"name": "Phố Châu", "lat": 18.51335, "lng": 105.42411, "population": 8481}, {"name": "Nhã Nam", "lat": 21.45, "lng": 106.1, "population": 8461}, {"name": "Đại Cường", "lat": 15.85, "lng": 108.08333, "population": 8436}, {"name": "Tùng Lộc", "lat": 18.45761, "lng": 105.81484, "population": 8388}, {"name": "Đường Lâm", "lat": 21.1533, "lng": 105.4712, "population": 8329}, {"name": "Vân Tùng", "lat": 22.43082, "lng": 105.99687, "population": 8260}, {"name": "An Hà", "lat": 15.58333, "lng": 108.48333, "population": 8245}, {"name": "Tân Ninh", "lat": 10.33353, "lng": 106.4449, "population": 8000}, {"name": "Thuần Thiện", "lat": 18.47422, "lng": 105.78691, "population": 7949}, {"name": "Thị Trấn Đồng Văn", "lat": 23.27841, "lng": 105.36291, "population": 7912}, {"name": "Phúc Sơn", "lat": 18.96667, "lng": 105.05, "population": 7746}, {"name": "Ich Hau", "lat": 18.45, "lng": 105.85, "population": 7538}, {"name": "Tú Trưng", "lat": 21.19889, "lng": 105.53278, "population": 7530}, {"name": "Buôn Tur", "lat": 12.5, "lng": 108.01667, "population": 7500}, {"name": "Ea Súp", "lat": 13.06616, "lng": 107.88546, "population": 7484}, {"name": "Xuân Lộc", "lat": 18.41897, "lng": 105.75842, "population": 7354}, {"name": "Phong Châu", "lat": 21.23931, "lng": 105.43247, "population": 7346}, {"name": "Mỹ Lộc", "lat": 18.36531, "lng": 105.75327, "population": 7061}, {"name": "Gio Linh", "lat": 16.9248, "lng": 107.08438, "population": 7002}, {"name": "Côn Sơn", "lat": 8.68641, "lng": 106.60824, "population": 6800}, {"name": "Bùi Xá", "lat": 18.38983, "lng": 105.82503, "population": 6634}, {"name": "Bắc Lũng", "lat": 21.26667, "lng": 106.38333, "population": 6618}, {"name": "Thiên Lộc", "lat": 18.50421, "lng": 105.76884, "population": 6571}, {"name": "Trà My", "lat": 15.33965, "lng": 108.22065, "population": 6559}, {"name": "Na Lay", "lat": 22.03509, "lng": 103.15347, "population": 6556}, {"name": "Bích Chu", "lat": 21.20725, "lng": 105.4755, "population": 6500}, {"name": "Gôi", "lat": 20.33335, "lng": 106.07826, "population": 6339}, {"name": "Nà Tấu", "lat": 21.50635, "lng": 103.1178, "population": 6333}, {"name": "Sơn Lộc", "lat": 18.37189, "lng": 105.77953, "population": 6263}, {"name": "Si Pa Phìn", "lat": 21.80147, "lng": 102.96263, "population": 6090}, {"name": "Quang Lộc", "lat": 18.40362, "lng": 105.76944, "population": 6084}, {"name": "Đồng Lộc", "lat": 18.37606, "lng": 105.71747, "population": 6076}, {"name": "Vĩnh Tường", "lat": 21.2165, "lng": 105.51249, "population": 6000}, {"name": "Đại Tân", "lat": 15.83333, "lng": 108.05, "population": 5881}, {"name": "Thị Trấn Tĩnh Túc", "lat": 22.65355, "lng": 105.88491, "population": 5850}, {"name": "Gia Hanh", "lat": 18.42446, "lng": 105.68717, "population": 5825}, {"name": "Xuân Sơn", "lat": 17.61667, "lng": 106.31667, "population": 5802}, {"name": "Xã An Ngãi", "lat": 10.48333, "lng": 107.23333, "population": 5740}, {"name": "Si Ma Cai", "lat": 22.6951, "lng": 104.27857, "population": 5652}, {"name": "Thị Trấn Sìn Hồ", "lat": 22.36647, "lng": 103.23438, "population": 5621}, {"name": "Phúc Trạch", "lat": 18.13333, "lng": 105.76667, "population": 5550}, {"name": "Than Uyên", "lat": 21.95907, "lng": 103.88001, "population": 5482}, {"name": "Phú Lộc", "lat": 18.4408, "lng": 105.67075, "population": 5425}, {"name": "Liên Sơn", "lat": 12.41086, "lng": 108.17682, "population": 5425}, {"name": "Lay Nưa", "lat": 22.01758, "lng": 103.11625, "population": 5376}, {"name": "Xóm Bến Củi", "lat": 11.26667, "lng": 106.35, "population": 5150}, {"name": "Nông Trường Trần Phú", "lat": 21.48235, "lng": 104.72878, "population": 5132}, {"name": "Quán Hành", "lat": 18.77927, "lng": 105.64597, "population": 5114}, {"name": "Nghĩa Đàn", "lat": 19.3, "lng": 105.43333, "population": 5037}, {"name": "A Lưới", "lat": 16.27228, "lng": 107.23385, "population": 5019}, {"name": "Thượng Lộc", "lat": 18.39099, "lng": 105.69995, "population": 4997}, {"name": "Lũng Cú", "lat": 23.36106, "lng": 105.31552, "population": 4885}, {"name": "Huyền Tụng", "lat": 20.95, "lng": 106.55, "population": 4876}, {"name": "Thường Nga", "lat": 18.45, "lng": 105.66667, "population": 4814}, {"name": "Krông Klang", "lat": 16.68906, "lng": 106.8874, "population": 4732}, {"name": "Thanh Lộc", "lat": 18.4784, "lng": 105.71213, "population": 4663}, {"name": "Lâm Đớt", "lat": 16.07565, "lng": 107.35555, "population": 4611}, {"name": "Thị Trấn Xuân Hoà", "lat": 22.90243, "lng": 106.07737, "population": 4541}, {"name": "Quảng Nhâm", "lat": 16.231, "lng": 107.18371, "population": 4527}, {"name": "Vạn Thạnh", "lat": 12.67075, "lng": 109.40382, "population": 4476}, {"name": "Trung Lộc", "lat": 18.42402, "lng": 105.73203, "population": 4318}, {"name": "Nằm Vi", "lat": 22.21667, "lng": 102.51667, "population": 4163}, {"name": "Nong Hạ", "lat": 21.95, "lng": 105.8, "population": 4062}, {"name": "Thôn La Vang Chinh", "lat": 16.71667, "lng": 107.23333, "population": 4000}, {"name": "Phù Ninh", "lat": 21.08333, "lng": 105.95, "population": 4000}, {"name": "Khánh Lộc", "lat": 18.44309, "lng": 105.74056, "population": 3929}, {"name": "Yên Lộc", "lat": 18.46476, "lng": 105.70884, "population": 3862}, {"name": "Thị Trấn Đình Cả", "lat": 21.75218, "lng": 106.07522, "population": 3810}, {"name": "Phổng Lăng", "lat": 21.46463, "lng": 103.67036, "population": 3792}, {"name": "Xuân Lạc", "lat": 19.0, "lng": 105.28333, "population": 3764}, {"name": "Tiến Lộc", "lat": 18.42942, "lng": 105.79552, "population": 3732}, {"name": "Song Lộc", "lat": 18.48036, "lng": 105.67873, "population": 3704}, {"name": "Phương Linh", "lat": 21.46709, "lng": 105.09871, "population": 3679}, {"name": "Hòa Hợp", "lat": 18.3114, "lng": 105.9099, "population": 3560}, {"name": "Kim Lộc", "lat": 18.49069, "lng": 105.68313, "population": 3519}, {"name": "Pú Hồng", "lat": 21.0696, "lng": 103.23711, "population": 3443}, {"name": "An Bá", "lat": 14.98333, "lng": 108.85, "population": 3333}, {"name": "Trung Sơn", "lat": 16.32497, "lng": 107.16051, "population": 3295}, {"name": "Ấp Long Thọ", "lat": 10.13333, "lng": 106.03333, "population": 3126}, {"name": "Vĩnh Lộc", "lat": 18.44949, "lng": 105.72107, "population": 3008}, {"name": "Giáo Liêm", "lat": 16.85, "lng": 107.15, "population": 2871}, {"name": "Xóm Mười Lăm", "lat": 19.2232, "lng": 105.65717, "population": 2855}, {"name": "Thị Trấn Phố Bảng", "lat": 23.25432, "lng": 105.18448, "population": 2811}, {"name": "Hạ Hiệu", "lat": 22.43333, "lng": 105.85, "population": 2739}, {"name": "Long Cốc", "lat": 21.11842, "lng": 105.06047, "population": 2658}, {"name": "Trường Lộc", "lat": 18.46586, "lng": 105.69331, "population": 2493}, {"name": "Vũ Quang", "lat": 18.38385, "lng": 105.5059, "population": 2449}, {"name": "Sơn Thủy", "lat": 16.25282, "lng": 107.27268, "population": 2437}, {"name": "A Ngo", "lat": 16.25772, "lng": 107.2438, "population": 2404}, {"name": "Lao Chải", "lat": 22.31377, "lng": 103.86844, "population": 2324}, {"name": "Sà Phìn", "lat": 23.26667, "lng": 105.25, "population": 2264}, {"name": "Hồng Vân", "lat": 16.36458, "lng": 107.12174, "population": 2136}, {"name": "Tân Hiệp", "lat": 15.95, "lng": 108.5, "population": 2091}, {"name": "Sằng Uỷ", "lat": 22.7, "lng": 106.55, "population": 2000}, {"name": "A Roàng Hai", "lat": 16.11247, "lng": 107.39699, "population": 1976}, {"name": "An Thới", "lat": 10.01914, "lng": 104.01499, "population": 1957}, {"name": "Lương Bằng", "lat": 21.64841, "lng": 105.02855, "population": 1937}, {"name": "Thổ Châu", "lat": 9.30313, "lng": 103.4755, "population": 1829}, {"name": "Hồng Thượng", "lat": 16.18567, "lng": 107.26085, "population": 1669}, {"name": "Hồng Bắc", "lat": 16.27728, "lng": 107.18339, "population": 1513}, {"name": "Ấp Hòa Thanh", "lat": 11.03333, "lng": 108.16667, "population": 1474}, {"name": "Hồng Kim", "lat": 16.33523, "lng": 107.23719, "population": 1451}, {"name": "Yên Thượng", "lat": 18.88333, "lng": 105.28333, "population": 1264}, {"name": "Hồng Hạ", "lat": 16.30055, "lng": 107.31292, "population": 1153}, {"name": "Đông Sơn", "lat": 16.11259, "lng": 107.31998, "population": 1081}, {"name": "Hồng Thái", "lat": 16.18436, "lng": 107.20714, "population": 1070}, {"name": "Tam Đảo", "lat": 21.39324, "lng": 105.61441, "population": 734}, {"name": "Yên Thành", "lat": 18.99856, "lng": 105.47116, "population": 0}, {"name": "Yên Ninh", "lat": 20.18396, "lng": 106.06121, "population": 0}, {"name": "Thị Trấn Yên Minh", "lat": 23.11792, "lng": 105.14159, "population": 0}, {"name": "Yến Lạc", "lat": 22.23693, "lng": 106.18149, "population": 0}, {"name": "Yên Lạc", "lat": 21.23646, "lng": 105.57297, "population": 0}, {"name": "Yên Châu", "lat": 21.04584, "lng": 104.30101, "population": 0}, {"name": "Gia Ray", "lat": 10.92615, "lng": 107.40172, "population": 0}, {"name": "Vũng Liêm", "lat": 10.09576, "lng": 106.18548, "population": 0}, {"name": "Võ Xu", "lat": 11.18691, "lng": 107.56025, "population": 0}, {"name": "Thị Trấn Vĩnh Tuy", "lat": 22.27441, "lng": 104.89091, "population": 0}, {"name": "Vĩnh Thuận", "lat": 9.50802, "lng": 105.25747, "population": 0}, {"name": "Vĩnh Thạnh", "lat": 14.10884, "lng": 108.78381, "population": 0}, {"name": "Vĩnh Lộc", "lat": 20.05438, "lng": 105.61567, "population": 0}, {"name": "Vĩnh Bình", "lat": 10.34498, "lng": 106.58056, "population": 0}, {"name": "Văn Quan", "lat": 21.86516, "lng": 106.53925, "population": 0}, {"name": "Vạn Giã", "lat": 12.69203, "lng": 109.22069, "population": 0}, {"name": "Vân Đình", "lat": 20.73514, "lng": 105.77236, "population": 0}, {"name": "Văn Điển", "lat": 20.9463, "lng": 105.845, "population": 0}, {"name": "Vân Canh", "lat": 13.61945, "lng": 108.99805, "population": 0}, {"name": "Tuy Phước", "lat": 13.82738, "lng": 109.16651, "population": 0}, {"name": "Hòa Bình", "lat": 19.26393, "lng": 104.47232, "population": 0}, {"name": "Tư Nghĩa", "lat": 15.08451, "lng": 108.826, "population": 0}, {"name": "Thị Trấn Trùng Khánh", "lat": 22.83514, "lng": 106.52496, "population": 0}, {"name": "Tri Tôn", "lat": 10.4202, "lng": 105.00073, "population": 0}, {"name": "Trà Ôn", "lat": 9.96261, "lng": 105.92168, "population": 0}, {"name": "Thị Trấn Trạm Tấu", "lat": 21.46659, "lng": 104.37966, "population": 0}, {"name": "Trà Cú", "lat": 9.69774, "lng": 106.25834, "population": 0}, {"name": "Trà Bồng", "lat": 15.25569, "lng": 108.51722, "population": 0}, {"name": "Tĩnh Gia", "lat": 19.44645, "lng": 105.77861, "population": 0}, {"name": "Tiểu Cần", "lat": 9.81166, "lng": 106.19067, "population": 0}, {"name": "Tiên Phước", "lat": 15.48819, "lng": 108.30736, "population": 0}, {"name": "Thủ Thừa", "lat": 10.60232, "lng": 106.40207, "population": 0}, {"name": "Thường Xuân", "lat": 19.90294, "lng": 105.34723, "population": 0}, {"name": "Thọ Xuân", "lat": 19.93133, "lng": 105.52179, "population": 0}, {"name": "Ái Tử", "lat": 16.76886, "lng": 107.16504, "population": 0}, {"name": "Thị Trấn Thất Khê", "lat": 22.25525, "lng": 106.47359, "population": 0}, {"name": "Phú Lộc", "lat": 9.42838, "lng": 105.74111, "population": 0}, {"name": "Thanh Sơn", "lat": 21.19867, "lng": 105.17892, "population": 0}, {"name": "Thạnh Phú", "lat": 9.94827, "lng": 106.51629, "population": 0}, {"name": "Thanh Nê", "lat": 20.3881, "lng": 106.43834, "population": 0}, {"name": "Thanh Chương", "lat": 18.77877, "lng": 105.33356, "population": 0}, {"name": "Thanh Bình", "lat": 10.5619, "lng": 105.48411, "population": 0}, {"name": "Kim Tân", "lat": 20.13053, "lng": 105.67454, "population": 0}, {"name": "Đầm Dơi", "lat": 8.99214, "lng": 105.19602, "population": 0}, {"name": "Tân Kỳ", "lat": 19.04756, "lng": 105.26807, "population": 0}, {"name": "Tánh Linh", "lat": 11.08421, "lng": 107.68095, "population": 0}, {"name": "Tân Hiệp", "lat": 10.44905, "lng": 106.34386, "population": 0}, {"name": "Tân Hiệp", "lat": 10.11709, "lng": 105.28578, "population": 0}, {"name": "Tam Bình", "lat": 10.04811, "lng": 106.00017, "population": 0}, {"name": "Thị Trấn Tà Lùng", "lat": 22.4979, "lng": 106.5669, "population": 0}, {"name": "Sơn Tịnh", "lat": 15.15856, "lng": 108.79582, "population": 0}, {"name": "Sơn Hà", "lat": 15.04193, "lng": 108.46973, "population": 0}, {"name": "Sơn Dương", "lat": 21.69676, "lng": 105.39901, "population": 0}, {"name": "Sông Mã", "lat": 21.05091, "lng": 103.74987, "population": 0}, {"name": "Mường Chiên", "lat": 21.8424, "lng": 103.56608, "population": 0}, {"name": "Quỳnh Côi", "lat": 20.66192, "lng": 106.32744, "population": 0}, {"name": "Quỳ Hợp", "lat": 19.32546, "lng": 105.18251, "population": 0}, {"name": "Quy Đạt", "lat": 17.80459, "lng": 105.97044, "population": 0}, {"name": "Quỳ Châu", "lat": 19.55206, "lng": 105.09387, "population": 0}, {"name": "Quế Sơn", "lat": 15.67356, "lng": 108.2201, "population": 0}, {"name": "Kim Sơn", "lat": 19.60409, "lng": 104.91903, "population": 0}, {"name": "Quan Hóa", "lat": 20.38481, "lng": 105.10024, "population": 0}, {"name": "Quảng Yên", "lat": 20.9421, "lng": 106.8027, "population": 0}, {"name": "Thị Trấn Quảng Uyên", "lat": 22.69499, "lng": 106.44235, "population": 0}, {"name": "Plei Kần", "lat": 14.70495, "lng": 107.6862, "population": 0}, {"name": "Phù Yên", "lat": 21.26331, "lng": 104.64439, "population": 0}, {"name": "Phú Vang", "lat": 16.43911, "lng": 107.71438, "population": 0}, {"name": "Phủ Thông", "lat": 22.27314, "lng": 105.87943, "population": 0}, {"name": "Phú Phong", "lat": 13.90964, "lng": 108.91903, "population": 0}, {"name": "Phụng Hiệp", "lat": 9.77972, "lng": 105.7338, "population": 0}, {"name": "Phù Mỹ", "lat": 14.17182, "lng": 109.04888, "population": 0}, {"name": "Phù Cát", "lat": 14.00316, "lng": 109.05804, "population": 0}, {"name": "Phong Thổ", "lat": 22.54433, "lng": 103.29776, "population": 0}, {"name": "Thị Trấn Phố Lu", "lat": 22.31918, "lng": 104.18719, "population": 0}, {"name": "Bến Sung", "lat": 19.63141, "lng": 105.57815, "population": 0}, {"name": "Phát Diệm", "lat": 20.09054, "lng": 106.08323, "population": 0}, {"name": "Thị Trấn Nước Hai", "lat": 22.73738, "lng": 106.15216, "population": 0}, {"name": "Núi Đèo", "lat": 20.91569, "lng": 106.6744, "population": 0}, {"name": "Ninh Giang", "lat": 20.73083, "lng": 106.39789, "population": 0}, {"name": "Như Quỳnh", "lat": 20.98167, "lng": 105.98486, "population": 0}, {"name": "Nho Quan", "lat": 20.32279, "lng": 105.75189, "population": 0}, {"name": "Nhơn Trạch", "lat": 10.72294, "lng": 106.88341, "population": 0}, {"name": "Nhà Bàng", "lat": 10.61772, "lng": 105.00343, "population": 0}, {"name": "Thị Trấn Nguyên Bình", "lat": 22.64995, "lng": 105.95985, "population": 0}, {"name": "Ngô Đồng", "lat": 20.28296, "lng": 106.44347, "population": 0}, {"name": "Ngọc Lặc", "lat": 20.09189, "lng": 105.36761, "population": 0}, {"name": "Tiền Hải", "lat": 20.40557, "lng": 106.50365, "population": 0}, {"name": "Nghĩa Hành", "lat": 15.04568, "lng": 108.77724, "population": 0}, {"name": "Nga Sơn", "lat": 20.00722, "lng": 105.97044, "population": 0}, {"name": "Thị Trấn Na Sầm", "lat": 22.05639, "lng": 106.6151, "population": 0}, {"name": "Nam Đàn", "lat": 18.728, "lng": 105.498, "population": 0}, {"name": "Mỹ Xuyên", "lat": 9.56006, "lng": 105.98984, "population": 0}, {"name": "Mỹ Thọ", "lat": 10.44267, "lng": 105.69508, "population": 0}, {"name": "Mỹ Lộc", "lat": 20.44111, "lng": 106.10238, "population": 0}, {"name": "Thạnh Mỹ", "lat": 15.74889, "lng": 107.83678, "population": 0}, {"name": "Thị Trấn Mường Khương", "lat": 22.76141, "lng": 104.12156, "population": 0}, {"name": "Mường Lát", "lat": 20.52915, "lng": 104.60138, "population": 0}, {"name": "Mù Cang Chải", "lat": 21.85125, "lng": 104.08954, "population": 0}, {"name": "Mộ Đức", "lat": 14.95513, "lng": 108.88586, "population": 0}, {"name": "Mộc Châu", "lat": 20.85199, "lng": 104.62177, "population": 0}, {"name": "Mỏ Cày", "lat": 10.13312, "lng": 106.33519, "population": 0}, {"name": "Minh Lương", "lat": 9.90248, "lng": 105.1595, "population": 0}, {"name": "Minh Long", "lat": 14.93218, "lng": 108.70328, "population": 0}, {"name": "Thị Trấn Mèo Vạc", "lat": 23.16411, "lng": 105.40993, "population": 0}, {"name": "Ma Đa Gui", "lat": 11.38702, "lng": 107.53508, "population": 0}, {"name": "Long Thành", "lat": 10.78909, "lng": 106.95029, "population": 0}, {"name": "Long Phú", "lat": 9.61025, "lng": 106.11881, "population": 0}, {"name": "Lộc Ninh", "lat": 11.84476, "lng": 106.59073, "population": 0}, {"name": "Liễu Đề", "lat": 20.22095, "lng": 106.18747, "population": 0}, {"name": "Liên Hương", "lat": 11.22761, "lng": 108.72366, "population": 0}, {"name": "Kiến Giang", "lat": 17.22328, "lng": 106.79011, "population": 0}, {"name": "Lấp Vò", "lat": 10.36161, "lng": 105.51924, "population": 0}, {"name": "Thị Trấn Phước Bửu", "lat": 10.53472, "lng": 107.40202, "population": 0}, {"name": "Lũng Hồ", "lat": 22.98479, "lng": 105.23983, "population": 0}, {"name": "Lang Chánh", "lat": 20.15611, "lng": 105.24223, "population": 0}, {"name": "Lái Thiêu", "lat": 10.90512, "lng": 106.69949, "population": 0}, {"name": "Lai Cách", "lat": 20.93252, "lng": 106.24756, "population": 0}, {"name": "Lạc Dương", "lat": 12.00405, "lng": 108.41905, "population": 0}, {"name": "Mường Xén", "lat": 19.39795, "lng": 104.15239, "population": 0}, {"name": "Kinh Môn", "lat": 20.98962, "lng": 106.5551, "population": 0}, {"name": "Kim Bài", "lat": 20.85265, "lng": 105.76963, "population": 0}, {"name": "Kiên Lương", "lat": 10.28624, "lng": 104.64616, "population": 0}, {"name": "Thị Trấn Khánh Yên", "lat": 22.08935, "lng": 104.25149, "population": 0}, {"name": "Kẻ Sặt", "lat": 20.91007, "lng": 106.14771, "population": 0}, {"name": "Kế Sách", "lat": 9.76743, "lng": 105.98574, "population": 0}, {"name": "Hữu Lũng", "lat": 21.5056, "lng": 106.34459, "population": 0}, {"name": "Hương Canh", "lat": 21.27882, "lng": 105.64697, "population": 0}, {"name": "Hòn Đất", "lat": 10.18462, "lng": 104.92959, "population": 0}, {"name": "Hóc Môn", "lat": 10.8891, "lng": 106.59533, "population": 0}, {"name": "Hòa Vang", "lat": 15.98764, "lng": 108.13893, "population": 0}, {"name": "Hòa Mạc", "lat": 20.64173, "lng": 105.989, "population": 0}, {"name": "Hoài Ân", "lat": 14.36352, "lng": 108.96476, "population": 0}, {"name": "Hiệp Đức", "lat": 15.58224, "lng": 108.11422, "population": 0}, {"name": "Thị Trấn Thanh Nhật", "lat": 22.68749, "lng": 106.67004, "population": 0}, {"name": "Hà Lam", "lat": 15.73871, "lng": 108.35062, "population": 0}, {"name": "Hải Lăng", "lat": 16.69347, "lng": 107.25124, "population": 0}, {"name": "Hạ Hòa", "lat": 21.56302, "lng": 105.00512, "population": 0}, {"name": "Gò Quao", "lat": 9.7332, "lng": 105.27393, "population": 0}, {"name": "Giồng Riềng", "lat": 9.90974, "lng": 105.31433, "population": 0}, {"name": "Duy Xuyên", "lat": 15.82898, "lng": 108.25956, "population": 0}, {"name": "Đức Phong", "lat": 11.81346, "lng": 107.24433, "population": 0}, {"name": "Đắk Mil", "lat": 12.44957, "lng": 107.62237, "population": 0}, {"name": "Đồng Xuân", "lat": 13.37732, "lng": 109.10807, "population": 0}, {"name": "Đồng Mỏ", "lat": 21.65701, "lng": 106.57832, "population": 0}, {"name": "Thị Trấn Đông Khê", "lat": 22.42939, "lng": 106.43194, "population": 0}, {"name": "Anh Son", "lat": 18.96961, "lng": 105.05505, "population": 0}, {"name": "Đoan Hùng", "lat": 21.62254, "lng": 105.18462, "population": 0}, {"name": "Đình Lập", "lat": 21.54633, "lng": 107.09812, "population": 0}, {"name": "Di Linh", "lat": 11.58153, "lng": 108.07641, "population": 0}, {"name": "Diên Khánh", "lat": 12.2549, "lng": 109.09332, "population": 0}, {"name": "Diêm Điền", "lat": 20.55832, "lng": 106.56882, "population": 0}, {"name": "Dầu Tiếng", "lat": 11.2741, "lng": 106.35879, "population": 0}, {"name": "Đắk Song", "lat": 12.25518, "lng": 107.60924, "population": 0}, {"name": "Đắk Tô", "lat": 14.66092, "lng": 107.8389, "population": 0}, {"name": "Củng Sơn", "lat": 13.04998, "lng": 108.97895, "population": 0}, {"name": "Con Cuông", "lat": 19.04996, "lng": 104.88124, "population": 0}, {"name": "Chúc Sơn", "lat": 20.92375, "lng": 105.70155, "population": 0}, {"name": "Chợ Mới", "lat": 21.88374, "lng": 105.77281, "population": 0}, {"name": "Chợ Mới", "lat": 10.55123, "lng": 105.40441, "population": 0}, {"name": "Chợ Lách", "lat": 10.26032, "lng": 106.11892, "population": 0}, {"name": "Giồng Trôm", "lat": 10.15021, "lng": 106.50606, "population": 0}, {"name": "Chợ Gạo", "lat": 10.34984, "lng": 106.4634, "population": 0}, {"name": "Chợ Chu", "lat": 21.90724, "lng": 105.64219, "population": 0}, {"name": "Chí Thạnh", "lat": 13.30845, "lng": 109.21522, "population": 0}, {"name": "Chi Nê", "lat": 20.49056, "lng": 105.778, "population": 0}, {"name": "Cầu Kè", "lat": 9.8724, "lng": 106.05497, "population": 0}, {"name": "Cầu Giát", "lat": 19.146, "lng": 105.63089, "population": 0}, {"name": "Cao Thượng", "lat": 21.38707, "lng": 106.12931, "population": 0}, {"name": "Cẩm Thủy", "lat": 20.20866, "lng": 105.4695, "population": 0}, {"name": "Cái Tàu Hạ", "lat": 10.25973, "lng": 105.87044, "population": 0}, {"name": "Cái Nước", "lat": 8.94231, "lng": 105.01411, "population": 0}, {"name": "Cái Nhum", "lat": 10.17412, "lng": 106.11051, "population": 0}, {"name": "Hoàn Lão", "lat": 17.58436, "lng": 106.53425, "population": 0}, {"name": "Bồng Sơn", "lat": 14.42907, "lng": 109.0156, "population": 0}, {"name": "Bù Đốp", "lat": 11.95486, "lng": 106.80018, "population": 0}, {"name": "Bình Sơn", "lat": 15.29776, "lng": 108.76124, "population": 0}, {"name": "Bình Gia", "lat": 21.96094, "lng": 106.36448, "population": 0}, {"name": "Bình Đại", "lat": 10.18964, "lng": 106.69149, "population": 0}, {"name": "Tân Túc", "lat": 10.69541, "lng": 106.59128, "population": 0}, {"name": "Bến Cầu", "lat": 11.11051, "lng": 106.17924, "population": 0}, {"name": "Ba Tri", "lat": 10.04427, "lng": 106.5902, "population": 0}, {"name": "Ba Tơ", "lat": 14.7636, "lng": 108.73223, "population": 0}, {"name": "Thị Trấn Phố Ràng", "lat": 22.23429, "lng": 104.47643, "population": 0}, {"name": "Thị Trấn Bảo Lạc", "lat": 22.94924, "lng": 105.68046, "population": 0}, {"name": "Bẩn Yên Nhân", "lat": 20.93653, "lng": 106.05711, "population": 0}, {"name": "Thị Trấn Thuận Châu", "lat": 21.43849, "lng": 103.69, "population": 0}, {"name": "Bắc Yên", "lat": 21.24626, "lng": 104.43281, "population": 0}, {"name": "Bắc Sơn", "lat": 21.89999, "lng": 106.32077, "population": 0}, {"name": "Bắc Hà", "lat": 22.53911, "lng": 104.29305, "population": 0}, {"name": "Tân Trụ", "lat": 10.51271, "lng": 106.50762, "population": 0}, {"name": "An Hòa", "lat": 10.29693, "lng": 105.74435, "population": 0}, {"name": "An Lão", "lat": 14.61241, "lng": 108.8899, "population": 0}, {"name": "An Dương", "lat": 20.86382, "lng": 106.6133, "population": 0}, {"name": "An Châu", "lat": 21.33465, "lng": 106.84934, "population": 0}, {"name": "An Biên", "lat": 9.81532, "lng": 105.06366, "population": 0}, {"name": "Quận Bảy", "lat": 10.7118, "lng": 106.73643, "population": 0}, {"name": "Tam Điệp", "lat": 20.15635, "lng": 105.91737, "population": 0}, {"name": "Châu Thành", "lat": 9.86989, "lng": 106.34939, "population": 0}, {"name": "Yên Lập", "lat": 21.34705, "lng": 105.05739, "population": 0}, {"name": "Thanh Ba", "lat": 21.49881, "lng": 105.14104, "population": 0}, {"name": "Sông Thao", "lat": 21.4213, "lng": 105.13374, "population": 0}, {"name": "Hưng Hóa", "lat": 21.25487, "lng": 105.2953, "population": 0}, {"name": "Phong Châu", "lat": 21.4068, "lng": 105.31228, "population": 0}, {"name": "Thị Trấn Tân Yên", "lat": 22.0655, "lng": 105.0345, "population": 0}, {"name": "Tân Việt", "lat": 22.86407, "lng": 105.45905, "population": 0}, {"name": "Pác Miầu", "lat": 22.82968, "lng": 105.49334, "population": 0}, {"name": "Lập Thạch", "lat": 21.41539, "lng": 105.46081, "population": 0}, {"name": "An Châu", "lat": 10.44559, "lng": 105.38622, "population": 0}, {"name": "Tầm Vu", "lat": 10.44114, "lng": 106.46793, "population": 0}, {"name": "Gia Bình", "lat": 21.05938, "lng": 106.17468, "population": 0}, {"name": "Thứa", "lat": 21.01937, "lng": 106.20044, "population": 0}, {"name": "Chờ", "lat": 21.19491, "lng": 105.95471, "population": 0}, {"name": "Hồ", "lat": 21.06308, "lng": 106.0857, "population": 0}, {"name": "Thị Trấn Gành Hào", "lat": 9.03183, "lng": 105.42115, "population": 0}, {"name": "Thị Trấn Ngan Dừa", "lat": 9.56703, "lng": 105.45019, "population": 0}, {"name": "Thị Trấn Phước Long", "lat": 9.43753, "lng": 105.46217, "population": 0}, {"name": "Thị Trấn Giá Rai", "lat": 9.23789, "lng": 105.45524, "population": 0}, {"name": "Thị Trấn Hòa Bình", "lat": 9.28471, "lng": 105.62916, "population": 0}, {"name": "Cái Dầu", "lat": 10.56982, "lng": 105.22953, "population": 0}, {"name": "Cầu Gồ", "lat": 21.47679, "lng": 106.12653, "population": 0}, {"name": "Đồi Ngô", "lat": 21.30626, "lng": 106.38673, "population": 0}, {"name": "Neo", "lat": 21.20048, "lng": 106.24739, "population": 0}, {"name": "Bích Động", "lat": 21.27421, "lng": 106.10069, "population": 0}, {"name": "Thắng", "lat": 21.35505, "lng": 105.98344, "population": 0}, {"name": "Bộc Bố", "lat": 22.61206, "lng": 105.66707, "population": 0}, {"name": "Bằng Lũng", "lat": 22.15777, "lng": 105.59559, "population": 0}, {"name": "Thị Trấn Long Điền", "lat": 10.48557, "lng": 107.21226, "population": 0}, {"name": "Mường Chà", "lat": 21.76172, "lng": 103.09783, "population": 0}, {"name": "Thị Trấn Tủa Chùa", "lat": 21.85771, "lng": 103.3426, "population": 0}, {"name": "Điện Biên Đông", "lat": 21.29673, "lng": 103.22009, "population": 0}, {"name": "Thị Trấn Điện Biên", "lat": 21.2596, "lng": 103.0344, "population": 0}, {"name": "Tam Đường", "lat": 22.31812, "lng": 103.62619, "population": 0}, {"name": "Thị Trấn Mường Tè", "lat": 22.38067, "lng": 102.82011, "population": 0}, {"name": "Thị Trấn Tam Sơn", "lat": 23.0674, "lng": 104.98926, "population": 0}, {"name": "Thị Trấn Vị Xuyên", "lat": 22.66762, "lng": 104.98191, "population": 0}, {"name": "Thị Trấn Việt Lâm", "lat": 22.62486, "lng": 104.95988, "population": 0}, {"name": "Yên Phú", "lat": 22.73223, "lng": 105.37145, "population": 0}, {"name": "Thị Trấn Vinh Quang", "lat": 22.74085, "lng": 104.67956, "population": 0}, {"name": "Yên Bình", "lat": 22.40989, "lng": 104.57949, "population": 0}, {"name": "Thị Trấn Thông Nông", "lat": 22.7841, "lng": 105.9832, "population": 0}, {"name": "Thị Trấn Hùng Quốc", "lat": 22.82898, "lng": 106.32335, "population": 0}, {"name": "Thị Trấn Vĩnh Lộc", "lat": 22.1436, "lng": 105.27192, "population": 0}, {"name": "Sơn Thịnh", "lat": 21.56252, "lng": 104.5948, "population": 0}, {"name": "Cổ Phúc", "lat": 21.75585, "lng": 104.82768, "population": 0}, {"name": "Thị Trấn Yên Thế", "lat": 22.11075, "lng": 104.76748, "population": 0}, {"name": "Thị Trấn Na Hang", "lat": 22.34917, "lng": 105.38241, "population": 0}, {"name": "An Phú", "lat": 10.81591, "lng": 105.09038, "population": 0}, {"name": "Phú Mỹ", "lat": 10.59236, "lng": 105.35573, "population": 0}, {"name": "Thị Trấn Phú Mỹ", "lat": 10.6036, "lng": 107.054, "population": 0}, {"name": "Bát Xát", "lat": 22.54311, "lng": 103.88989, "population": 0}, {"name": "Hát Lót", "lat": 21.19733, "lng": 104.10595, "population": 0}, {"name": "Quảng Xương", "lat": 19.72948, "lng": 105.78273, "population": 0}, {"name": "Nông Cống", "lat": 19.62403, "lng": 105.64941, "population": 0}, {"name": "Quan Sơn", "lat": 20.25909, "lng": 104.94521, "population": 0}, {"name": "Yên Cát", "lat": 19.66327, "lng": 105.42854, "population": 0}, {"name": "Bút Sơn", "lat": 19.85797, "lng": 105.85482, "population": 0}, {"name": "Cành Nàng", "lat": 20.34803, "lng": 105.22881, "population": 0}, {"name": "Hậu Lộc", "lat": 19.91444, "lng": 105.88615, "population": 0}, {"name": "Triệu Sơn", "lat": 19.81913, "lng": 105.60392, "population": 0}, {"name": "Quán Lào", "lat": 19.97153, "lng": 105.65106, "population": 0}, {"name": "Hà Trung", "lat": 20.01285, "lng": 105.85322, "population": 0}, {"name": "Rừng Thông", "lat": 19.81906, "lng": 105.73279, "population": 0}, {"name": "Vạn Hà", "lat": 19.88659, "lng": 105.67879, "population": 0}, {"name": "Đà Bắc", "lat": 20.87714, "lng": 105.25417, "population": 0}, {"name": "Mường Khến", "lat": 20.61441, "lng": 105.27948, "population": 0}, {"name": "Bo", "lat": 20.67264, "lng": 105.53625, "population": 0}, {"name": "Lương Sơn", "lat": 20.87148, "lng": 105.52568, "population": 0}, {"name": "Kỳ Sơn", "lat": 20.88668, "lng": 105.35244, "population": 0}, {"name": "Cao Phong", "lat": 20.70446, "lng": 105.32063, "population": 0}, {"name": "Me", "lat": 20.34697, "lng": 105.83615, "population": 0}, {"name": "Thiên Tồn", "lat": 20.29905, "lng": 105.95198, "population": 0}, {"name": "Yên Thịnh", "lat": 20.16245, "lng": 106.00697, "population": 0}, {"name": "Xuân Trường", "lat": 20.29227, "lng": 106.33275, "population": 0}, {"name": "Yên Định", "lat": 20.20145, "lng": 106.29578, "population": 0}, {"name": "Hanoi", "lat": 20.32773, "lng": 106.01208, "population": 0}, {"name": "Nam Giang", "lat": 20.33322, "lng": 106.17754, "population": 0}, {"name": "Cổ Lễ", "lat": 20.32336, "lng": 106.26584, "population": 0}, {"name": "Quế", "lat": 20.58064, "lng": 105.87266, "population": 0}, {"name": "Vĩnh Trụ", "lat": 20.5602, "lng": 106.02812, "population": 0}, {"name": "Bình Mỹ", "lat": 20.49121, "lng": 106.00955, "population": 0}, {"name": "Thanh Lưu", "lat": 20.47398, "lng": 105.95268, "population": 0}, {"name": "Hưng Hà", "lat": 20.5904, "lng": 106.22445, "population": 0}, {"name": "Vũ Thư", "lat": 20.43671, "lng": 106.29116, "population": 0}, {"name": "Đông Hưng", "lat": 20.55651, "lng": 106.35532, "population": 0}, {"name": "Thị Trấn Tuần Giáo", "lat": 21.58992, "lng": 103.42179, "population": 0}, {"name": "Mường Ảng", "lat": 21.51993, "lng": 103.22294, "population": 0}, {"name": "An Lão", "lat": 20.82294, "lng": 106.55575, "population": 0}, {"name": "Tiên Lãng", "lat": 20.72464, "lng": 106.55391, "population": 0}, {"name": "Núi Đối", "lat": 20.75078, "lng": 106.66894, "population": 0}, {"name": "Quảng Hà", "lat": 21.4506, "lng": 107.75592, "population": 0}, {"name": "Trới", "lat": 21.03141, "lng": 106.99101, "population": 0}, {"name": "Cô Tô", "lat": 20.97268, "lng": 107.76578, "population": 0}, {"name": "Thanh Miện", "lat": 20.78714, "lng": 106.24623, "population": 0}, {"name": "Nam Sách", "lat": 20.99205, "lng": 106.33613, "population": 0}, {"name": "Gia Lộc", "lat": 20.86783, "lng": 106.3, "population": 0}, {"name": "Tứ Kỳ", "lat": 20.81914, "lng": 106.40661, "population": 0}, {"name": "Thanh Hà", "lat": 20.89816, "lng": 106.42612, "population": 0}, {"name": "Phú Thái", "lat": 20.96278, "lng": 106.5095, "population": 0}, {"name": "Đu", "lat": 21.73847, "lng": 105.70388, "population": 0}, {"name": "Hương Sơn", "lat": 21.46014, "lng": 105.97814, "population": 0}, {"name": "Chùa Hang", "lat": 21.62384, "lng": 105.84168, "population": 0}, {"name": "Thanh Thủy", "lat": 21.17548, "lng": 105.28388, "population": 0}, {"name": "Lâm Thao", "lat": 21.3201, "lng": 105.29156, "population": 0}, {"name": "Mê Linh", "lat": 21.1831, "lng": 105.72041, "population": 0}, {"name": "Hợp Hòa", "lat": 21.37525, "lng": 105.54256, "population": 0}, {"name": "Văn Giang", "lat": 20.94301, "lng": 105.93119, "population": 0}, {"name": "Yên Mỹ", "lat": 20.88557, "lng": 106.0356, "population": 0}, {"name": "Khoái Châu", "lat": 20.83912, "lng": 105.97755, "population": 0}, {"name": "Ân Thi", "lat": 20.81835, "lng": 106.09118, "population": 0}, {"name": "Trần Cao", "lat": 20.72952, "lng": 106.17971, "population": 0}, {"name": "Vương", "lat": 20.7011, "lng": 106.11751, "population": 0}, {"name": "Phúc Thọ", "lat": 21.10345, "lng": 105.54551, "population": 0}, {"name": "Phùng", "lat": 21.08902, "lng": 105.65901, "population": 0}, {"name": "Trôi", "lat": 21.06953, "lng": 105.70646, "population": 0}, {"name": "Quốc Oai", "lat": 20.99019, "lng": 105.64088, "population": 0}, {"name": "Thường Tín", "lat": 20.86874, "lng": 105.86125, "population": 0}, {"name": "Phú Xuyên", "lat": 20.74549, "lng": 105.91363, "population": 0}, {"name": "Đại Nghĩa", "lat": 20.68667, "lng": 105.74471, "population": 0}, {"name": "Đông Anh", "lat": 21.13962, "lng": 105.84926, "population": 0}, {"name": "Hưng Nguyên", "lat": 18.67165, "lng": 105.62882, "population": 0}, {"name": "Đồng Lê", "lat": 17.88389, "lng": 106.02536, "population": 0}, {"name": "Khe Tre", "lat": 16.1691, "lng": 107.71793, "population": 0}, {"name": "Sịa", "lat": 16.57452, "lng": 107.51066, "population": 0}, {"name": "Liên Chiểu", "lat": 16.07272, "lng": 108.15815, "population": 0}, {"name": "Ngũ Hành Sơn", "lat": 16.01618, "lng": 108.25335, "population": 0}, {"name": "Prao", "lat": 15.92438, "lng": 107.64814, "population": 0}, {"name": "Khâm Đức", "lat": 15.44508, "lng": 107.79337, "population": 0}, {"name": "Phú Ninh", "lat": 15.55473, "lng": 108.41142, "population": 0}, {"name": "Tây Trà", "lat": 15.16948, "lng": 108.35998, "population": 0}, {"name": "Đắk Glei", "lat": 15.08642, "lng": 107.73577, "population": 0}, {"name": "Sa Thầy", "lat": 14.41377, "lng": 107.79339, "population": 0}, {"name": "Đắk Hà", "lat": 14.51345, "lng": 107.92102, "population": 0}, {"name": "Đắk Rve", "lat": 14.50717, "lng": 108.2473, "population": 0}, {"name": "Măng Đen", "lat": 14.60064, "lng": 108.29088, "population": 0}, {"name": "Đăk Đoa", "lat": 13.99501, "lng": 108.11207, "population": 0}, {"name": "K Bang", "lat": 14.14453, "lng": 108.59908, "population": 0}, {"name": "Kông Chro", "lat": 13.77532, "lng": 108.52558, "population": 0}, {"name": "Ia Pa", "lat": 13.53361, "lng": 108.45529, "population": 0}, {"name": "Chư Sê", "lat": 13.69153, "lng": 108.08023, "population": 0}, {"name": "Chư Prông", "lat": 13.75684, "lng": 107.88624, "population": 0}, {"name": "Chư Ty", "lat": 13.80507, "lng": 107.6961, "population": 0}, {"name": "Ia Kha", "lat": 13.96242, "lng": 107.84484, "population": 0}, {"name": "Phú Hòa", "lat": 14.10005, "lng": 107.96896, "population": 0}, {"name": "Kon Dơng", "lat": 14.03886, "lng": 108.25011, "population": 0}, {"name": "Hai Riêng", "lat": 12.97908, "lng": 108.89732, "population": 0}, {"name": "Krông Năng", "lat": 12.9517, "lng": 108.34425, "population": 0}, {"name": "Ea Kar", "lat": 12.80816, "lng": 108.44901, "population": 0}, {"name": "Krông Kmar", "lat": 12.5045, "lng": 108.33288, "population": 0}, {"name": "M’Đrăk", "lat": 12.74624, "lng": 108.74281, "population": 0}, {"name": "Khánh Vĩnh", "lat": 12.28355, "lng": 108.9047, "population": 0}, {"name": "Tô Hạp", "lat": 12.00582, "lng": 108.94868, "population": 0}, {"name": "Cam Lâm", "lat": 12.05398, "lng": 109.16004, "population": 0}, {"name": "Ea T’ling", "lat": 12.58904, "lng": 107.89578, "population": 0}, {"name": "Đắk Mâm", "lat": 12.45789, "lng": 107.86246, "population": 0}, {"name": "Thạnh Mỹ", "lat": 11.76165, "lng": 108.49473, "population": 0}, {"name": "Lộc Thắng", "lat": 11.62836, "lng": 107.83508, "population": 0}, {"name": "Đồng Nai", "lat": 11.57981, "lng": 107.36518, "population": 0}, {"name": "Đạ Tẻh", "lat": 11.51148, "lng": 107.49092, "population": 0}, {"name": "Bác Ái", "lat": 11.84104, "lng": 108.90316, "population": 0}, {"name": "Tân Sơn", "lat": 11.77521, "lng": 108.7848, "population": 0}, {"name": "Phước Dân", "lat": 11.52696, "lng": 108.92996, "population": 0}, {"name": "Khánh Hải", "lat": 11.59105, "lng": 109.04052, "population": 0}, {"name": "Chợ Lầu", "lat": 11.22158, "lng": 108.50707, "population": 0}, {"name": "Ma Lâm", "lat": 11.07297, "lng": 108.12997, "population": 0}, {"name": "Thuận Nam", "lat": 10.85004, "lng": 107.87864, "population": 0}, {"name": "Tân Phú", "lat": 11.27221, "lng": 107.43655, "population": 0}, {"name": "Vĩnh An", "lat": 11.08901, "lng": 107.03516, "population": 0}, {"name": "Thống Nhất", "lat": 10.95055, "lng": 107.14571, "population": 0}, {"name": "Tân Phú", "lat": 11.45119, "lng": 106.86811, "population": 0}, {"name": "Tân Châu", "lat": 11.55202, "lng": 106.17245, "population": 0}, {"name": "Tân Biên", "lat": 11.54441, "lng": 106.01161, "population": 0}, {"name": "Châu Thành", "lat": 11.31167, "lng": 106.0295, "population": 0}, {"name": "Gò Dầu", "lat": 11.0885, "lng": 106.26346, "population": 0}, {"name": "Tân Hưng", "lat": 10.83476, "lng": 105.66135, "population": 0}, {"name": "Vĩnh Hưng", "lat": 10.89067, "lng": 105.78495, "population": 0}, {"name": "Tân Thạnh", "lat": 10.60666, "lng": 106.04714, "population": 0}, {"name": "Thạnh Hóa", "lat": 10.65744, "lng": 106.18081, "population": 0}, {"name": "Đông Thành", "lat": 10.89221, "lng": 106.30614, "population": 0}, {"name": "Hậu Nghĩa", "lat": 10.89434, "lng": 106.39695, "population": 0}, {"name": "Mỹ Phước", "lat": 10.47711, "lng": 106.19256, "population": 0}, {"name": "Tân Hòa", "lat": 10.31906, "lng": 106.71128, "population": 0}, {"name": "Thứ Mười Một", "lat": 9.61144, "lng": 104.9465, "population": 0}, {"name": "Long Hồ", "lat": 10.19281, "lng": 106.01229, "population": 0}, {"name": "Châu Thành", "lat": 10.30122, "lng": 106.35701, "population": 0}, {"name": "Nàng Mau", "lat": 9.75129, "lng": 105.53448, "population": 0}, {"name": "Ngã Sáu", "lat": 9.92303, "lng": 105.80542, "population": 0}, {"name": "Một Ngàn", "lat": 9.92402, "lng": 105.62964, "population": 0}, {"name": "Cù Lao Dung", "lat": 9.67314, "lng": 106.14874, "population": 0}, {"name": "Châu Thành", "lat": 9.7007, "lng": 105.90202, "population": 0}, {"name": "Huỳnh Hữu Nghĩa", "lat": 9.63537, "lng": 105.81165, "population": 0}, {"name": "Ngọc Hiển", "lat": 8.65724, "lng": 105.06021, "population": 0}, {"name": "Quận Hai", "lat": 10.79156, "lng": 106.74948, "population": 0}, {"name": "Quận Chín", "lat": 10.8397, "lng": 106.77093, "population": 0}, {"name": "Quận Một", "lat": 10.78069, "lng": 106.69944, "population": 0}, {"name": "Quận Phú Nhuận", "lat": 10.79475, "lng": 106.6763, "population": 0}, {"name": "Quận Tân Phú", "lat": 10.78379, "lng": 106.63704, "population": 0}, {"name": "Quận Bình Thạnh", "lat": 10.80325, "lng": 106.69666, "population": 0}, {"name": "Hoàng Sa", "lat": 16.66657, "lng": 112.72541, "population": 0}, {"name": "Quận Lấp Vò", "lat": 10.35554, "lng": 105.58125, "population": 0}, {"name": "Hoàng Sa", "lat": 16.83517, "lng": 112.33873, "population": 0}, {"name": "Huyện Bảo Lâm", "lat": 11.69958, "lng": 107.76252, "population": 0}, {"name": "Xã Phúc Thọ", "lat": 11.80701, "lng": 108.12875, "population": 0}, {"name": "Xã Tân Hà", "lat": 11.73475, "lng": 108.2023, "population": 0}, {"name": "Xã Tân Văn", "lat": 11.77545, "lng": 108.22464, "population": 0}, {"name": "Xã Hoài Đức", "lat": 11.74475, "lng": 108.14689, "population": 0}, {"name": "Xã Tân Thanh", "lat": 11.7522, "lng": 108.06967, "population": 0}, {"name": "Xã Đạ K'Nàng", "lat": 11.89361, "lng": 108.13481, "population": 0}]