[{"name": "Port-Vila", "lat": -17.73648, "lng": 168.31366, "population": 35901}, {"name": "Luganville", "lat": -15.51989, "lng": 167.16235, "population": 13397}, {"name": "Norsup", "lat": -16.06536, "lng": 167.39714, "population": 2998}, {"name": "Pango", "lat": -17.78333, "lng": 168.28333, "population": 2485}, {"name": "Isangel", "lat": -19.54167, "lng": 169.28167, "population": 1437}, {"name": "Port-Olry", "lat": -15.04175, "lng": 167.07265, "population": 1300}, {"name": "Sola", "lat": -13.87611, "lng": 167.55167, "population": 1171}, {"name": "Lakatoro", "lat": -16.09992, "lng": 167.41636, "population": 705}, {"name": "Saratamata", "lat": -15.29031, "lng": 167.96679, "population": 0}]