[{"name": "Apia", "lat": -13.83333, "lng": -171.76666, "population": 40407}, {"name": "Asau", "lat": -13.51963, "lng": -172.63784, "population": 6643}, {"name": "Mulifanua", "lat": -13.83183, "lng": -172.03602, "population": 4508}, {"name": "Faleula", "lat": -13.79457, "lng": -171.83126, "population": 2592}, {"name": "Vaimoso", "lat": -13.83655, "lng": -171.77713, "population": 2465}, {"name": "Siusega", "lat": -13.84432, "lng": -171.81397, "population": 2226}, {"name": "Malie", "lat": -13.80044, "lng": -171.8469, "population": 2189}, {"name": "Fasito‘outa", "lat": -13.81163, "lng": -171.94063, "population": 2098}, {"name": "Vaiusu", "lat": -13.82678, "lng": -171.79333, "population": 2043}, {"name": "Afega", "lat": -13.79726, "lng": -171.85308, "population": 1895}, {"name": "Nofoali‘i", "lat": -13.8217, "lng": -171.95873, "population": 1828}, {"name": "Solosolo", "lat": -13.87504, "lng": -171.64181, "population": 1487}, {"name": "Vailima", "lat": -13.86417, "lng": -171.76126, "population": 1462}, {"name": "Leulumoega", "lat": -13.82297, "lng": -171.96127, "population": 1458}, {"name": "Satapuala", "lat": -13.83535, "lng": -171.97963, "population": 1412}, {"name": "Tuana‘i", "lat": -13.79956, "lng": -171.86158, "population": 1407}, {"name": "Falefa", "lat": -13.88695, "lng": -171.58805, "population": 1346}, {"name": "Matavai", "lat": -14.03208, "lng": -171.64768, "population": 1308}, {"name": "Safotu", "lat": -13.45132, "lng": -172.40177, "population": 1207}, {"name": "Si’umu", "lat": -14.00943, "lng": -171.77682, "population": 1183}, {"name": "Gataivai", "lat": -13.7736, "lng": -172.38802, "population": 1141}, {"name": "Lotofagā", "lat": -13.97643, "lng": -171.85781, "population": 1126}, {"name": "Lufilufi", "lat": -13.87449, "lng": -171.59857, "population": 1074}, {"name": "Vailoa", "lat": -13.75551, "lng": -172.30698, "population": 769}, {"name": "Samamea", "lat": -13.93375, "lng": -171.53122, "population": 89}, {"name": "Satupa‘itea", "lat": -13.76593, "lng": -172.32686, "population": 0}, {"name": "Safotulafai", "lat": -13.67147, "lng": -172.17768, "population": 0}]